# LAS format log file from PETREL
# Project units are specified as depth units
#==================================================================
~Version information
VERS.   2.0:
WRAP.   NO:
#==================================================================
~Well
STRT .m      439.11318970 :
STOP .m      3157.0148926 :
STEP .m     0.00000000 :
NULL .        -999.250000 :
COMP.           : COMPANY
WELL.  16/10-1 Alpha   : WELL
FLD.            : FIELD
LOC.            : LOCATION
SRVC.           : SERVICE COMPANY
DATE.  2018-09-11 14:48:05   : Log Export Date {yyyy-MM-dd HH:mm:ss}
PROV.           : PROVINCE
UWI.   16/10-1   : UNIQUE WELL ID
API.            : API NUMBER
#==================================================================
~Curve
DEPT .m                   : DEPTH
Lithology_geolink ._      : Lithology_geolink
DCAL .in                  : DCAL
CALI .in                  : CALI
BS .in                    : BS
DRHO .g/cm3               : DRHO
NPHI .m3/m3               : NPHI
RHOB .g/cm3               : RHOB
PEF .b/e                  : PEF
GR .gAPI                  : GR
DTC .us/ft                : DTC
RDEP .ohm.m               : RDEP
SP .mV                    : SP
RSHA .ohm.m               : RSHA
RXO .ohm.m                : RXO
RMED .ohm.m               : RMED
~Parameter
#==================================================================
~Ascii
# ...
 2792.7788086 12.000000000 0.9531002641 9.4531002045 8.5000000000 0.0357000008 0.2870000005 2.4818999767 5.6918687820 69.357200623 90.154403687 1.4961999655 117.69689941  -999.250000  -999.250000 1.6834000349
 2792.9311523 12.000000000 0.6171998382 9.1171998978 8.5000000000 0.0152000003 0.2612999976 2.4823999405 5.8452901840 69.871803284 93.734901428 1.4694999456 117.87799835  -999.250000  -999.250000 1.4823000431
 2793.0834961 12.000000000 0.6406002641 9.1406002045 8.5000000000 0.0189999994 0.2585000098 2.4431002140 5.8860239983 69.331703186 92.634201050 1.3676999807 117.71690369  -999.250000  -999.250000 1.5405999422
 2793.2358398 12.000000000 0.7734003067 9.2734003067 8.5000000000 0.0221999995 0.2709000111 2.3849999905 5.5836400986 70.746696472 92.457206726 1.3105000257 118.17970276  -999.250000  -999.250000 1.7164000273
 2793.3884277 12.000000000 0.9453001022 9.4453001022 8.5000000000 0.0348000005 0.3138999939 2.3373000622 5.2194991112 88.262901306 99.740303040 1.2877999544 118.48950195  -999.250000  -999.250000 1.7989000082
 2793.5407715 12.000000000 0.8359003663 9.3359003067 8.5000000000 0.0383000001 0.3562000096 2.3227999210 5.1487379074 116.85939789 106.94490814 1.2839000225 118.62770081  -999.250000  -999.250000 1.6689000130
 2793.6931152 12.000000000 0.6953000426 9.1953001022 8.5000000000 0.0439999998 0.4165999889 2.3178999424 5.0414290428 143.96870422 113.28020477 1.3136999607 118.04949951  -999.250000  -999.250000 1.5023000240
 2793.8454590 12.000000000 0.5546998978 9.0546998978 8.5000000000 0.0355000012 0.4088000059 2.3062996864 4.5824069977 163.44430542 121.35661316 1.3733999729 117.69609833  -999.250000  -999.250000 1.4824999571
 2793.9980469 7.0000000000 0.5781002045 9.0781002045 8.5000000000 0.0182000007 0.4151999950 2.2908000946 4.2022991180 187.79820251 122.63249969 1.3882000446 117.72019958  -999.250000  -999.250000 1.6240999699
 2794.1503906 7.0000000000 0.5156002045 9.0156002045 8.5000000000 0.0086000003 0.3995999992 2.2957003117 4.0131340027 206.69140625 122.13480377 1.4062999487 117.03749847  -999.250000  -999.250000 1.7495000362
 2794.3027344 7.0000000000 0.6562004089 9.1562004089 8.5000000000 0.0031000001 0.4128000140 2.3110001087 3.9704399109 217.66819763 122.76931000 1.4355000257 117.19689941  -999.250000  -999.250000 1.9352999926
 2794.4550781 7.0000000000 0.5390996933 9.0390996933 8.5000000000 0.0046000001 0.3948999941 2.3310999870 3.8395500183 214.44169617 121.16570282 1.4639999866 117.45780182  -999.250000  -999.250000 2.0690999031
 2794.6076660 7.0000000000 0.5546998978 9.0546998978 8.5000000000 0.0037000000 0.3693000078 2.3422999382 3.7186338902 213.48199463 119.78060913 1.4859000444 117.20780182  -999.250000  -999.250000 2.2488000393
 2794.7600098 7.0000000000 0.4531002045 8.9531002045 8.5000000000 0.0048000002 0.3666999936 2.3563001156 3.7245600224 215.95520020 118.81049347 1.5341000557 116.79709625  -999.250000  -999.250000 2.2832000256
 2794.9123535 7.0000000000 0.4531002045 8.9531002045 8.5000000000 0.0005000000 0.3847000003 2.3596999645 3.7749021053 214.05769348 118.48059845 1.5915999413 116.30750275  -999.250000  -999.250000 2.2866001129
 2795.0646973 7.0000000000 0.4687004089 8.9687004089 8.5000000000 0.0012000001 0.3842000067 2.3638000488 3.7718410492 220.98989868 118.05500793 1.6256999969 116.27069855  -999.250000  -999.250000 2.1261999607
 2795.2170410 7.0000000000 0.4843997955 8.9843997955 8.5000000000 -0.000600000 0.3957999945 2.3519999981 3.8144340515 220.82490540 118.28370667 1.6433000565 116.25859833  -999.250000  -999.250000 2.0838999748
 2795.3696289 7.0000000000 0.4531002045 8.9531002045 8.5000000000 0.0013000000 0.3865000010 2.3440999985 3.7845549583 229.48570251 118.97019958 1.6535999775 116.52069855  -999.250000  -999.250000 2.1380000114
 2795.5219727 7.0000000000 0.4531002045 8.9531002045 8.5000000000 0.0015000000 0.3718999922 2.3420999050 3.8690340519 224.00050354 119.27570343 1.6229000092 116.27030182  -999.250000  -999.250000 2.3587999344
 2795.6743164 7.0000000000 0.4531002045 8.9531002045 8.5000000000 0.0030000000 0.3542999923 2.3461000919 3.9835081100 217.39979553 119.92019653 1.5706000328 116.17970276  -999.250000  -999.250000 2.5394001007
 2795.8266602 7.0000000000 0.4531002045 8.9531002045 8.5000000000 0.0062000002 0.3562999964 2.3589999676 4.1270470619 208.59759521 118.77890015 1.5467000008 116.50939941  -999.250000  -999.250000 2.5381999016
 2795.9792480 7.0000000000 0.3281002045 8.8281002045 8.5000000000 0.0063999998 0.3858000040 2.3615000248 4.2123599052 202.90170288 118.51519012 1.5503000021 117.00939941  -999.250000  -999.250000 2.3110001087
 2796.1315918 7.0000000000 0.4375000000 8.9375000000 8.5000000000 0.0082999999 0.3910999894 2.3770000935 4.3830380440 199.00000000 119.24999237 1.5243999958 117.42990112  -999.250000  -999.250000 2.1073999405
 2796.2839355 7.0000000000 0.4140996635 8.9140996933 8.5000000000 0.0035000001 0.3704999983 2.3787999153 4.7121400833 193.00909424 118.01519775 1.4931999445 117.52069855  -999.250000  -999.250000 2.0362999439
 2796.4362793 7.0000000000 0.3828001022 8.8828001022 8.5000000000 0.0033000000 0.3727999926 2.3763999939 4.5596079826 187.79100037 117.76450348 1.4667999744 116.79470062  -999.250000  -999.250000 2.0385999680
 2796.5888672 7.0000000000 0.3828001022 8.8828001022 8.5000000000 -0.001200000 0.3847000003 2.3582003117 4.3140587807 188.31399536 117.98999786 1.4400000572 115.28269958  -999.250000  -999.250000 2.0280001163
 2796.7412109 7.0000000000 0.3906002343 8.8906002045 8.5000000000 -0.000400000 0.4052999914 2.3570001125 3.9357600212 196.34489441 118.06330872 1.4062000513 114.52030182  -999.250000  -999.250000 2.0745000839
 2796.8935547 7.0000000000 0.3515997231 8.8515996933 8.5000000000 -0.005600000 0.3831000030 2.3506999016 3.8432209492 206.24729919 119.24990082 1.4057999849 114.42970276  -999.250000  -999.250000 2.0975999832
 2797.0458984 7.0000000000 0.3593997955 8.8593997955 8.5000000000 -0.001000000 0.3497999907 2.3585000038 3.9390308857 213.34890747 120.39910126 1.4155999422 114.91889954  -999.250000  -999.250000 2.1666998863
 2797.1982422 7.0000000000 0.3515997231 8.8515996933 8.5000000000 -0.001200000 0.3459999859 2.3559999466 4.0306138992 207.40919495 120.30500031 1.4329999685 115.67970276  -999.250000  -999.250000 2.1321001053
 2797.3508301 7.0000000000 0.3515997231 8.8515996933 8.5000000000 0.0059000002 0.3689999878 2.3596999645 4.1599998474 203.71139526 120.65350342 1.4581999779 116.00939941  -999.250000  -999.250000 2.1919000149
 2797.5031738 7.0000000000 0.3515997231 8.8515996933 8.5000000000 0.0082000000 0.3813000023 2.3675000668 4.1267280579 199.82530212 120.04029846 1.5065000057 116.27010345  -999.250000  -999.250000 2.2434999943
 2797.6555176 7.0000000000 0.3984002769 8.8984003067 8.5000000000 0.0086000003 0.3817000091 2.3773000240 4.1541471481 195.78460693 119.77050018 1.5548000336 116.25859833  -999.250000  -999.250000 2.2804000378
 2797.8078613 7.0000000000 0.3593997955 8.8593997955 8.5000000000 0.0016000000 0.3756999969 2.3703000546 4.1538839340 196.48919678 119.72949982 1.6124000549 116.44129944  -999.250000  -999.250000 2.2578001022
 2797.9604492 7.0000000000 0.3515997231 8.8515996933 8.5000000000 -0.004200000 0.3801000118 2.3540000916 4.1818661690 204.02549744 119.52010345 1.6518000364 116.02069855  -999.250000  -999.250000 2.3475999832
 2798.1127930 7.0000000000 0.3515997231 8.8515996933 8.5000000000 -0.006900000 0.3779999912 2.3436999321 4.2093100548 213.68280029 119.46160126 1.6821999550 115.90979767  -999.250000  -999.250000 2.6454000473
 2798.2651367 7.0000000000 0.3515997231 8.8515996933 8.5000000000 -0.005200000 0.3819000125 2.3563001156 4.3476557732 221.74859619 119.05410004 1.6978000402 115.95780182  -999.250000  -999.250000 2.8856999874
 2798.4174805 7.0000000000 0.3515997231 8.8515996933 8.5000000000 -0.001200000 0.3923000097 2.3796000481 4.2791399956 218.45979309 119.18410492 1.7201000452 115.86720276  -999.250000  -999.250000 2.8396000862
 2798.5700684 7.0000000000 0.3515997231 8.8515996933 8.5000000000 0.0003000000 0.3916000128 2.3856999874 4.0406270027 221.25639343 118.55890656 1.7596000433 115.87799835  -999.250000  -999.250000 2.5943000317
