# LAS format log file from PETREL
# Project units are specified as depth units
#==================================================================
~Version information
VERS.   2.0:
WRAP.   NO:
#==================================================================
~Well
STRT .m      2766.8217773 :
STOP .m      3149.9555664 :
STEP .m     0.00000000 :
NULL .        -999.250000 :
COMP.           : COMPANY
WELL.  16/10-2 Delta   : WELL
FLD.            : FIELD
LOC.            : LOCATION
SRVC.           : SERVICE COMPANY
DATE.  2018-09-11 14:48:06   : Log Export Date {yyyy-MM-dd HH:mm:ss}
PROV.           : PROVINCE
UWI.   16/10-2   : UNIQUE WELL ID
API.            : API NUMBER
#==================================================================
~Curve
DEPT .m                   : DEPTH
Lithology_geolink ._      : Lithology_geolink
DCAL .in                  : DCAL
CALI .in                  : CALI
BS .in                    : BS
DRHO .g/cm3               : DRHO
THOR .ppm                 : THOR
NPHI .m3/m3               : NPHI
RHOB .g/cm3               : RHOB
PEF .b/e                  : PEF
GR .gAPI                  : GR
URAN .ppm                 : URAN
DTC .us/ft                : DTC
RDEP .ohm.m               : RDEP
SP .mV                    : SP
RMED .ohm.m               : RMED
~Parameter
#==================================================================
~Ascii
# ...
 3040.2277832 2.0000000000 -0.210934564 8.2890653610 8.5000000000 0.0126395496 6.7855968475 0.2077864110 2.4908750057 3.9120841026 60.187858582 1.2926050425 78.299926758 0.8173248768 95.176239014 1.5663100481
 3040.3801270 2.0000000000 -0.203130707 8.2968692780 8.5000000000 0.0094238603 7.1012802124 0.2279018909 2.4634120464 3.8497819901 61.093170166 1.3852089643 78.101158142 0.7884960771 95.799392700 1.5178365707
 3040.5324707 2.0000000000 -0.210928902 8.2890710831 8.5000000000 0.0027750961 6.5965328217 0.2385250032 2.4222159386 4.0747351646 60.341869354 1.1085259914 79.603408813 0.7557743192 95.546211243 1.2149368525
 3040.6848145 2.0000000000 -0.203125015 8.2968750000 8.5000000000 0.0020628020 6.6642518044 0.2412093878 2.3853209019 4.5279211998 58.685050964 1.1622029543 82.603462219 0.7250149250 94.164093018 0.8931329250
 3040.8374023 2.0000000000 -0.203125015 8.2968750000 8.5000000000 0.0019098980 6.3620920181 0.2340015918 2.3541660309 4.9110112190 57.054958344 1.0181560516 84.900367737 0.6986110806 90.650314331 0.7580398321
 3040.9897461 2.0000000000 -0.203125015 8.2968750000 8.5000000000 0.0030463771 6.5437111855 0.2273918986 2.3451120853 5.3667511940 53.035099030 1.1248329878 85.099822998 0.6752797961 85.797836304 0.8028878570
 3041.1420898 2.0000000000 -0.203125015 8.2968750000 8.5000000000 0.0019661610 6.8087558746 0.2266864032 2.3524758816 5.2813010216 52.906318665 1.2358360291 84.400413513 0.6533026099 81.548889160 0.9254266024
 3041.2944336 2.0000000000 -0.203125015 8.2968750000 8.5000000000 0.0064336341 6.6538248062 0.2294010967 2.3761060238 5.3515467644 52.656299591 1.1786320210 83.600181580 0.6342564821 79.299484253 1.0538614988
 3041.4470215 2.0000000000 -0.203125015 8.2968750000 8.5000000000 0.0068192929 6.1622080803 0.2304420024 2.3787050247 5.2617421150 54.843688965 1.0435700417 82.300033569 0.6186016202 78.677078247 1.1652292013
 3041.5993652 2.0000000000 -0.203128800 8.2968711853 8.5000000000 0.0071229059 6.1729969978 0.2301951051 2.3749909401 5.4139609337 54.438339233 1.0934170485 82.399932861 0.6034781933 79.301582336 1.2216881514
 3041.7517090 2.0000000000 -0.210937500 8.2890634537 8.5000000000 0.0114412513 6.1958122253 0.2227396965 2.3702299595 5.2183132172 56.062438965 1.2057759762 82.299118042 0.5858836770 80.050926208 1.2255077362
 3041.9040527 2.0000000000 -0.210927993 8.2890720367 8.5000000000 0.0124669001 4.7895669937 0.2245663106 2.3658270836 4.7265729904 55.999290466 1.3529820442 81.301513672 0.5643869042 80.423553467 1.1940149069
 3042.0561523 2.0000000000 -0.203137398 8.2968626022 8.5000000000 0.0103710098 4.7505621910 0.2267798930 2.3499429226 4.7343940735 55.433017731 1.3263629675 82.499580383 0.5414757133 79.921737671 1.0818020105
 3042.2087402 2.0000000000 -0.210937500 8.2890634537 8.5000000000 0.0093664108 4.6300110817 0.2381747961 2.3298170567 4.7466921806 51.566211700 1.2230919600 84.599227905 0.5243914723 77.919517517 0.9407461286
 3042.3610840 2.0000000000 -0.210937500 8.2890634537 8.5000000000 0.0061771860 4.5117788315 0.2398445010 2.2976770401 5.0466232300 50.315547943 1.1436589956 85.896842957 0.5131928921 75.177291870 0.8545647264
 3042.5134277 2.0000000000 -0.210937500 8.2890634537 8.5000000000 0.0036673460 4.5104632378 0.2273142934 2.2919940948 4.8789849281 47.661766052 1.0699900389 86.398963928 0.5043985844 72.926048279 0.8481475115
 3042.6657715 2.0000000000 -0.210937500 8.2890634537 8.5000000000 0.0053334320 5.2906532288 0.2197720855 2.3149099350 5.0663871765 45.503677368 1.2259629965 85.501518250 0.4956063926 71.050178528 0.9174733758
 3042.8181152 2.0000000000 -0.195314422 8.3046855927 8.5000000000 0.0094895381 4.9812278748 0.2138192058 2.3559870720 5.2032399178 46.279178619 0.9815554619 83.804946899 0.4882807136 70.675292969 1.0097810030
 3042.9707031 2.0000000000 -0.203129798 8.2968702316 8.5000000000 0.0099408757 5.0352029800 0.2183938026 2.3640530109 5.6367340088 47.905235291 1.0142560005 82.002883911 0.4863323867 71.801017761 1.0683740377
 3043.1230469 2.0000000000 -0.210929900 8.2890701294 8.5000000000 0.0078028380 4.8115859032 0.2206318974 2.3457849026 5.6603960991 50.405292511 0.9103255868 81.999801636 0.4931733012 73.425109863 1.0918149948
 3043.2753906 2.0000000000 -0.203114480 8.2968845367 8.5000000000 0.0037117200 4.9816761017 0.2205579877 2.3327000141 5.8986902237 53.434494019 1.0369100571 81.800300598 0.5024453998 73.548606873 1.1094269753
 3043.4277344 2.0000000000 -0.195340216 8.3046598434 8.5000000000 0.0045500528 5.0731220245 0.2232905030 2.3411331177 6.0827188492 54.778259277 1.1379499435 81.800506592 0.5053591132 72.549766541 1.1474390030
 3043.5803223 2.0000000000 -0.210937500 8.2890634537 8.5000000000 0.0052689272 5.3380432129 0.2189986110 2.3553938866 6.4763808250 55.526306152 1.2641739845 82.100563049 0.4985016882 72.427619934 1.1346999407
 3043.7326660 2.0000000000 -0.210937500 8.2890634537 8.5000000000 0.0026984911 4.2772030830 0.2249716967 2.3372240067 6.3906869888 53.754135132 0.7553415895 82.598846436 0.4829212129 73.674087524 1.1035380363
 3043.8850098 2.0000000000 -0.203127906 8.2968721390 8.5000000000 0.0003974232 3.9017541409 0.2241031080 2.3081400394 6.2890977859 51.629158020 0.6217389107 84.196884155 0.4668025076 74.924552917 1.0869200230
 3044.0373535 2.0000000000 -0.203125015 8.2968750000 8.5000000000 0.0018562120 3.7706229687 0.2362673879 2.2921659946 5.9179611206 52.933235168 0.5206779242 84.798095703 0.4565429091 73.674957275 1.0986330509
 3044.1899414 2.0000000000 -0.210931778 8.2890682220 8.5000000000 0.0020992500 3.8253760338 0.2400338948 2.2859890461 5.4137129784 48.568790436 0.4188246131 85.698860168 0.4531275928 71.674316406 1.0868790150
 3044.3422852 4.0000000000 -0.195312500 8.3046884537 8.5000000000 0.0024971410 4.3016190529 0.2340245098 2.2841479778 4.5034999847 46.687747955 0.5471156240 86.498565674 0.4599739015 69.924713135 0.9969944954
 3044.4946289 4.0000000000 -0.195329696 8.3046703339 8.5000000000 0.0009235099 4.2916979790 0.2223061919 2.2827188969 3.9643828869 43.042297363 0.5272558928 86.298873901 0.4775663018 69.551528931 0.8964701295
 3044.6469727 4.0000000000 -0.210937500 8.2890634537 8.5000000000 0.0013988781 5.2818050385 0.2143744975 2.3236029148 3.5546610355 47.653877258 0.8515146971 84.998207092 0.5024955273 70.930580139 0.8840352893
 3044.7995605 4.0000000000 -0.210937500 8.2890634537 8.5000000000 0.0028538040 5.5123357773 0.2118095011 2.3852479458 3.5367488861 51.034484863 0.9583088756 82.399711609 0.5401300192 74.688209534 1.0491340160
 3044.9519043 2.0000000000 -0.210920304 8.2890796661 8.5000000000 0.0072350870 5.7709908485 0.2121438980 2.4551661015 3.3435459137 55.675537109 1.0754270554 80.006195068 0.5912564993 81.793067932 1.2137069702
 3045.1042480 2.0000000000 -0.203129798 8.2968702316 8.5000000000 0.0101914993 5.8430819511 0.2122121006 2.4781136513 3.2520079613 56.311111450 1.1205049753 77.106430054 0.6527928710 89.920066833 1.2343629599
 3045.2565918 2.0000000000 -0.210935622 8.2890644073 8.5000000000 0.0087571554 6.1902232170 0.2247975022 2.4749569893 3.0254440308 58.932670593 1.3297270536 77.099983215 0.7284967899 95.548660278 1.1914160252
 3045.4089355 2.0000000000 -0.195313498 8.3046865463 8.5000000000 0.0087828562 5.9367828369 0.2337801903 2.4596691132 3.0664019585 61.429866791 1.1787619591 78.495849609 0.8120208979 98.675018311 1.2119050026
 3045.5615234 2.0000000000 -0.203128800 8.2968711853 8.5000000000 0.0082823392 5.9145541191 0.2283879071 2.4414570332 3.0332999229 64.183212280 1.1387029886 80.896492004 0.8838117719 98.925109863 1.1424820423
 3045.7138672 2.0000000000 -0.210924104 8.2890758514 8.5000000000 0.0091798725 5.7437210083 0.2190584987 2.4285249710 3.2266190052 64.433753967 1.0297130346 81.599235535 0.9301875830 99.174552917 0.9506257176
 3045.8662109 2.0000000000 -0.195331618 8.3046684265 8.5000000000 0.0071123871 5.5308961868 0.2059008032 2.4314920902 3.2910759449 60.599136353 0.8507496715 81.997749329 0.9438164234 98.673126221 0.8843396902
 3046.0185547 2.0000000000 -0.210912675 8.2890872955 8.5000000000 0.0096144276 5.3166117668 0.2022854090 2.4412670135 3.3403880596 59.968692780 0.7668802142 80.702224731 0.9188768864 97.173980713 0.9346442223
