# LAS format log file from PETREL
# Project units are specified as depth units
#==================================================================
~Version information
VERS.   2.0:
WRAP.   NO:
#==================================================================
~Well
STRT .m      415.13760376 :
STOP .m      2850.0324707 :
STEP .m     0.00000000 :
NULL .        -999.250000 :
COMP.           : COMPANY
WELL.  16/10-3 Tyr Central   : WELL
FLD.            : FIELD
LOC.            : LOCATION
SRVC.           : SERVICE COMPANY
DATE.  2018-09-11 14:48:06   : Log Export Date {yyyy-MM-dd HH:mm:ss}
PROV.           : PROVINCE
UWI.   16/10-3   : UNIQUE WELL ID
API.            : API NUMBER
#==================================================================
~Curve
DEPT .m                   : DEPTH
Lithology_geolink ._      : Lithology_geolink
DCAL .in                  : DCAL
CALI .in                  : CALI
BS .in                    : BS
DRHO .g/cm3               : DRHO
THOR .ppm                 : THOR
NPHI .m3/m3               : NPHI
RHOB .g/cm3               : RHOB
PEF .b/e                  : PEF
GR .gAPI                  : GR
URAN .ppm                 : URAN
DTC .us/ft                : DTC
DTS .us/ft                : DTS
RDEP .ohm.m               : RDEP
SP .mV                    : SP
RSHA .ohm.m               : RSHA
RMED .ohm.m               : RMED
~Parameter
#==================================================================
~Ascii
# ...
 1727.3016357  -999.250000 0.5043553710 12.754360199 12.250000954 0.0348948203  -999.250000  -999.250000 2.0712471008 3.4121611118 127.49079895  -999.250000 145.00529480  -999.250000 0.8447880745 87.652198792 0.7238696218 0.7229111195
 1727.4539795  -999.250000 0.5069580078 12.756959915 12.250000954 0.0296144597  -999.250000  -999.250000 2.0748343468 4.7363419533 121.82949829  -999.250000 145.71330261  -999.250000 0.8455460072 87.649223328 0.7311732769 0.7290961742
 1727.6064453  -999.250000 0.4782351553 12.728240013 12.250000954 0.0321405493  -999.250000  -999.250000 2.0874650478 4.2419648170 120.86660004  -999.250000 145.96119690  -999.250000 0.8445451260 87.687599182 0.7210227847 0.7240908146
 1727.7587891  -999.250000 0.5153378844 12.765339851 12.250000954 0.0338363089  -999.250000  -999.250000 2.0918340683 3.9729769230 125.27449799  -999.250000 145.93299866  -999.250000 0.8416897058 87.606163025 0.7232183218 0.7224345803
 1727.9112549  -999.250000 0.4709787071 12.720979691 12.250000954 0.0336519107  -999.250000  -999.250000 2.0900819302 3.8263731003 125.86409760  -999.250000 145.72599792  -999.250000 0.8404595852 87.490997314 0.7195271850 0.7206490040
 1728.0635986  -999.250000 0.5112019181 12.761200905 12.250000954 0.0460114107  -999.250000  -999.250000 2.0967140198 3.7472360134 122.97599792  -999.250000 145.45440674  -999.250000 0.8435118198 87.686416626 0.7212504745 0.7206910253
 1728.2160645  -999.250000 0.4871140122 12.737109184 12.250000954 0.0196121894  -999.250000  -999.250000 2.0931649208 4.4127488136 114.29750061  -999.250000 145.34120178  -999.250000 0.8348857760 87.485328674 0.7139595151 0.7160659432
 1728.3684082  -999.250000 0.4706553817 12.720660210 12.250000954 0.0275085494  -999.250000  -999.250000 2.0872449875 5.2263021469 128.80819702  -999.250000 145.28570557  -999.250000 0.8400077224 87.334426880 0.7063792944 0.7085038424
 1728.5208740  -999.250000 0.4853391945 12.735339165 12.250000954 0.0438350700  -999.250000  -999.250000 2.1042559147 5.2501339912 117.87000275  -999.250000 145.13169861  -999.250000 0.8227276206 87.500633240 0.6963527799 0.6991665959
 1728.6732178  -999.250000 0.4831227660 12.733118057 12.250000954 0.0455637388  -999.250000  -999.250000 2.1088359356 5.2248392105 123.44760132  -999.250000 144.74380493  -999.250000 0.8051437736 87.298240662 0.6930472255 0.6938615441
 1728.8256836  -999.250000 0.5481852889 12.798190117 12.250000954 0.0388284549  -999.250000  -999.250000 2.1061239243 4.8633189201 118.89260101  -999.250000 143.77470398  -999.250000 0.7942572832 87.364082336 0.6854382753 0.6875937581
 1728.9780273  -999.250000 0.6708688736 12.920869827 12.250000954 0.0386489108  -999.250000  -999.250000 2.1069588661 5.1021771431 125.54910278  -999.250000 142.13279724  -999.250000 0.8012753725 87.197486877 0.6878163218 0.6870033145
 1729.1304932  -999.250000 0.6865443587 12.936539650 12.250000954 0.0112627400  -999.250000  -999.250000 2.0820779800 7.2291769981 123.96669769  -999.250000 140.39419556  -999.250000 0.8173977733 87.097671509 0.6967424750 0.6941586733
 1729.2828369  -999.250000 0.3437165618 12.593719482 12.250000954 0.0615471117  -999.250000  -999.250000 2.1394929886 4.6747908592 118.68180084  -999.250000 139.13810730  -999.250000 0.8250780106 87.433578491 0.7040793896 0.7020621300
 1729.4351807  -999.250000 0.3165397942 12.566540718 12.250000954 0.0274884291  -999.250000  -999.250000 2.1487090588 5.0820450783 123.56289673  -999.250000 138.52430725  -999.250000 0.8363103867 87.374557495 0.7129005790 0.7104474306
 1729.5876465  -999.250000 0.3399705887 12.589969635 12.250000954 0.0209378786  -999.250000  -999.250000 2.1422879696 4.9546661377 122.16529846  -999.250000 138.79170227  -999.250000 0.8430461884 87.246391296 0.7155125737 0.7148634195
 1729.7399902  -999.250000 0.3179979026 12.567999840 12.250000954 0.0314067490  -999.250000  -999.250000 2.1688361168 4.5414199829 120.66110229  -999.250000 140.04570007  -999.250000 0.8438891172 87.034072876 0.7224000096 0.7204243541
 1729.8924561  -999.250000 0.3170004189 12.566999435 12.250000954 0.0453896187  -999.250000  -999.250000 2.1642479897 7.2212100029 120.47309875  -999.250000 141.67979431  -999.250000 0.8476623893 87.218437195 0.7227467895 0.7226999998
 1730.0447998  -999.250000 0.3304175436 12.580419540 12.250000954 0.0392543599  -999.250000  -999.250000 2.1304569244 5.4041638374 112.59819794  -999.250000 143.47689819  -999.250000 0.8357812762 87.123352051 0.7132698894 0.7160410285
 1730.1972656  -999.250000 0.3252478242 12.575249672 12.250000954 0.0599415004  -999.250000  -999.250000 2.1357109547 5.9128179550 118.61589813  -999.250000 144.92260742  -999.250000 0.8194772005 87.065803528 0.6994481087 0.7033835649
 1730.3496094  -999.250000 0.3096551895 12.559658051 12.250000954 0.0383318588  -999.250000  -999.250000 2.1139409542 6.9196457863 113.32740021  -999.250000 145.06140137  -999.250000 0.8121976852 86.833877563 0.6965116858 0.6972012520
 1730.5020752  -999.250000 0.2764044106 12.526400566 12.250000954 0.0674860999  -999.250000  -999.250000 2.1034131050 5.3124737740 119.83760071  -999.250000 144.41560364  -999.250000 0.8169224858 86.974037170 0.7014749050 0.7000026107
 1730.6544189  -999.250000 0.2769184113 12.526920319 12.250000954 0.0415377803  -999.250000  -999.250000 2.0838201046 5.1135587692 118.71880341  -999.250000 143.33880615  -999.250000 0.8086690903 86.935607910 0.6919292808 0.6947692037
 1730.8068848  -999.250000 0.2559109032 12.505909920 12.250000954 0.0421770997  -999.250000  -999.250000 2.0906689167 5.2309308052 122.04830170  -999.250000 142.08349609  -999.250000 0.7756249905 86.554046631 0.6790385842 0.6826633215
 1730.9592285  -999.250000 0.2540406883 12.504039764 12.250000954 0.0583584495  -999.250000  -999.250000 2.1226449013 5.7313218117 117.51069641  -999.250000 141.08270264  -999.250000 0.7314416170 86.559577942 0.6369913816 0.6491461396
 1731.1116943  -999.250000 0.3488959968 12.598899841 12.250000954 0.0427657701  -999.250000  -999.250000 2.1508390903 5.5036368370 108.37329865  -999.250000 139.59300232  -999.250000 0.7205141187 86.534378052 0.6171317101 0.6224425435
 1731.2640381  -999.250000 0.4191628098 12.669159889 12.250000954 0.0309656598  -999.250000  -999.250000 2.1817259789 4.0281801224 123.50460052  -999.250000 137.46519470  -999.250000 0.7535743713 86.308219910 0.6258363724 0.6230614781
 1731.4163818  -999.250000 0.5657721162 12.815771103 12.250000954 0.0199075304  -999.250000  -999.250000 2.2098379135 3.3427670002 111.34839630  -999.250000 135.19079590  -999.250000 0.7930377722 86.275863647 0.6513587832 0.6440705061
 1731.5688477  -999.250000 0.5422763824 12.792279243 12.250000954 0.0526314192  -999.250000  -999.250000 2.2397649288 2.9595339298 120.65789795  -999.250000 132.98950195  -999.250000 0.8362249732 86.403427124 0.6825972795 0.6738439202
 1731.7211914  -999.250000 0.5515422821 12.801540375 12.250000954 0.0235010795  -999.250000  -999.250000 2.2275819778 2.8709070683 122.80010223  -999.250000 131.37460327  -999.250000 0.8370562792 86.214233398 0.6916161776 0.6894038320
 1731.8736572  -999.250000 0.5596703887 12.809670448 12.250000954 0.0091601610  -999.250000  -999.250000 2.2059073448 2.9382989407 117.00800323  -999.250000 130.62590027  -999.250000 0.8293921947 86.097526550 0.6836181879 0.6860862374
 1732.0260010  -999.250000 0.5849180222 12.834920883 12.250000954 0.0085652126  -999.250000  -999.250000 2.2030830383 2.9597129822 111.08969879  -999.250000 130.63560486  -999.250000 0.8263363838 86.099212646 0.6824780107 0.6826884747
 1732.1784668  -999.250000 0.5687437057 12.818739891 12.250000954 0.0141458604  -999.250000  -999.250000 2.2010819912 3.1355490685 115.85250092  -999.250000 131.01069641  -999.250000 0.8114330173 85.821952820 0.6690827012 0.6729515791
 1732.3308105  -999.250000 0.5747137070 12.824709892 12.250000954 0.0019009310  -999.250000  -999.250000 2.1798999310 2.9825770855 116.64710236  -999.250000 131.12399292  -999.250000 0.7907075286 85.968299866 0.6538063884 0.6581038237
 1732.4832764  -999.250000 0.5903387070 12.840339661 12.250000954 0.0241266303  -999.250000  -999.250000 2.1866691113 2.8698968887 111.74559784  -999.250000 131.02499390  -999.250000 0.7667145729 85.805023193 0.6432489753 0.6461306214
