# LAS format log file from PETREL
# Project units are specified as depth units
#==================================================================
~Version information
VERS.   2.0:
WRAP.   NO:
#==================================================================
~Well
STRT .m      439.11318970 :
STOP .m      3157.0148926 :
STEP .m     0.00000000 :
NULL .        -999.250000 :
COMP.           : COMPANY
WELL.  16/10-1 Alpha   : WELL
FLD.            : FIELD
LOC.            : LOCATION
SRVC.           : SERVICE COMPANY
DATE.  2018-09-11 14:48:05   : Log Export Date {yyyy-MM-dd HH:mm:ss}
PROV.           : PROVINCE
UWI.   16/10-1   : UNIQUE WELL ID
API.            : API NUMBER
#==================================================================
~Curve
DEPT .m                   : DEPTH
Lithology_geolink ._      : Lithology_geolink
DCAL .in                  : DCAL
CALI .in                  : CALI
BS .in                    : BS
DRHO .g/cm3               : DRHO
NPHI .m3/m3               : NPHI
RHOB .g/cm3               : RHOB
PEF .b/e                  : PEF
GR .gAPI                  : GR
DTC .us/ft                : DTC
RDEP .ohm.m               : RDEP
SP .mV                    : SP
RSHA .ohm.m               : RSHA
RXO .ohm.m                : RXO
RMED .ohm.m               : RMED
~Parameter
#==================================================================
~Ascii
# ...
 2436.1628418 9.0000000000 -0.187499985 12.312499046 12.500000000 -0.021199999 0.1062999964 2.5518000126 5.3502402306 24.413999557 69.807800293 2.4942998886 97.373153687  -999.250000  -999.250000 3.3566000462
 2436.3154297 9.0000000000 -0.171899796 12.328101158 12.500000000 -0.011803205 0.1243000031 2.5479788780 5.1643004417 27.972299576 70.963897705 2.5513000488 96.809402466  -999.250000  -999.250000 2.6933999062
 2436.4677734 9.0000000000 -0.109399803 12.390600204 12.500000000 -0.013799519 0.1301999986 2.5348079205 5.1911654472 29.004699707 71.684196472 2.5162999630 96.557739258  -999.250000  -999.250000 2.7644999027
 2436.6201172 10.000000000 -0.187499985 12.312499046 12.500000000 -0.013518080 0.1203999966 2.5396788120 5.1586127281 27.748699188 71.485397339 2.4300999641 96.680526733  -999.250000  -999.250000 3.2764000893
 2436.7724609 10.000000000 -0.187499985 12.312499046 12.500000000 -0.024800001 0.1143999994 2.5264999866 5.2732501030 25.253599167 71.068199158 2.3176000118 96.640327454  -999.250000  -999.250000 3.1821999550
 2436.9250488 10.000000000 -0.164099693 12.335900307 12.500000000 -0.025815226 0.1284999996 2.5302743912 5.1245503426 24.800399780 71.913696289 2.1916000843 97.282836914  -999.250000  -999.250000 2.5868999958
 2437.0773926 10.000000000 -0.132800102 12.367200851 12.500000000 -0.035295032 0.1333999932 2.5144140720 5.3828229904 26.041900635 73.740097046 2.1182999611 98.086387634  -999.250000  -999.250000 2.5471000671
 2437.2297363 10.000000000 -0.187499985 12.312499046 12.500000000 -0.032189120 0.1228000000 2.5231847763 5.3888607025 27.694000244 75.199203491 2.0847001076 97.807510376  -999.250000  -999.250000 2.5353000164
 2437.3820801 10.000000000 -0.171899796 12.328101158 12.500000000 -0.025400000 0.1333000064 2.5137000084 5.2765240669 26.154100418 72.636901855 1.9582999945 97.531250000  -999.250000  -999.250000 2.2232999802
 2437.5344238 10.000000000 -0.093799599 12.406200409 12.500000000 -0.023900000 0.1358000040 2.5020999908 4.9121971130 23.915899277 73.727096558 1.9104000330 97.810302734  -999.250000  -999.250000 2.1070001125
 2437.6870117 10.000000000 -0.171899796 12.328101158 12.500000000 -0.020702245 0.1386999935 2.5018968582 4.8135728836 23.280000687 73.515098572 1.9328000546 98.556091309  -999.250000  -999.250000 2.4119999409
 2437.8393555 10.000000000 -0.156200394 12.343799591 12.500000000 -0.022092959 0.1275999993 2.4999952316 5.1161317825 26.877000809 73.782501221 1.9024000168 99.073066711  -999.250000  -999.250000 2.4605998993
 2437.9916992 10.000000000 -0.109399803 12.390600204 12.500000000 -0.017700000 0.1395999938 2.4969999790 5.3676381111 27.664499283 74.710609436 1.9184000492 99.539672852  -999.250000  -999.250000 2.1382000446
 2438.1440430 10.000000000 -0.117199898 12.382800102 12.500000000 -0.023499999 0.1518000066 2.4779000282 5.5021409988 27.708299637 74.823699951 2.0378000736 99.595252991  -999.250000  -999.250000 2.0727999210
 2438.2966309 10.000000000 -0.156200394 12.343799591 12.500000000 -0.025011219 0.1539999992 2.4770109653 5.3778796196 24.910800934 72.401199341 2.0826294422 99.561286926  -999.250000  -999.250000 2.2711007595
 2438.4489746 9.0000000000 -0.117199898 12.382800102 12.500000000 -0.031990547 0.1343999952 2.4839355946 5.4406008720 24.924699783 70.310897827 2.0387632847 99.744895935  -999.250000  -999.250000 2.7085449696
 2438.6013184 9.0000000000 -0.187499985 12.312499046 12.500000000 -0.026091840 0.1253000051 2.5060050488 5.4064240456 25.125699997 70.531997681 2.0782713890 100.31016541  -999.250000  -999.250000 3.2346425056
 2438.7536621 9.0000000000 -0.156200394 12.343799591 12.500000000 -0.021000000 0.1222999990 2.5090999603 5.2768368721 26.340599060 72.584297180 2.1853001118 101.09829712  -999.250000  -999.250000 3.0116000175
 2438.9062500 9.0000000000 -0.101599701 12.398401260 12.500000000 -0.012600000 0.1367000043 2.5030791759 5.2821741104 27.477699280 74.251602173 2.2759363651 101.76504517  -999.250000  -999.250000 2.4034402370
 2439.0585938 9.0000000000 -0.117199898 12.382800102 12.500000000 -0.012600320 0.1518999934 2.4902105331 5.2940039635 25.906200409 74.513397217 2.3608956337 102.60424042  -999.250000  -999.250000 2.3043968678
 2439.2109375 9.0000000000 -0.187499985 12.312499046 12.500000000 -0.012801279 0.1564999968 2.4967222214 5.3067855835 27.646400452 73.400299072 2.3581385612 102.94300842  -999.250000  -999.250000 2.6145677567
 2439.3632813 9.0000000000 -0.187499985 12.312499046 12.500000000 -0.013600000 0.1523000002 2.5104999542 5.1160612106 27.591199875 71.344100952 2.3197999001 103.38700104  -999.250000  -999.250000 2.9688000679
 2439.5156250 9.0000000000 -0.187499985 12.312499046 12.500000000 -0.013700000 0.1429000050 2.5106999874 5.2000069618 31.287099838 71.463600159 2.3364999294 102.47840118  -999.250000  -999.250000 2.8866999149
 2439.6682129 9.0000000000 -0.101599701 12.398401260 12.500000000 -0.019702885 0.1421999931 2.4986932278 5.3892893791 29.846900940 70.013603210 2.3424220085 101.77448273  -999.250000  -999.250000 2.6897678375
 2439.8205566 9.0000000000 -0.140600204 12.359398842 12.500000000 -0.021501441 0.1430999935 2.4946050644 5.6339030266 32.564998627 70.242996216 2.3561377525 102.26337433  -999.250000  -999.250000 2.7324061394
 2439.9729004 9.0000000000 -0.171899796 12.328101158 12.500000000 -0.022399999 0.1376000047 2.4976999760 5.6582350731 32.873298645 70.523803711 2.3796999454 102.93389893  -999.250000  -999.250000 2.9235000610
 2440.1252441 9.0000000000 -0.117199898 12.382800102 12.500000000 -0.021800000 0.1308999956 2.4935998917 5.6440382004 35.781700134 71.250000000 2.3815000057 103.79309845  -999.250000  -999.250000 2.7806000710
 2440.2778320 9.0000000000 -0.117199898 12.382800102 12.500000000 -0.027704166 0.1383000016 2.4768934250 5.5482234955 34.788501740 71.974998474 2.3997006416 104.33878326  -999.250000  -999.250000 2.5570080280
 2440.4301758 9.0000000000 -0.187499985 12.312499046 12.500000000 -0.030300641 0.1507000029 2.4727063179 5.4907207489 30.350200653 71.740699768 2.4624192715 104.83127594  -999.250000  -999.250000 2.4997787476
 2440.5825195 9.0000000000 -0.171899796 12.328101158 12.500000000 -0.030689280 0.1512999982 2.4766216278 5.2085204124 26.525400162 70.500801086 2.4743573666 105.31356812  -999.250000  -999.250000 2.6113505363
 2440.7348633 9.0000000000 -0.187499985 12.312499046 12.500000000 -0.024000000 0.1402000040 2.4902000427 4.8487081528 24.331399918 69.382301331 2.4477999210 105.04180145  -999.250000  -999.250000 2.7053000927
 2440.8874512 9.0000000000 -0.187499985 12.312499046 12.500000000 -0.021999039 0.1309937537 2.5037095547 4.8259944916 26.185800552 68.661796570 2.4496021271 104.31493378  -999.250000  -999.250000 2.9994258881
 2441.0397949 9.0000000000 -0.187499985 12.312499046 12.500000000 -0.021397276 0.1270985603 2.5096032619 4.8794240952 28.956699371 68.962196350 2.5132277012 103.58934021  -999.250000  -999.250000 3.2022223473
 2441.1921387 9.0000000000 -0.187499985 12.312499046 12.500000000 -0.019701280 0.1261913627 2.5117034912 5.0847697258 31.428800583 68.574897766 2.5305085182 103.30267334  -999.250000  -999.250000 3.0911662579
 2441.3444824 9.0000000000 -0.187499985 12.312499046 12.500000000 -0.020500001 0.1208000034 2.5139000416 5.0002942085 32.226699829 69.367103577 2.5982000828 103.41079712  -999.250000  -999.250000 2.8828999996
 2441.4968262 9.0000000000 -0.187499985 12.312499046 12.500000000 -0.021199999 0.1185000017 2.5197000504 5.1727051735 29.735200882 70.038398743 2.6944999695 103.91670227  -999.250000  -999.250000 2.9147000313
 2441.6494141 9.0000000000 -0.187499985 12.312499046 12.500000000 -0.019002885 0.1265065670 2.5267996788 5.3567848206 28.750799179 69.606300354 2.6893525124 104.44638824  -999.250000  -999.250000 2.9703471661
 2441.8017578 9.0000000000 -0.187499985 12.312499046 12.500000000 -0.020801600 0.1306075305 2.5265865326 5.4164814949 25.885700226 68.992797852 2.7222020626 104.68975830  -999.250000  -999.250000 2.9997448921
 2441.9541016 9.0000000000 -0.187499985 12.312499046 12.500000000 -0.021800000 0.1352999955 2.5181999207 5.3785681725 25.494199753 69.401603699 2.7859001160 105.10070038  -999.250000  -999.250000 3.0276999474
