# LAS format log file from PETREL
# Project units are specified as depth units
#==================================================================
~Version information
VERS.   2.0:
WRAP.   NO:
#==================================================================
~Well
STRT .m      415.13760376 :
STOP .m      2850.0324707 :
STEP .m     0.00000000 :
NULL .        -999.250000 :
COMP.           : COMPANY
WELL.  16/10-3 Tyr Central   : WELL
FLD.            : FIELD
LOC.            : LOCATION
SRVC.           : SERVICE COMPANY
DATE.  2018-09-11 14:48:06   : Log Export Date {yyyy-MM-dd HH:mm:ss}
PROV.           : PROVINCE
UWI.   16/10-3   : UNIQUE WELL ID
API.            : API NUMBER
#==================================================================
~Curve
DEPT .m                   : DEPTH
Lithology_geolink ._      : Lithology_geolink
DCAL .in                  : DCAL
CALI .in                  : CALI
BS .in                    : BS
DRHO .g/cm3               : DRHO
THOR .ppm                 : THOR
NPHI .m3/m3               : NPHI
RHOB .g/cm3               : RHOB
PEF .b/e                  : PEF
GR .gAPI                  : GR
URAN .ppm                 : URAN
DTC .us/ft                : DTC
DTS .us/ft                : DTS
RDEP .ohm.m               : RDEP
SP .mV                    : SP
RSHA .ohm.m               : RSHA
RMED .ohm.m               : RMED
~Parameter
#==================================================================
~Ascii
# ...
 740.51159668  -999.250000 1.2957819700 18.795780182 17.500000000  -999.250000  -999.250000  -999.250000  -999.250000  -999.250000 151.56250000  -999.250000 155.80088806  -999.250000 1.2239580154 511.43182373 0.8179324865 0.8160213828
 740.66400146  -999.250000 1.2674870491 18.767490387 17.500000000  -999.250000  -999.250000  -999.250000  -999.250000  -999.250000 147.93800354  -999.250000 154.74180603  -999.250000 1.2603629827 511.58309937 0.8177127242 0.8178601861
 740.81640625  -999.250000 1.2698307037 18.769830704 17.500000000  -999.250000  -999.250000  -999.250000  -999.250000  -999.250000 144.89689636  -999.250000 154.00090027  -999.250000 1.2734880447 512.51562500 0.8411322236 0.8343505859
 740.96881104  -999.250000 1.3274478912 18.827449799 17.500000000  -999.250000  -999.250000  -999.250000  -999.250000  -999.250000 162.62500000  -999.250000 153.56440735  -999.250000 1.3151420355 511.63928223 0.8641781211 0.8578311205
 741.12121582  -999.250000 1.3347849846 18.834789276 17.500000000  -999.250000  -999.250000  -999.250000  -999.250000  -999.250000 149.10169983  -999.250000 153.33839417  -999.250000 1.2997610569 511.11502075 0.8759344220 0.8728147149
 741.27362061  -999.250000 1.3129810095 18.812980652 17.500000000  -999.250000  -999.250000  -999.250000  -999.250000  -999.250000 146.98219299  -999.250000 153.28370667  -999.250000 1.2922970057 509.48989868 0.8648766875 0.8682398200
 741.42596436  -999.250000 1.3991221189 18.899120331 17.500000000  -999.250000  -999.250000  -999.250000  -999.250000  -999.250000 148.56370544  -999.250000 153.52311707  -999.250000 1.2833820581 511.41351318 0.8507530093 0.8547494411
 741.57836914  -999.250000 1.4700410366 18.970039368 17.500000000  -999.250000  -999.250000  -999.250000  -999.250000  -999.250000 139.77839661  -999.250000 154.16870117  -999.250000 1.2772530317 510.72091675 0.8071045876 0.8196852803
 741.73077393  -999.250000 1.8082029819 19.308200836 17.500000000  -999.250000  -999.250000  -999.250000  -999.250000  -999.250000 140.24859619  -999.250000 155.32157898  -999.250000 1.2655049562 509.93597412 0.8604080081 0.8444458842
 741.88317871  -999.250000 1.1957130432 18.695709229 17.500000000  -999.250000  -999.250000  -999.250000  -999.250000  -999.250000 138.03100586  -999.250000 156.61199951  -999.250000 1.2467980385 509.46759033 0.8458564281 0.8508028388
 742.03558350  -999.250000 1.1000059843 18.600009918 17.500000000  -999.250000  -999.250000  -999.250000  -999.250000  -999.250000 138.85490417  -999.250000 157.50599670  -999.250000 1.2134209871 510.26791382 0.8241438866 0.8302164078
 742.18798828  -999.250000 0.9878311157 18.487829208 17.500000000  -999.250000  -999.250000  -999.250000  -999.250000  -999.250000 138.79589844  -999.250000 157.91290283  -999.250000 1.1851730347 509.79476929 0.8035460114 0.8092678785
 742.34039307  -999.250000 1.0002369881 18.500240326 17.500000000  -999.250000  -999.250000  -999.250000  -999.250000  -999.250000 144.28829956  -999.250000 157.99949646  -999.250000 1.1696319580 510.51318359 0.8257352114 0.8190787435
 742.49279785  -999.250000 0.7309666872 18.230970383 17.500000000  -999.250000  -999.250000  -999.250000  -999.250000  -999.250000 151.53149414  -999.250000 157.95660400  -999.250000 1.1594229937 508.93389893 0.7918010950 0.8019940257
 742.64520264  -999.250000 0.7199573517 18.219959259 17.500000000  -999.250000  -999.250000  -999.250000  -999.250000  -999.250000 154.59320068  -999.250000 157.87510681  -999.250000 1.1714450121 510.72991943 0.8019735813 0.7985913157
 742.79760742  -999.250000 0.2814635932 17.781459808 17.500000000  -999.250000  -999.250000  -999.250000  -999.250000  -999.250000 142.46839905  -999.250000 157.78100586  -999.250000 1.1787019968 509.92889404 0.7898936868 0.7935290933
 742.95001221  -999.250000 -0.012792591 17.487209320 17.500000000  -999.250000  -999.250000  -999.250000  -999.250000  -999.250000 141.62399292  -999.250000 157.68460083  -999.250000 1.1971859932 510.29391479 0.8267564178 0.8159409165
 743.10241699  -999.250000 -0.036489490 17.463510513 17.500000000  -999.250000  -999.250000  -999.250000  -999.250000  -999.250000 146.98390198  -999.250000 157.58821106  -999.250000 1.2104439735 509.67163086 0.8269050121 0.8273441792
 743.25482178  -999.250000 -0.082954399 17.417049408 17.500000000  -999.250000  -999.250000  -999.250000  -999.250000  -999.250000 145.02690125  -999.250000 157.48429871  -999.250000 1.2062129974 510.36529541 0.8261007071 0.8263239861
 743.40722656  -999.250000 -0.036174770 17.463830948 17.500000000  -999.250000  -999.250000  -999.250000  -999.250000  -999.250000 141.16920471  -999.250000 157.38517761  -999.250000 1.2088719606 510.17855835 0.8335465193 0.8314040899
 743.55957031  -999.250000 -0.086654656 17.413349152 17.500000000  -999.250000  -999.250000  -999.250000  -999.250000  -999.250000 143.12089539  -999.250000 157.30340576  -999.250000 1.2109149694 509.55776978 0.7993354797 0.8093658686
 743.71197510  -999.250000 -0.059312817 17.440689087 17.500000000  -999.250000  -999.250000  -999.250000  -999.250000  -999.250000 137.24920654  -999.250000 157.30810547  -999.250000 1.2138730288 508.99838257 0.8124269843 0.8081980944
 743.86437988  -999.250000 -0.082899101 17.417100906 17.500000000  -999.250000  -999.250000  -999.250000  -999.250000  -999.250000 141.09829712  -999.250000 157.40820313  -999.250000 1.2408020496 509.79946899 0.8413606882 0.8331486583
 744.01678467  -999.250000 -0.061016079 17.438980103 17.500000000  -999.250000  -999.250000  -999.250000  -999.250000  -999.250000 138.28919983  -999.250000 157.59330750  -999.250000 1.2534890175 509.26763916 0.8414130211 0.8417844772
 744.16918945  -999.250000 -0.054254532 17.445749283 17.500000000  -999.250000  -999.250000  -999.250000  -999.250000  -999.250000 135.44729614  -999.250000 157.81700134  -999.250000 1.2492109537 509.99243164 0.8349831104 0.8368465900
 744.32159424  -999.250000 -0.033891682 17.466110229 17.500000000  -999.250000  -999.250000  -999.250000  -999.250000  -999.250000 136.75030518  -999.250000 157.95460510  -999.250000 1.2403800488 509.86169434 0.8179740906 0.8228067160
 744.47399902  -999.250000 -0.029169081 17.470830917 17.500000000  -999.250000  -999.250000  -999.250000  -999.250000  -999.250000 143.53089905  -999.250000 157.83618164  -999.250000 1.2074240446 510.34878540 0.8297663927 0.8261029720
 744.62640381  -999.250000 -0.072088242 17.427909851 17.500000000  -999.250000  -999.250000  -999.250000  -999.250000  -999.250000 146.27139282  -999.250000 157.37030029  -999.250000 1.1887589693 509.57559204 0.8386499286 0.8362126350
 744.77880859  -999.250000 -0.085491180 17.414510727 17.500000000  -999.250000  -999.250000  -999.250000  -999.250000  -999.250000 144.67860413  -999.250000 156.46492004  -999.250000 1.2042729855 510.69848633 0.8211628795 0.8263591528
 744.93121338  -999.250000 -0.105150193 17.394849777 17.500000000  -999.250000  -999.250000  -999.250000  -999.250000  -999.250000 141.75759888  -999.250000 155.38540649  -999.250000 1.2164870501 509.98907471 0.8615152836 0.8496234417
 745.08361816  -999.250000 -0.079191208 17.420810699 17.500000000  -999.250000  -999.250000  -999.250000  -999.250000  -999.250000 143.05470276  -999.250000 154.29879761  -999.250000 1.2246580124 510.55490112 0.8410698771 0.8475649357
 745.23602295  -999.250000 -0.092361450 17.407640457 17.500000000  -999.250000  -999.250000  -999.250000  -999.250000  -999.250000 138.83729553  -999.250000 153.13459778  -999.250000 1.2364859581 510.07437134 0.8649833798 0.8577771187
 745.38842773  -999.250000 -0.108316392 17.391679764 17.500000000  -999.250000  -999.250000  -999.250000  -999.250000  -999.250000 142.53999329  -999.250000 151.76040649  -999.250000 1.2120970488 510.58160400 0.8441842794 0.8505276442
 745.54083252  -999.250000 -0.156867996 17.343130112 17.500000000  -999.250000  -999.250000  -999.250000  -999.250000  -999.250000 143.33540344  -999.250000 150.47410583  -999.250000 1.1793889999 509.72711182 0.8374062181 0.8390519023
 745.69317627  -999.250000 -0.191549301 17.308450699 17.500000000  -999.250000  -999.250000  -999.250000  -999.250000  -999.250000 134.62100220  -999.250000 149.74479675  -999.250000 1.1722559929 509.42379761 0.8181579113 0.8236436248
