# LAS format log file from PETREL
# Project units are specified as depth units
#==================================================================
~Version information
VERS.   2.0:
WRAP.   NO:
#==================================================================
~Well
STRT .m      2766.8217773 :
STOP .m      3149.9555664 :
STEP .m     0.00000000 :
NULL .        -999.250000 :
COMP.           : COMPANY
WELL.  16/10-2 Delta   : WELL
FLD.            : FIELD
LOC.            : LOCATION
SRVC.           : SERVICE COMPANY
DATE.  2018-09-11 14:48:06   : Log Export Date {yyyy-MM-dd HH:mm:ss}
PROV.           : PROVINCE
UWI.   16/10-2   : UNIQUE WELL ID
API.            : API NUMBER
#==================================================================
~Curve
DEPT .m                   : DEPTH
Lithology_geolink ._      : Lithology_geolink
DCAL .in                  : DCAL
CALI .in                  : CALI
BS .in                    : BS
DRHO .g/cm3               : DRHO
THOR .ppm                 : THOR
NPHI .m3/m3               : NPHI
RHOB .g/cm3               : RHOB
PEF .b/e                  : PEF
GR .gAPI                  : GR
URAN .ppm                 : URAN
DTC .us/ft                : DTC
RDEP .ohm.m               : RDEP
SP .mV                    : SP
RMED .ohm.m               : RMED
~Parameter
#==================================================================
~Ascii
# ...
 2790.5964355 13.000000000 1.0402170420 13.290220261 12.250000954 0.0020095371 4.0174989700 0.4016228020 1.9815260172 13.424739838 36.345199585 1.0925140381 90.808631897 1.6561540365 97.324470520 1.3847349882
 2790.7487793 13.000000000 1.8838851452 14.133891106 12.250000954 -0.006524412 4.1200661659 0.3287657201 2.0795528889 15.507570267 37.407768250 1.1650700569 100.47579193 1.5878889561 96.948677063 1.3624349833
 2790.9011230 13.000000000 2.4978990555 14.747900009 12.250000954 -0.012477090 4.0203671455 0.2936941981 2.1421310902 10.878020287 38.271930695 1.0875380039 95.488082886 1.5869220495 96.197883606 1.4376800060
 2791.0534668 13.000000000 1.5007259846 13.750729561 12.250000954 -0.019691831 4.1077771187 0.2727536857 2.2099661827 8.6032180786 33.846969604 1.0354340076 86.022079468 1.5908169746 95.200706482 1.5607229471
 2791.2058105 13.000000000 0.5706462860 12.820650101 12.250000954 -0.008658104 3.7709970474 0.3169761002 2.2722480297 7.9885020256 30.329389572 0.9455890059 78.725990295 1.5742249489 95.576400757 1.6839640141
 2791.3583984 13.000000000 1.3046859503 13.554690361 12.250000954 -0.018419329 5.6553812027 0.3309072852 2.2338159084 9.8046894073 31.218769073 1.1176439524 71.611495972 1.6406259537 95.491470337 1.8925780058
 2791.5107422 13.000000000 1.1169470549 13.366950989 12.250000954 -0.027796671 5.6268239021 0.2720037997 2.1959309578 9.9448881149 33.501430511 1.1505210400 81.083122253 1.7480720282 95.406227112 1.9237289429
 2791.6630859 13.000000000 0.4843750298 12.734379768 12.250000954 -0.016913541 3.6490919590 0.1988036036 2.2650558949 8.8297338486 37.276931763 0.7648280859 76.705848694 1.8154840469 94.925079346 1.6621489525
 2791.8154297 13.000000000 0.4851170182 12.735119820 12.250000954 0.0069324742 3.8452489376 0.2009165883 2.3960700035 10.981080055 31.512310028 0.8356500268 75.109001160 1.8887120485 95.050270081 1.7156870365
 2791.9680176 13.000000000 1.1505520344 13.400549889 12.250000954 -0.007448857 4.0058178902 0.2215151042 2.3117699623 15.016530037 28.542299271 0.8398265243 78.585182190 1.9248549938 95.299797058 2.4689528942
 2792.1203613 13.000000000 2.5677309036 14.817729950 12.250000954 -0.030847089 3.9044756889 0.2113544047 2.2026801109 15.612139702 25.471759796 0.7382766008 72.416580200 1.9591020346 95.174987793 2.6042709351
 2792.2727051 13.000000000 1.1782310009 13.428230286 12.250000954 -0.035388552 3.9650371075 0.1701925099 2.1797859669 8.6903724670 27.092159271 0.5968785286 75.990730286 2.0233728886 95.174987793 1.9586399794
 2792.4250488 13.000000000 0.5238370895 12.773839951 12.250000954 -0.005588114 3.9356691837 0.1752495021 2.3446729183 6.4701042175 27.499750137 0.3695066869 77.494270325 2.1190810204 95.424842834 1.7393909693
 2792.5776367 13.000000000 0.5703011155 12.820300102 12.250000954 0.0066632940 4.1733179092 0.2073399872 2.4212620258 7.6520590782 25.547349930 0.3329378068 76.002754211 2.1542880535 95.924873352 2.2342560291
 2792.7299805 13.000000000 0.7031220794 12.953120232 12.250000954 0.0071108881 4.5806169510 0.2071730047 2.4079558849 7.9960517883 27.187480927 0.3311848044 72.705657959 2.1835999489 96.550018311 2.4198970795
 2792.8823242 13.000000000 0.6796178818 12.929619789 12.250000954 0.0075308769 4.7582831383 0.1746978015 2.3901801109 7.6720690727 27.046190262 0.0930804834 75.593170166 2.2324490547 96.800239563 2.2225809097
 2793.0346680 13.000000000 0.5392522812 12.789250374 12.250000954 0.0147429397 4.7050080299 0.1560105979 2.4615159035 8.0646934509 25.667749405 -0.028888009 71.204010010 2.2870960236 97.300323486 2.0728309155
 2793.1870117 13.000000000 0.7593765259 13.009380341 12.250000954 0.0242357999 4.8750782013 0.1919037998 2.4534559250 10.594360352 20.905750275 -0.016611790 67.720802307 2.2714650631 97.674842834 2.7251379490
 2793.3395996 13.000000000 2.0221960545 14.272200584 12.250000954 0.0012608400 4.2983407974 0.2322295010 2.3798029423 11.088560104 20.504640579 0.3385063112 75.485763550 2.2557699680 97.549392700 3.1521210670
 2793.4919434 13.000000000 1.2504458427 13.500450134 12.250000954 -0.004673264 4.6327672005 0.3025262952 2.3077199459 12.720899582 23.398040771 0.4067040086 74.414146423 2.2010231018 97.175727844 3.0122840405
 2793.6442871 13.000000000 1.4763679504 13.726368904 12.250000954 -0.012968700 5.0634078979 0.3329778016 2.2191600800 13.811559677 27.153020859 0.4016461074 80.684516907 2.1270160675 97.549667358 2.3091990948
 2793.7966309 13.000000000 2.4838788509 14.733879089 12.250000954 -0.019991281 5.2255592346 0.3591221869 2.1562979221 15.139969826 32.434898376 0.3923907876 75.519180298 2.0781490803 98.174682617 2.0216259956
 2793.9492188 13.000000000 2.2500290871 14.500030518 12.250000954 -0.042977080 5.0098309517 0.3403823078 2.1118550301 11.039569855 35.312149048 0.3358589113 84.098937988 1.9941509962 98.674926758 1.7578450441
 2794.1015625 13.000000000 0.8439311981 13.093929291 12.250000954 -0.012521920 4.7777991295 0.3416545093 2.2346448898 8.6094245911 35.780410767 0.2609005868 76.803298950 1.8701109886 98.924987793 1.6757969856
 2794.2539063 13.000000000 1.5780240297 13.828021049 12.250000954 -0.011381500 4.6722102165 0.2920925021 2.2995879650 8.8118267059 32.374420166 0.2878023088 90.200500488 1.8466809988 98.925140381 1.7411470413
 2794.4062500 13.000000000 1.4134320021 13.663429260 12.250000954 -0.011830620 4.3882260323 0.2464063019 2.3317949772 7.7170348167 31.437639236 0.2811749876 90.995368958 1.8496030569 99.175483704 1.6375750303
 2794.5588379 13.000000000 0.7734375596 13.023440361 12.250000954 -0.008879895 4.2782020569 0.1928070039 2.3795640469 5.9762721062 31.577760696 0.3844201863 86.299468994 1.8428629637 99.675498962 1.5158669949
 2794.7111816 13.000000000 0.7734375596 13.023440361 12.250000954 0.0046964171 4.1551008224 0.1787887961 2.4784750938 5.7619881630 31.310699463 0.4518930018 85.879852295 1.9101560116 100.05110168 1.6953070164
 2794.8635254 13.000000000 0.7734375596 13.023440361 12.250000954 0.0146435499 4.1192297935 0.1774315983 2.5691990852 5.9189620018 30.265529633 0.5073459148 74.190002441 1.9099600315 100.67579651 2.2590789795
 2795.0158691 13.000000000 0.7734375596 13.023440361 12.250000954 0.0188046303 3.9807190895 0.1950601041 2.5726060867 6.3941779137 30.218780518 0.4923023283 69.403549194 1.8184260130 101.04969788 2.8647840023
 2795.1682129 13.000000000 0.7734375596 13.023440361 12.250000954 0.0219208207 4.1285901070 0.2787490189 2.5686459541 6.5780558586 28.485019684 0.5954570174 71.899063110 1.7314770222 101.29989624 2.9687108994
 2795.3208008 13.000000000 0.7734375596 13.023440361 12.250000954 0.0316125192 4.9985260963 0.3964490891 2.5506429672 9.1015491486 28.734369278 1.1779509783 75.200012207 1.6123050451 101.05000305 2.8808600903
 2795.4731445 13.000000000 1.4224070311 13.672410011 12.250000954 0.0010678840 6.9829130173 0.4880738854 2.2638969421 12.753439903 33.440288544 1.9370870590 85.204360962 1.4550369978 100.54979706 2.4586770535
 2795.6254883 13.000000000 2.8829267025 15.132929802 12.250000954 -0.030177571 7.2486290932 0.4789495766 2.0553898811 22.197229385 41.098060608 2.1213679314 97.106742859 1.3456360102 99.924346924 1.6148890257
 2795.7778320 13.000000000 3.0366418362 15.286640167 12.250000954 -0.042939421 7.4185318947 0.4450405836 1.9594570398 14.160059929 46.977401733 2.7134459019 106.30120087 1.2577049732 99.046821594 1.1443059444
 2795.9304199 13.000000000 0.8440485001 13.094049454 12.250000954 -0.009637738 7.3484492302 0.4190503955 2.0474929810 10.527400017 54.818801880 2.6850829124 107.38440704 1.1639629602 96.177192688 0.9400169253
 2796.0827637 13.000000000 1.0464869738 13.296488762 12.250000954 -0.000249721 5.8759059906 0.3856461048 2.1562030315 7.9226069450 59.099201202 2.1220331192 96.803291321 1.0985369682 97.674758911 0.9914116859
 2796.2351074 13.000000000 0.8364191055 13.086420059 12.250000954 0.0024692740 5.9705982208 0.3500243127 2.2409379482 10.442130089 62.059558868 2.2227001190 98.598213196 1.0479010344 97.550109863 1.1004769802
 2796.3874512 13.000000000 1.0545510054 13.304550171 12.250000954 0.0135178603 5.9642930031 0.3666049838 2.2835750580 12.537750244 55.441650391 2.2249600887 90.804901123 1.0097889900 98.549362183 1.2147719860
