# LAS format log file from PETREL
# Project units are specified as depth units
#==================================================================
~Version information
VERS.   2.0:
WRAP.   NO:
#==================================================================
~Well
STRT .m      2766.8217773 :
STOP .m      3149.9555664 :
STEP .m     0.00000000 :
NULL .        -999.250000 :
COMP.           : COMPANY
WELL.  16/10-2 Delta   : WELL
FLD.            : FIELD
LOC.            : LOCATION
SRVC.           : SERVICE COMPANY
DATE.  2018-09-11 14:48:06   : Log Export Date {yyyy-MM-dd HH:mm:ss}
PROV.           : PROVINCE
UWI.   16/10-2   : UNIQUE WELL ID
API.            : API NUMBER
#==================================================================
~Curve
DEPT .m                   : DEPTH
Lithology_geolink ._      : Lithology_geolink
DCAL .in                  : DCAL
CALI .in                  : CALI
BS .in                    : BS
DRHO .g/cm3               : DRHO
THOR .ppm                 : THOR
NPHI .m3/m3               : NPHI
RHOB .g/cm3               : RHOB
PEF .b/e                  : PEF
GR .gAPI                  : GR
URAN .ppm                 : URAN
DTC .us/ft                : DTC
RDEP .ohm.m               : RDEP
SP .mV                    : SP
RMED .ohm.m               : RMED
~Parameter
#==================================================================
~Ascii
# ...
 2814.3708496 13.000000000 3.4614362717 11.961440086 8.5000000000 0.1175265983 8.4164085388 0.3092095852 2.5069708824 9.6007347107 46.813781738 0.9194647074 84.899856567 1.5107159615 99.049987793 1.7693439722
 2814.5231934 13.000000000 3.8516261578 12.351630211 8.5000000000 0.0984805673 8.7137527466 0.3216675818 2.4790701866 8.9509582520 47.818050385 1.1601849794 84.808410645 1.4901690483 99.049987793 1.6228270531
 2814.6755371 13.000000000 3.8904061317 12.390410423 8.5000000000 0.1077672988 8.6728048325 0.3322248161 2.4821569920 7.6356749535 51.201370239 1.1585129499 89.900596619 1.4510519505 99.049987793 1.4891200066
 2814.8278809 13.000000000 3.7813398838 12.281338692 8.5000000000 0.1018145010 10.602600098 0.3395048082 2.4754741192 7.1176118851 58.088100433 1.6523519754 90.199752808 1.3926249743 99.049987793 1.4209539890
 2814.9804688 13.000000000 4.0077099800 12.507709503 8.5000000000 0.0939067081 10.935059547 0.3339012265 2.4770410061 7.0937600136 65.496658325 1.7335850000 90.599807739 1.3262009621 99.049987793 1.4043040276
 2815.1328125 13.000000000 3.9453170300 12.445321083 8.5000000000 0.0765058398 10.995200157 0.3532648087 2.4735240936 8.8279829025 70.124618530 1.6993600130 92.499855042 1.2617239952 98.550033569 1.3535200357
 2815.2851563 13.000000000 4.0468997955 12.546899796 8.5000000000 0.0868345201 11.988679886 0.3648704290 2.5002019405 8.9765043259 69.063362122 1.8253599405 88.700828552 1.2089710236 97.674797058 1.2646310329
 2815.4375000 13.000000000 4.1328988075 12.632900238 8.5000000000 0.0939264521 12.225600243 0.3792295158 2.4626359940 8.7731609344 72.066146851 1.8696780205 91.601791382 1.1640440226 97.050071716 1.2040549517
 2815.5900879 13.000000000 4.2655367851 12.765540123 8.5000000000 0.0894136131 12.092740059 0.3733501732 2.4046459198 8.3533096313 77.629753113 1.7446670532 94.302490234 1.1357270479 97.174987793 1.1337749958
 2815.7424316 13.000000000 4.1797528267 12.679751396 8.5000000000 0.1035477966 11.914059639 0.3804222047 2.3751299381 10.057410240 82.242073059 1.6213589907 96.702377319 1.1211110353 97.174636841 1.1200070381
 2815.8947754 13.000000000 4.2269759178 12.726979256 8.5000000000 0.1295877993 11.724590302 0.3836608827 2.3758809566 12.011810303 76.547172546 1.5363069773 98.391166687 1.1338779926 96.925430298 1.0409410000
 2816.0471191 13.000000000 4.4596748352 12.959670067 8.5000000000 0.1275231987 11.322660446 0.3799332678 2.3425519466 14.273320198 67.862243652 1.4195679426 93.388961792 1.1856739521 97.174453735 0.9986047149
 2816.1994629 13.000000000 3.8676035404 12.367600441 8.5000000000 0.1161461025 8.7063760757 0.3470138907 2.3395969868 14.218790054 61.879199982 1.3105000257 88.203636169 1.2470259666 96.925163269 1.0312269926
 2816.3520508 13.000000000 3.6094610691 12.109459877 8.5000000000 0.1233386993 8.3535947800 0.3086997867 2.3945090771 10.876110077 60.125579834 1.2812520266 86.900436401 1.3163830042 97.049949646 1.0947049856
 2816.5043945 13.000000000 2.8515579700 11.351558685 8.5000000000 0.1140492037 7.7954211235 0.2397477031 2.4945449829 8.2421483994 56.531070709 1.1369500160 79.199851990 1.4052759409 97.800003052 1.2500129938
 2816.6567383 13.000000000 2.7109808922 11.210980415 8.5000000000 0.0723835826 6.6910309792 0.1800742894 2.5452530384 7.1645178795 51.621971130 1.1596029997 75.200546265 1.4863469601 98.300193787 1.6215610504
 2816.8090820 13.000000000 2.8206820488 11.320679665 8.5000000000 0.0767983869 6.5311260223 0.1698263884 2.5833609104 8.2895584106 44.156368256 1.1173529625 76.496780396 1.5342019796 98.800277710 2.7761440277
 2816.9616699 13.000000000 3.2971880436 11.797189713 8.5000000000 0.0628484264 7.8569545746 0.2249452025 2.4992659092 8.9309558868 44.318401337 1.3579449654 72.309356689 1.5625309944 99.174842834 3.7471439838
 2817.1140137 13.000000000 3.5703129768 12.070310593 8.5000000000 0.0420934707 9.4274730682 0.2876745164 2.4072160721 10.038570404 49.485198975 2.3201370239 80.501663208 1.5898100138 99.049232483 2.9572598934
 2817.2663574 13.000000000 3.5715327263 12.071530342 8.5000000000 0.0579736307 9.9864616394 0.3163954020 2.4118878841 9.7118053436 60.352130890 2.6080598831 81.600738525 1.5672550201 98.548110962 1.8182380199
 2817.4187012 13.000000000 4.2189068794 12.718911171 8.5000000000 0.0919961631 9.9380817413 0.3113956153 2.4838960171 10.175569534 64.808250427 2.6430230141 81.999618530 1.5010379553 97.550941467 1.2349309921
 2817.5712891 13.000000000 4.2890210152 12.789020538 8.5000000000 0.1029098034 10.397399902 0.3275122046 2.4960520267 11.819350243 71.246238708 2.9409649372 88.396278381 1.3916629553 97.175209045 1.2695109844
 2817.7236328 13.000000000 3.6641969681 12.164200783 8.5000000000 0.0937527269 11.685609818 0.3497111201 2.4652047157 10.953310013 73.187080383 3.3373780251 85.900573730 1.2695560455 97.674880981 1.3408050537
 2817.8759766 13.000000000 3.8593666553 12.359370232 8.5000000000 0.0743128732 13.515259743 0.3842068911 2.4161729813 9.2654371262 92.067253113 6.9581079483 88.701026917 1.1699140072 97.549987793 1.3320100307
 2818.0283203 13.000000000 3.8124392033 12.312439919 8.5000000000 0.0668677166 15.765559196 0.4201959968 2.3980019093 8.0471935272 122.96320343 13.657259941 95.401992798 1.1201020479 97.550193787 1.1933050156
 2818.1806641 13.000000000 3.6954379082 12.195440292 8.5000000000 0.0707448274 16.224870682 0.4452418983 2.3795180321 8.6595268250 172.17019653 25.524770737 99.209831238 1.0917899609 97.925659180 1.0898180008
 2818.3332520 7.0000000000 3.8357796669 12.335779190 8.5000000000 0.0486370586 16.924549103 0.4573392868 2.3587069511 12.329509735 222.78030396 25.788099289 110.20330048 1.0839910507 98.674507141 1.0615999699
 2818.4855957 7.0000000000 3.7109880447 12.210989952 8.5000000000 0.0403814800 17.122789383 0.4689104855 2.3635380268 13.426159859 246.78059387 25.888179779 112.80490112 1.0888919830 98.298973083 1.1221979856
 2818.6379395 6.0000000000 3.7419691086 12.241970062 8.5000000000 0.0406866297 17.820009232 0.4867306948 2.3739769459 11.260270119 265.49499512 27.601100922 115.80200195 1.1045249701 97.675483704 1.2003430128
 2818.7902832 6.0000000000 3.6329040527 12.132899284 8.5000000000 0.0288334507 18.956129074 0.4921118915 2.3487579823 8.5803642273 263.00210571 28.493650436 116.79920197 1.1210800409 97.924781799 1.2743519545
 2818.9428711 6.0000000000 3.4844450951 11.984440804 8.5000000000 0.0114099598 18.790510178 0.4697288871 2.3188769817 7.1373920441 268.99719238 25.911569595 117.39969635 1.1484249830 98.674636841 1.3934990168
 2819.0952148 6.0000000000 3.4843752384 11.984380722 8.5000000000 0.0137890596 17.979589462 0.4478538930 2.3167889118 7.0000128746 251.87669373 24.613580704 119.49980164 1.1757789850 99.674888611 1.6288830042
 2819.2475586 6.0000000000 3.4843752384 11.984380722 8.5000000000 0.0174160600 18.279869080 0.4545341730 2.3319280148 6.6605439186 244.12489319 24.762580872 117.80069733 1.2041070461 101.80030060 1.7568550110
 2819.3999023 6.0000000000 3.4845061302 11.984510422 8.5000000000 0.0256084595 16.774530411 0.4629433155 2.3107268810 8.0856065750 243.74830627 23.020290375 120.29850006 1.2236510515 103.05059814 1.8260619640
 2819.5524902 7.0000000000 3.6875555515 12.187560081 8.5000000000 0.0309859291 14.809579849 0.4673294723 2.2888479233 7.5703749657 241.10859680 21.550420761 118.00240326 1.2519650459 103.92539978 1.6551990509
 2819.7048340 7.0000000000 3.7421119213 12.242111206 8.5000000000 0.0288709197 15.218070030 0.4616087079 2.2410910130 7.6317729950 224.85290527 18.787719727 120.40219116 1.2636690140 104.29979706 1.5818589926
 2819.8571777 7.0000000000 3.6877996922 12.187800407 8.5000000000 0.0392814018 15.225669861 0.4662524164 2.2535281181 6.8809900284 208.86169434 18.777349472 121.99790192 1.2616980076 104.17520142 1.4572089911
 2820.0095215 7.0000000000 3.8598368168 12.359841347 8.5000000000 0.0600856505 15.505009651 0.4720357060 2.2688078880 8.0724067688 201.25320435 18.887950897 120.80819702 1.2499580383 104.29840088 1.5586390495
 2820.1618652 7.0000000000 4.0779690742 12.577969551 8.5000000000 0.0560836084 15.085709572 0.4642378986 2.2509360313 9.0617904663 202.74890137 18.603399277 124.69719696 1.2304830551 103.55049896 1.5800629854
