# LAS format log file from PETREL
# Project units are specified as depth units
#==================================================================
~Version information
VERS.   2.0:
WRAP.   NO:
#==================================================================
~Well
STRT .m      439.11318970 :
STOP .m      3157.0148926 :
STEP .m     0.00000000 :
NULL .        -999.250000 :
COMP.           : COMPANY
WELL.  16/10-1 Alpha   : WELL
FLD.            : FIELD
LOC.            : LOCATION
SRVC.           : SERVICE COMPANY
DATE.  2018-09-11 14:48:05   : Log Export Date {yyyy-MM-dd HH:mm:ss}
PROV.           : PROVINCE
UWI.   16/10-1   : UNIQUE WELL ID
API.            : API NUMBER
#==================================================================
~Curve
DEPT .m                   : DEPTH
Lithology_geolink ._      : Lithology_geolink
DCAL .in                  : DCAL
CALI .in                  : CALI
BS .in                    : BS
DRHO .g/cm3               : DRHO
NPHI .m3/m3               : NPHI
RHOB .g/cm3               : RHOB
PEF .b/e                  : PEF
GR .gAPI                  : GR
DTC .us/ft                : DTC
RDEP .ohm.m               : RDEP
SP .mV                    : SP
RSHA .ohm.m               : RSHA
RXO .ohm.m                : RXO
RMED .ohm.m               : RMED
~Parameter
#==================================================================
~Ascii
# ...
 1176.1196289  -999.250000 0.1406002045 17.640600204 17.500000000  -999.250000  -999.250000  -999.250000  -999.250000 125.30629730 147.19030762 1.3368999958 68.002052307 1.4406000376 1.3808486462 1.4343999624
 1176.2719727  -999.250000 -0.062500000 17.437500000 17.500000000  -999.250000  -999.250000  -999.250000  -999.250000 126.96257019 147.22467041 1.3306000233 66.764968872 1.3288894892 1.3079904318 1.4476000071
 1176.4244385  -999.250000 0.2968997955 17.796899796 17.500000000  -999.250000  -999.250000  -999.250000  -999.250000 120.97090149 146.79040527 1.3164999485 66.650177002 1.2984000444 1.3367221355 1.3940999508
 1176.5767822  -999.250000 -0.015600199 17.484399796 17.500000000  -999.250000  -999.250000  -999.250000  -999.250000 116.76247406 147.22074890 1.3033000231 66.144996643 1.3637477160 1.2277787924 1.3054000139
 1176.7292480  -999.250000 0.0937995985 17.593799591 17.500000000  -999.250000  -999.250000  -999.250000  -999.250000 113.00420380 146.76519775 1.2761000395 65.815551758 1.1024999619 1.0551416874 1.2380000353
 1176.8815918  -999.250000 -0.203100204 17.296899796 17.500000000  -999.250000  -999.250000  -999.250000  -999.250000 113.49960327 147.24961853 1.2344000340 65.275177002 1.0156695843 1.0837740898 1.2129000425
 1177.0339355  -999.250000 0.0156001989 17.515600204 17.500000000  -999.250000  -999.250000  -999.250000  -999.250000 110.88219452 146.73901367 1.1993000507 64.830017090 1.1413991451 1.1717942953 1.1981999874
 1177.1864014  -999.250000 -0.062500000 17.437500000 17.500000000  -999.250000  -999.250000  -999.250000  -999.250000 112.38469696 145.55044556 1.1690000296 64.667503357 1.1938580275 1.1628462076 1.1786999702
 1177.3387451  -999.250000 -0.250000000 17.250000000 17.500000000  -999.250000  -999.250000  -999.250000  -999.250000 108.05567169 145.99963379 1.1398999691 64.532096863 1.1370455027 1.1537958384 1.1590000391
 1177.4912109  -999.250000 -0.281200409 17.218799591 17.500000000  -999.250000  -999.250000  -999.250000  -999.250000 103.22419739 146.44940186 1.1166000366 65.107223511 1.1586999893 1.0540624857 1.1358000040
 1177.6435547  -999.250000 0.1250000000 17.625000000 17.500000000  -999.250000  -999.250000  -999.250000  -999.250000 97.223205566 146.07550049 1.1004999876 65.347900391 0.9663541317 0.9664759636 1.1146999598
 1177.7960205  -999.250000 -0.062500000 17.437500000 17.500000000  -999.250000  -999.250000  -999.250000  -999.250000 97.533500671 146.63220215 1.0845999718 64.592506409 0.9807999730 1.0018951893 1.1007000208
 1177.9483643  -999.250000 -0.062500000 17.437500000 17.500000000  -999.250000  -999.250000  -999.250000  -999.250000 103.77609253 145.87890625 1.0766999722 65.293907166 1.0108759403 0.9660336375 1.0886000395
 1178.1008301  -999.250000 -0.156200394 17.343799591 17.500000000  -999.250000  -999.250000  -999.250000  -999.250000 104.04139709 146.44189453 1.0774999857 66.014869690 0.9286000133 0.9329527617 1.0851999521
 1178.2531738  -999.250000 -0.109399803 17.390600204 17.500000000  -999.250000  -999.250000  -999.250000  -999.250000 100.61894226 146.33917236 1.0915999413 66.619537354 0.9411899447 0.9305240512 1.0865000486
 1178.4056396  -999.250000 0.0000000000 17.500000000 17.500000000  -999.250000  -999.250000  -999.250000  -999.250000 95.433601379 144.70500183 1.0947999954 67.685043335 0.9261999726 0.9645284414 1.1049000025
 1178.5579834  -999.250000 0.0312995911 17.531299591 17.500000000  -999.250000  -999.250000  -999.250000  -999.250000 96.265335083 144.97950745 1.0980000496 67.900009155 1.0060360432 1.0556298494 1.1286000013
 1178.7104492  -999.250000 0.1406002045 17.640600204 17.500000000  -999.250000  -999.250000  -999.250000  -999.250000 102.61129761 145.20989990 1.1059999466 68.756759644 1.0795999765 1.0215660334 1.1481000185
 1178.8627930  -999.250000 0.0625000000 17.562500000 17.500000000  -999.250000  -999.250000  -999.250000  -999.250000 106.11669159 145.09609985 1.1292999983 69.264968872 0.9718863368 1.0025625229 1.1528999805
 1179.0151367  -999.250000 0.3125000000 17.812500000 17.500000000  -999.250000  -999.250000  -999.250000  -999.250000 110.09191132 145.94580078 1.1462999582 69.389968872 1.0439422131 1.0871248245 1.1513999701
 1179.1676025  -999.250000 0.3906002343 17.890600204 17.500000000  -999.250000  -999.250000  -999.250000  -999.250000 115.34119415 146.21690369 1.1492999792 69.315002441 1.1255346537 1.1789662838 1.1506999731
 1179.3199463  -999.250000 0.2187996060 17.718799591 17.500000000  -999.250000  -999.250000  -999.250000  -999.250000 112.15006256 146.02920532 1.1605000496 68.975013733 1.2152280807 1.1784764528 1.1540000439
 1179.4724121  -999.250000 0.2500000000 17.750000000 17.500000000  -999.250000  -999.250000  -999.250000  -999.250000 107.60140228 146.23759460 1.1483999491 68.855117798 1.1360000372 1.0901057720 1.1529999971
 1179.6247559  -999.250000 0.1718997955 17.671899796 17.500000000  -999.250000  -999.250000  -999.250000  -999.250000 101.89486694 146.26899719 1.1509000063 68.040512085 1.0502686501 1.0099759102 1.1452000141
 1179.7772217  -999.250000 0.2187996060 17.718799591 17.500000000  -999.250000  -999.250000  -999.250000  -999.250000 107.05560303 146.74339294 1.1437000036 66.769996643 0.9724000096 0.8906236887 1.1296000481
 1179.9295654  -999.250000 0.2656002045 17.765600204 17.500000000  -999.250000  -999.250000  -999.250000  -999.250000 112.44708252 146.99690247 1.1425000429 66.440551758 0.8210213184 0.9050528407 1.1017999649
 1180.0820313  -999.250000 0.3749999702 17.875000000 17.500000000  -999.250000  -999.250000  -999.250000  -999.250000 118.91870117 146.99819946 1.1347999573 66.299316406 0.9818000197 1.0391409397 1.0888999701
 1180.2343750  -999.250000 0.2500000000 17.750000000 17.500000000  -999.250000  -999.250000  -999.250000  -999.250000 117.56248474 146.26300049 1.1231000423 66.725013733 1.0866159201 1.0761923790 1.1093000174
 1180.3868408  -999.250000 0.3437995911 17.843799591 17.500000000  -999.250000  -999.250000  -999.250000  -999.250000 115.85510254 146.23460388 1.1138000488 66.545173645 1.0661000013 1.0639319420 1.1279000044
 1180.5391846  -999.250000 0.5312995911 18.031299591 17.500000000  -999.250000  -999.250000  -999.250000  -999.250000 106.40886688 145.78160095 1.1212999821 66.362503052 1.0662999153 1.1088942289 1.1445000172
 1180.6916504  -999.250000 0.4531002045 17.953100204 17.500000000  -999.250000  -999.250000  -999.250000  -999.250000 106.82559967 145.94740295 1.1340999603 66.827369690 1.1413999796 1.1137541533 1.1385999918
 1180.8439941  -999.250000 0.5312995911 18.031299591 17.500000000  -999.250000  -999.250000  -999.250000  -999.250000 109.03233337 145.25000000 1.1370999813 66.792617798 1.0926390886 1.1315624714 1.1303000450
 1180.9963379  -999.250000 0.5156002045 18.015600204 17.500000000  -999.250000  -999.250000  -999.250000  -999.250000 111.40540314 144.56820679 1.1571999788 66.777290344 1.1573480368 1.0934828520 1.1287000179
 1181.1488037  -999.250000 0.2187996060 17.718799591 17.500000000  -999.250000  -999.250000  -999.250000  -999.250000 109.02750397 144.71299744 1.1650999784 66.967506409 1.0413930416 1.0715625286 1.1387000084
 1181.3011475  -999.250000 0.4687995911 17.968799591 17.500000000  -999.250000  -999.250000  -999.250000  -999.250000 110.08505249 144.50000000 1.1620999575 66.765869141 1.1054484844 1.1033354998 1.1592999697
 1181.4536133  -999.250000 0.2812995911 17.781299591 17.500000000  -999.250000  -999.250000  -999.250000  -999.250000 111.10790253 144.27020264 1.1572999954 68.426933289 1.0982999802 1.1132115126 1.1633000374
 1181.6059570  -999.250000 0.3281002045 17.828100204 17.500000000  -999.250000  -999.250000  -999.250000  -999.250000 111.91705322 144.22950745 1.1433000565 69.467796326 1.1228803396 1.1038718224 1.1833000183
 1181.7584229  -999.250000 0.5781002045 18.078100204 17.500000000  -999.250000  -999.250000  -999.250000  -999.250000 106.33560181 143.97959900 1.1375000477 69.407508850 1.0772999525 1.0303028822 1.1646000147
 1181.9107666  -999.250000 0.7343997955 18.234399796 17.500000000  -999.250000  -999.250000  -999.250000  -999.250000 101.82409668 143.57969666 1.1490000486 70.804733276 0.9969643950 1.0089471340 1.1569999456
