# LAS format log file from PETREL
# Project units are specified as depth units
#==================================================================
~Version information
VERS.   2.0:
WRAP.   NO:
#==================================================================
~Well
STRT .m      2766.8217773 :
STOP .m      3149.9555664 :
STEP .m     0.00000000 :
NULL .        -999.250000 :
COMP.           : COMPANY
WELL.  16/10-2 Delta   : WELL
FLD.            : FIELD
LOC.            : LOCATION
SRVC.           : SERVICE COMPANY
DATE.  2018-09-11 14:48:06   : Log Export Date {yyyy-MM-dd HH:mm:ss}
PROV.           : PROVINCE
UWI.   16/10-2   : UNIQUE WELL ID
API.            : API NUMBER
#==================================================================
~Curve
DEPT .m                   : DEPTH
Lithology_geolink ._      : Lithology_geolink
DCAL .in                  : DCAL
CALI .in                  : CALI
BS .in                    : BS
DRHO .g/cm3               : DRHO
THOR .ppm                 : THOR
NPHI .m3/m3               : NPHI
RHOB .g/cm3               : RHOB
PEF .b/e                  : PEF
GR .gAPI                  : GR
URAN .ppm                 : URAN
DTC .us/ft                : DTC
RDEP .ohm.m               : RDEP
SP .mV                    : SP
RMED .ohm.m               : RMED
~Parameter
#==================================================================
~Ascii
# ...
 3093.7199707 2.0000000000 -0.210937500 8.2890634537 8.5000000000 0.0179388691 5.4391250610 0.2562665939 2.2857840061 6.2427339554 48.809871674 0.2872987986 88.498184204 0.5468965769 75.671409607 0.9683061838
 3093.8723145 2.0000000000 -0.210937500 8.2890634537 8.5000000000 0.0173102804 4.3141770363 0.2378406972 2.2931869030 6.5470008850 47.345279694 0.1082449034 87.303161621 0.5590692163 73.677062988 0.9931381941
 3094.0246582 2.0000000000 -0.210937500 8.2890634537 8.5000000000 0.0161718503 4.2816538811 0.2371083051 2.3086419106 6.6054301262 48.249389648 0.1366094053 86.702316284 0.5761601925 72.550743103 1.0780680180
 3094.1772461 2.0000000000 -0.210937500 8.2890634537 8.5000000000 0.0191952400 4.0519890785 0.2313279957 2.3267579079 7.0662670135 45.313388824 0.0367717817 84.504180908 0.5981376767 72.300056458 1.2636159658
 3094.3295898 4.0000000000 -0.210936502 8.2890634537 8.5000000000 0.0155906901 3.8705239296 0.2203375101 2.3638780117 8.0937795639 42.562320709 -0.136594594 81.305046082 0.6274439096 73.550117493 1.5039190054
 3094.4819336 4.0000000000 -0.203125015 8.2968750000 8.5000000000 0.0049107932 3.8837819099 0.2026297897 2.3970670700 8.5385656357 39.905391693 -0.230321094 79.802406311 0.6665245891 75.550529480 1.6993130445
 3094.6342773 4.0000000000 -0.203125015 8.2968750000 8.5000000000 0.0012781410 4.0559539795 0.1894754022 2.4183499813 7.3973588943 37.935359955 -0.186893404 79.800163269 0.7158609033 76.799888611 1.9152410030
 3094.7866211 2.0000000000 -0.203134507 8.2968654633 8.5000000000 -0.001783109 4.2913799286 0.1928220987 2.3982539177 6.0580887794 35.286640167 -0.102212198 80.002166748 0.7681214809 76.675430298 2.1661739349
 3094.9392090 2.0000000000 -0.210937500 8.2890634537 8.5000000000 -0.003680085 5.4905681610 0.2124691010 2.3908588886 5.6290030479 39.885028839 -0.215283602 82.397857666 0.8164622784 77.052688599 2.3004009724
 3095.0915527 2.0000000000 -0.210922197 8.2890777588 8.5000000000 0.0023728821 6.9223518372 0.2576839924 2.4208099842 5.6907658577 46.401279449 0.5946074724 83.501289368 0.8535441756 78.805709839 2.0538120270
 3095.2438965 2.0000000000 -0.203132585 8.2968673706 8.5000000000 0.0138552301 6.9953079224 0.2790423036 2.4611780643 5.3557782173 60.143569946 2.3919339180 85.095977783 0.8686382771 81.797233582 1.5961250067
 3095.3962402 2.0000000000 -0.203125015 8.2968750000 8.5000000000 0.0189076699 6.0863771439 0.2787969112 2.4611148834 4.4536252022 66.184158325 2.1931490898 85.000358582 0.8491318226 87.421882629 1.2023659945
 3095.5488281 2.0000000000 -0.210935622 8.2890644073 8.5000000000 0.0104217101 4.6182231903 0.2578929961 2.3986339569 4.2695651054 70.436706543 0.9606708288 85.698745728 0.8134829998 93.173927307 1.1338020563
 3095.7011719 2.0000000000 -0.210937500 8.2890634537 8.5000000000 0.0057746591 4.1988821030 0.2528586984 2.3403038979 4.3400349617 62.686698914 0.7700175047 85.899665833 0.7744054794 94.299339294 1.2412240505
 3095.8535156 2.0000000000 -0.210937500 8.2890634537 8.5000000000 0.0060011940 4.1126170158 0.2490677088 2.3027338982 5.3791890144 58.370849609 0.6569237113 85.900382996 0.7294707894 90.797012329 1.3134429455
 3096.0058594 2.0000000000 -0.210937500 8.2890634537 8.5000000000 0.0087218983 5.5859217644 0.2501353920 2.2918143272 5.8909420967 50.871879578 0.7328507900 86.596649170 0.6918683052 85.419792175 1.2528309822
 3096.1584473 2.0000000000 -0.210937500 8.2890634537 8.5000000000 0.0058977678 6.1019420624 0.2474596053 2.2995858192 6.2343750000 47.500000000 0.8361117244 85.401145935 0.6640278101 79.796432495 1.1453239918
 3096.3107910 2.0000000000 -0.210924104 8.2890758514 8.5000000000 0.0083458330 6.1371598244 0.2553440928 2.3255720139 6.2344789505 47.507629395 0.8279545903 84.801139832 0.6376572847 77.051231384 1.0028150082
 3096.4631348 2.0000000000 -0.203125015 8.2968750000 8.5000000000 0.0089080408 6.1898570061 0.2479359061 2.3516891003 6.2980928421 52.104061127 0.9732494950 84.900215149 0.6152002811 77.804290771 0.9343420267
 3096.6154785 2.0000000000 -0.203125015 8.2968750000 8.5000000000 0.0063280370 6.2704100609 0.2528437972 2.3548810482 6.8979549408 57.183410645 1.0479749441 84.999931335 0.5986459851 79.923278809 1.0623970032
 3096.7678223 2.0000000000 -0.210933685 8.2890663147 8.5000000000 0.0069984840 6.3067288399 0.2509779036 2.3543369770 7.3982200623 58.218299866 1.1154719591 83.900466919 0.5869191289 83.048622131 1.2596800327
 3096.9204102 2.0000000000 -0.210937500 8.2890634537 8.5000000000 0.0084140552 6.1465921402 0.2606454194 2.3531050682 8.3514986038 59.343669891 1.0398989916 83.800003052 0.5844727755 83.549957275 1.2480479479
 3097.0727539 2.0000000000 -0.203123078 8.2968769073 8.5000000000 0.0070094010 6.2301559448 0.2565816939 2.3520410061 7.9020371437 58.499458313 1.0206769705 83.599914551 0.5888684988 84.425369263 1.0966520309
 3097.2250977 2.0000000000 -0.195323020 8.3046770096 8.5000000000 0.0070583709 6.2790498734 0.2486038953 2.3466091156 6.8859581947 56.718078613 0.9888911843 83.300552368 0.5932633281 85.675491333 1.0048799515
 3097.3774414 2.0000000000 -0.210937500 8.2890634537 8.5000000000 0.0082826642 6.2260508537 0.2429766059 2.3524179459 5.7535281181 55.718879700 0.9046028852 84.101554871 0.5957037210 86.425636292 1.0010319948
 3097.5300293 2.0000000000 -0.210926101 8.2890739441 8.5000000000 0.0078338133 6.4315619469 0.2399999946 2.3474910259 5.3907570839 55.846748352 0.9624733329 85.598312378 0.5961949229 87.051048279 1.0537559986
 3097.6823730 2.0000000000 -0.203139335 8.2968606949 8.5000000000 0.0120545104 7.0291838646 0.2436667979 2.3519470692 5.4858560562 57.971408844 1.1462069750 84.399635315 0.5986440182 87.801986694 1.0859320164
 3097.8347168 2.0000000000 -0.210937500 8.2890634537 8.5000000000 0.0222658403 7.2210931778 0.2565771043 2.3731970787 6.3162560463 59.467170715 1.2307050228 84.200202942 0.6049736738 88.923812866 1.0830110312
 3097.9870605 2.0000000000 -0.210937500 8.2890634537 8.5000000000 0.0265512392 7.9034523964 0.2513378859 2.4016389847 6.2461419106 63.590919495 1.4730550051 82.101448059 0.6186428070 90.923606873 0.9854186773
 3098.1396484 2.0000000000 -0.195317313 8.3046827316 8.5000000000 0.0297123902 7.6749339104 0.2469750941 2.4087181091 5.6369118690 65.249473572 1.3517229557 83.599502563 0.6391534805 94.298912048 0.9096919894
 3098.2919922 2.0000000000 -0.210937500 8.2890634537 8.5000000000 0.0287755504 7.6825671196 0.2412311882 2.4330470562 5.0078201294 64.749923706 1.3463679552 83.600006104 0.6625987291 96.175056458 0.9116265774
 3098.4443359 2.0000000000 -0.210934564 8.2890653610 8.5000000000 0.0312579982 8.0563030243 0.2526749969 2.4757111073 5.1447119713 63.156841278 1.4794069529 83.499656677 0.6826220751 97.550460815 1.0185949802
 3098.5966797 2.0000000000 -0.203130707 8.2968692780 8.5000000000 0.0309026893 9.2896175385 0.2598713040 2.5232400894 5.5745801926 64.564178467 2.0788640976 82.699127197 0.6943405271 98.676773071 1.1152540445
 3098.7492676 2.0000000000 -0.210937500 8.2890634537 8.5000000000 0.0306090806 9.3270740509 0.2553282976 2.5115940571 6.0315527916 66.686706543 2.0993270874 81.601379395 0.7002071142 100.92700195 1.1405969858
 3098.9016113 2.0000000000 -0.210937500 8.2890634537 8.5000000000 0.0120393503 6.6660671234 0.2417672873 2.4304459095 6.2927060127 65.996032715 1.2971370220 82.801681519 0.7104800940 102.67369843 1.1161810160
 3099.0539551 4.0000000000 -0.210937500 8.2890634537 8.5000000000 0.0091448957 6.7226119041 0.2360967994 2.3850390911 6.1201701164 63.404830933 1.3015710115 83.902084351 0.7310016155 101.79360199 1.0966390371
 3099.2062988 4.0000000000 -0.210937500 8.2890634537 8.5000000000 0.0057791462 7.6125001907 0.2313686013 2.3707408905 5.6332688332 62.656951904 1.4753830433 84.998970032 0.7548599839 98.428146362 1.0752149820
 3099.3586426 4.0000000000 -0.210937500 8.2890634537 8.5000000000 0.0120334700 8.1028461456 0.2506074011 2.4134659767 5.3751468658 62.031600952 1.6286369562 83.600807190 0.7714747787 95.301773071 1.0732430220
 3099.5112305 4.0000000000 -0.210937500 8.2890634537 8.5000000000 0.0221605711 8.3642225266 0.2583574951 2.4445879459 5.3086071014 64.499496460 1.7257269621 83.799942017 0.7856416702 95.799888611 1.0732419491
