# LAS format log file from PETREL
# Project units are specified as depth units
#==================================================================
~Version information
VERS.   2.0:
WRAP.   NO:
#==================================================================
~Well
STRT .m      2766.8217773 :
STOP .m      3149.9555664 :
STEP .m     0.00000000 :
NULL .        -999.250000 :
COMP.           : COMPANY
WELL.  16/10-2 Delta   : WELL
FLD.            : FIELD
LOC.            : LOCATION
SRVC.           : SERVICE COMPANY
DATE.  2018-09-11 14:48:06   : Log Export Date {yyyy-MM-dd HH:mm:ss}
PROV.           : PROVINCE
UWI.   16/10-2   : UNIQUE WELL ID
API.            : API NUMBER
#==================================================================
~Curve
DEPT .m                   : DEPTH
Lithology_geolink ._      : Lithology_geolink
DCAL .in                  : DCAL
CALI .in                  : CALI
BS .in                    : BS
DRHO .g/cm3               : DRHO
THOR .ppm                 : THOR
NPHI .m3/m3               : NPHI
RHOB .g/cm3               : RHOB
PEF .b/e                  : PEF
GR .gAPI                  : GR
URAN .ppm                 : URAN
DTC .us/ft                : DTC
RDEP .ohm.m               : RDEP
SP .mV                    : SP
RMED .ohm.m               : RMED
~Parameter
#==================================================================
~Ascii
# ...
 2992.6787109 1.0000000000 -0.046884537 8.4531154633 8.5000000000 0.0047625061 2.6433229446 0.2054363042 2.3103470802 4.2350168228 34.405010223 0.4392701983 80.897956848 0.5542184114 56.924999237 0.9439262152
 2992.8312988 16.000000000 -0.062492374 8.4375076294 8.5000000000 0.0097147524 2.6895000935 0.2161819041 2.3906600475 5.3333277702 32.279338837 0.4589627981 77.396476746 0.5879191756 56.927139282 1.0784749985
 2992.9836426 16.000000000 -0.054697990 8.4453020096 8.5000000000 0.0111864703 2.7261199951 0.2302338034 2.4565091133 6.6921658516 30.278770447 0.4542273879 73.697097778 0.6186777949 59.178630829 1.4461009502
 2993.1359863 16.000000000 -0.062500000 8.4375000000 8.5000000000 0.0147100799 2.8996078968 0.2459482998 2.4782400131 7.2639789581 28.404579163 0.5435326099 71.503211975 0.6382089257 61.928379059 2.0416600704
 2993.2883301 16.000000000 -0.062467579 8.4375324249 8.5000000000 0.0261935107 4.3651080132 0.2505871058 2.4695489407 6.2909541130 27.424480438 0.3046618104 73.408432007 0.6533607841 63.925773621 2.4208099842
 2993.4409180 16.000000000 -0.046887401 8.4531126022 8.5000000000 0.0149723087 4.9857978821 0.2480985075 2.4016230106 5.3132572174 28.686519623 0.3917742968 77.496833801 0.6733242273 64.299697876 1.9037209749
 2993.5932617 16.000000000 -0.062493321 8.4375066757 8.5000000000 0.0105987601 4.9741477966 0.2399464101 2.3682250977 4.9064149857 34.310218811 0.4247480929 80.898612976 0.6816372275 64.799781799 1.2160990238
 2993.7456055 1.0000000000 -0.054687500 8.4453134537 8.5000000000 0.0127912601 5.0198740959 0.2340940982 2.3768780231 5.0078091621 40.249790192 0.5839018822 82.799926758 0.6640630960 66.924911499 0.8945428133
 2993.8979492 1.0000000000 -0.046877861 8.4531221390 8.5000000000 0.0167041607 5.0908741951 0.2291124910 2.4227139950 4.9999270439 44.031780243 0.6055573821 85.399230957 0.6362236738 69.801109314 0.9219279885
 2994.0505371 1.0000000000 -0.054693218 8.4453067780 8.5000000000 0.0200167708 5.0456509590 0.2349344045 2.4381699562 4.7811980247 45.623809814 0.5075706244 83.100921631 0.6162127256 73.176307678 1.0810660124
 2994.2028809 1.0000000000 -0.062366489 8.4376344681 8.5000000000 0.0161419902 5.1789760590 0.2462195903 2.4102060795 4.7068600655 43.933849335 0.5498533845 84.402893066 0.6186839938 75.051063538 1.0975509882
 2994.3552246 1.0000000000 0.0625333786 8.5625333786 8.5000000000 0.0117043396 5.0013208389 0.2405183017 2.3782889843 4.5468468666 40.527328491 0.4312303960 87.097686768 0.6489961743 76.049453735 0.9989348054
 2994.5075684 1.0000000000 0.0860643312 8.5860643387 8.5000000000 0.0103110699 4.8946819305 0.2247772068 2.3842461109 4.5271458626 37.814468384 0.3767099082 85.497482300 0.6998127103 75.673858643 0.9375228882
 2994.6601563 1.0000000000 0.1564026028 8.6564025879 8.5000000000 0.0102139805 4.7894129753 0.1957150102 2.4420309067 4.4172468185 38.905128479 0.3012582064 84.101432800 0.7606772184 75.050628662 0.9501823187
 2994.8125000 1.0000000000 0.2265166789 8.7265167236 8.5000000000 0.0112284301 4.5852160454 0.1815589964 2.5210440159 4.0861549377 40.155429840 0.2013072968 79.403091431 0.8397892118 75.549659729 1.2010070086
 2994.9648438 1.0000000000 0.3202858269 8.8202857971 8.5000000000 0.0130705303 4.7892508507 0.1824237108 2.5656149387 3.5372669697 39.875080109 0.6557788253 73.401718140 0.9306365848 77.299476624 1.9197160006
 2995.1171875 1.0000000000 0.4375075996 8.9375076294 8.5000000000 0.0071967943 4.6317949295 0.1981945932 2.5503010750 3.1249980927 36.874820709 0.6130383015 71.199752808 1.0175859928 79.550170898 2.9511919022
 2995.2695313 1.0000000000 0.5312500000 9.0312500000 8.5000000000 0.0051372438 4.7642917633 0.2072504014 2.5300400257 3.0996930599 34.626201630 0.8366618156 68.100502014 1.1201670170 81.801231384 3.1910390854
 2995.4221191 2.0000000000 0.5312500000 9.0312500000 8.5000000000 0.0098460494 3.9785017967 0.2065879107 2.5329530239 3.2852640152 37.285579681 1.0037779808 69.201148987 1.2354199886 84.552452087 2.3764030933
 2995.5744629 2.0000000000 0.5312500000 9.0312500000 8.5000000000 0.0123364897 4.1339187622 0.2092867047 2.5251970291 3.4160690308 42.564140320 1.1186289787 70.603446960 1.3213340044 87.552513123 1.7067710161
 2995.7268066 2.0000000000 0.5312861800 9.0312862396 8.5000000000 0.0136873601 4.2995138168 0.2268644869 2.4921150208 3.4610559940 43.936721802 1.1929359436 73.502960205 1.3593729734 89.676353455 1.4881550074
 2995.8791504 2.0000000000 0.5549126267 9.0549125671 8.5000000000 0.0176072400 4.0604128838 0.2358143926 2.4696860313 3.5376119614 43.432640076 0.9685057998 75.403671265 1.3583279848 90.551193237 1.4070179462
 2996.0317383 2.0000000000 0.6717690825 9.1717691422 8.5000000000 0.0160734598 4.3769030571 0.2399461865 2.4705080986 3.7985908985 40.908538818 1.0738639832 77.298286438 1.3222980499 91.174423218 1.2989259958
 2996.1840820 2.0000000000 0.6796836853 9.1796836853 8.5000000000 0.0245865304 4.6704292297 0.2279438972 2.5071780682 3.9471859932 42.405441284 1.1143749952 78.299446106 1.2763919830 91.424850464 1.2744270563
 2996.3364258 2.0000000000 0.6718759537 9.1718759537 8.5000000000 0.0339898504 5.8098468781 0.2310320139 2.5344638824 3.9062569141 42.687450409 1.2016860247 76.400306702 1.2382880449 90.925071716 1.4013459682
 2996.4887695 1.0000000000 0.6796875000 9.1796884537 8.5000000000 0.0281221904 6.3804230690 0.2329606116 2.5270531178 3.7656090260 42.562919617 1.9730910063 77.099929810 1.2070289850 89.424888611 1.4511489868
 2996.6413574 1.0000000000 0.6796875000 9.1796884537 8.5000000000 0.0199172702 6.2526059151 0.2260935009 2.5223000050 3.6875259876 44.688850403 1.5658799410 76.701362610 1.1962959766 88.925422668 1.3358659744
 2996.7937012 1.0000000000 0.6796875000 9.1796884537 8.5000000000 0.0273980498 5.6620697975 0.2071474046 2.5287029743 3.7323520184 47.065399170 1.1848880053 79.099243164 1.2089929581 89.675926208 1.2099250555
 2996.9460449 1.0000000000 0.6796875000 9.1796884537 8.5000000000 0.0295247007 5.0799098015 0.1763903946 2.5397620201 3.6579480171 50.150859833 1.0257250071 78.296707153 1.2187440395 90.676292419 1.1720260382
 2997.0983887 1.0000000000 0.6797657013 9.1797657013 8.5000000000 0.0260835402 4.7774720192 0.1687316000 2.5338320732 3.4628319740 46.023281097 0.7809482813 75.801856995 1.2138459682 91.675193787 1.2874879837
 2997.2507324 1.0000000000 0.7267693877 9.2267694473 8.5000000000 0.0207052305 5.1238150597 0.1782537103 2.5385661125 3.4284749031 41.269271851 0.9001461267 76.894088745 1.2011070251 91.799743652 1.5131059885
 2997.4033203 1.0000000000 0.8280448914 9.3280448914 8.5000000000 0.0271261707 5.3460898399 0.1873974949 2.5464930534 3.7907299995 35.410869598 1.1782180071 74.002281189 1.1699459553 91.675086975 1.7137089968
 2997.5556641 1.0000000000 0.8281249404 9.3281250000 8.5000000000 0.0257477500 5.5061879158 0.2000449002 2.5609629154 4.1170501709 34.656570435 1.2875390053 74.599739075 1.1201380491 91.425086975 1.6523699760
 2997.7080078 1.0000000000 0.8281249404 9.3281250000 8.5000000000 0.0249256678 3.9738578796 0.2033897936 2.5464210510 4.0078182220 38.312309265 1.0501799583 74.999961853 1.0673849583 91.050010681 1.4882899523
 2997.8603516 1.0000000000 0.8281249404 9.3281250000 8.5000000000 0.0214710701 3.9421980381 0.2081435025 2.5323209763 4.0859351158 40.937698364 1.0141140223 75.600112915 1.0126750469 90.924873352 1.2636170387
 2998.0129395 1.0000000000 0.8281249404 9.3281250000 8.5000000000 0.0154579896 2.6666140556 0.2029812932 2.4951899052 4.0782060623 41.558441162 0.5057228804 75.899673462 0.9511268139 90.549217224 1.0907839537
 2998.1652832 1.0000000000 0.8279933333 9.3279933929 8.5000000000 0.0207332205 2.5903389454 0.2000351846 2.4872119427 4.1951680183 35.652160645 0.4919241965 75.399673462 0.8876302242 89.422477722 1.0381610394
 2998.3176270 1.0000000000 0.7030801773 9.2030801773 8.5000000000 0.0215589497 2.6501309872 0.1966791004 2.4688539505 4.0593729019 31.776620865 0.5895149112 75.099853516 0.8280398846 87.044456482 1.1095449924
 2998.4699707 1.0000000000 0.6718607545 9.1718606949 8.5000000000 0.0162008498 2.5283920765 0.1987707019 2.4452157021 4.6066389084 28.529659271 0.5322837830 75.001426697 0.7704259157 83.168716431 1.2286620140
