# LAS format log file from PETREL
# Project units are specified as depth units
#==================================================================
~Version information
VERS.   2.0:
WRAP.   NO:
#==================================================================
~Well
STRT .m      439.11318970 :
STOP .m      3157.0148926 :
STEP .m     0.00000000 :
NULL .        -999.250000 :
COMP.           : COMPANY
WELL.  16/10-1 Alpha   : WELL
FLD.            : FIELD
LOC.            : LOCATION
SRVC.           : SERVICE COMPANY
DATE.  2018-09-11 14:48:05   : Log Export Date {yyyy-MM-dd HH:mm:ss}
PROV.           : PROVINCE
UWI.   16/10-1   : UNIQUE WELL ID
API.            : API NUMBER
#==================================================================
~Curve
DEPT .m                   : DEPTH
Lithology_geolink ._      : Lithology_geolink
DCAL .in                  : DCAL
CALI .in                  : CALI
BS .in                    : BS
DRHO .g/cm3               : DRHO
NPHI .m3/m3               : NPHI
RHOB .g/cm3               : RHOB
PEF .b/e                  : PEF
GR .gAPI                  : GR
DTC .us/ft                : DTC
RDEP .ohm.m               : RDEP
SP .mV                    : SP
RSHA .ohm.m               : RSHA
RXO .ohm.m                : RXO
RMED .ohm.m               : RMED
~Parameter
#==================================================================
~Ascii
# ...
 819.50360107  -999.250000 0.3281002045 17.828100204 17.500000000  -999.250000  -999.250000  -999.250000  -999.250000 120.32479858 147.20230103 1.2567000389 76.929931641 0.8870000243 0.9131806493 1.2615000010
 819.65600586  -999.250000 0.4218998253 17.921899796 17.500000000  -999.250000  -999.250000  -999.250000  -999.250000 121.39659882 149.71318054 1.2249000072 77.420120239 0.9262999892 0.8645771146 1.2067999840
 819.80841064  -999.250000 0.2343997955 17.734399796 17.500000000  -999.250000  -999.250000  -999.250000  -999.250000 118.55239868 149.70419312 1.1857000589 78.100013733 0.8072999716 0.7939339280 1.1471999884
 819.96081543  -999.250000 0.2031002045 17.703100204 17.500000000  -999.250000  -999.250000  -999.250000  -999.250000 118.51989746 151.73910522 1.1391999722 78.220046997 0.7908999920 0.7780748606 1.0935000181
 820.11322021  -999.250000 0.2031002045 17.703100204 17.500000000  -999.250000  -999.250000  -999.250000  -999.250000 125.67690277 156.13729858 1.1093000174 78.434967041 0.7598999739 0.7164934278 1.0285999775
 820.26562500  -999.250000 0.4062995613 17.906299591 17.500000000  -999.250000  -999.250000  -999.250000  -999.250000 127.35320282 156.71427917 1.1023000479 78.109794617 0.6973000169 0.7977147698 0.9775000215
 820.41802979  -999.250000 0.2968997955 17.796899796 17.500000000  -999.250000  -999.250000  -999.250000  -999.250000 121.82720184 156.33740234 1.1067999601 77.800384521 0.8938000202 0.9278710485 0.9433000088
 820.57043457  -999.250000 0.0625000000 17.562500000 17.500000000  -999.250000  -999.250000  -999.250000  -999.250000 110.62819672 153.79269409 1.1173000336 78.345199585 0.9480000138 0.9795398712 0.9779999852
 820.72283936  -999.250000 0.3281002045 17.828100204 17.500000000  -999.250000  -999.250000  -999.250000  -999.250000 106.89250183 151.79739380 1.1297999620 78.720069885 1.0049999952 1.0085333586 1.0707000494
 820.87524414  -999.250000 0.5937995911 18.093799591 17.500000000  -999.250000  -999.250000  -999.250000  -999.250000 105.35710144 150.78660583 1.1419999599 78.854690552 1.0068000555 0.9807276130 1.1916999817
 821.02764893  -999.250000 0.9843997955 18.484399796 17.500000000  -999.250000  -999.250000  -999.250000  -999.250000 108.03769684 150.79800415 1.1880999804 78.319999695 0.9549000263 0.9122579098 1.2706999779
 821.17999268  -999.250000 1.2812999487 18.781299591 17.500000000  -999.250000  -999.250000  -999.250000  -999.250000 105.00050354 152.71980286 1.2204999924 77.724937439 0.8755999804 0.9411630034 1.2756999731
 821.33239746  -999.250000 1.6718999147 19.171899796 17.500000000  -999.250000  -999.250000  -999.250000  -999.250000 107.95069885 151.75900269 1.2372000217 77.525260925 0.9994000196 0.9957356453 1.2158000469
 821.48480225  -999.250000 1.3593999147 18.859399796 17.500000000  -999.250000  -999.250000  -999.250000  -999.250000 113.39089966 152.50000000 1.2302999496 77.339698792 0.9911000133 0.9717444777 1.1480000019
 821.63720703  -999.250000 1.3593999147 18.859399796 17.500000000  -999.250000  -999.250000  -999.250000  -999.250000 113.40869904 153.25000000 1.2161999941 77.849967957 0.9560999870 0.9673259854 1.1051000357
 821.78961182  -999.250000 2.1719000340 19.671899796 17.500000000  -999.250000  -999.250000  -999.250000  -999.250000 108.96869659 153.98901367 1.2142000198 77.729927063 0.9750000238 0.9443523884 1.0803999901
 821.94201660  -999.250000 1.7812999487 19.281299591 17.500000000  -999.250000  -999.250000  -999.250000  -999.250000 106.61930084 154.54049683 1.2347999811 77.414962769 0.9135000110 0.8782863617 1.0628000498
 822.09442139  -999.250000 1.6094000340 19.109399796 17.500000000  -999.250000  -999.250000  -999.250000  -999.250000 109.79989624 155.68769836 1.1793999672 77.167442322 0.8518000245 0.8549956083 1.0514999628
 822.24682617  -999.250000 1.0469000340 18.546899796 17.500000000  -999.250000  -999.250000  -999.250000  -999.250000 117.56390381 155.98260498 1.0717999935 76.872467041 0.8619999886 0.8683964610 1.0511000156
 822.39923096  -999.250000 0.7968997955 18.296899796 17.500000000  -999.250000  -999.250000  -999.250000  -999.250000 115.89610291 155.90649414 0.9304000139 76.687545776 0.8704000115 0.8548029065 1.0540000200
 822.55163574  -999.250000 1.2500000000 18.750000000 17.500000000  -999.250000  -999.250000  -999.250000  -999.250000 116.52960205 154.86819458 0.7871000171 76.335266113 0.8381999731 0.8209298849 1.0456999540
 822.70404053  -999.250000 0.7499999404 18.250000000 17.500000000  -999.250000  -999.250000  -999.250000  -999.250000 117.49140167 155.00000000 0.6901999712 76.257484436 0.8122000098 0.8316051364 0.9822999835
 822.85644531  -999.250000 0.6718998551 18.171899796 17.500000000  -999.250000  -999.250000  -999.250000  -999.250000 116.31999969 155.08590698 0.6524000168 77.125091553 0.8299999833 0.7211734056 0.8037999868
 823.00885010  -999.250000 1.1875000000 18.687500000 17.500000000  -999.250000  -999.250000  -999.250000  -999.250000 118.84169769 153.74401855 0.6407999992 78.295158386 0.6370999813 0.6823488474 0.6366000175
 823.16125488  -999.250000 1.2812999487 18.781299591 17.500000000  -999.250000  -999.250000  -999.250000  -999.250000 110.26239777 154.73030090 0.6376000047 79.175132751 0.7379999757 0.7435986996 0.5472999811
 823.31359863  -999.250000 1.1562999487 18.656299591 17.500000000  -999.250000  -999.250000  -999.250000  -999.250000 110.28820038 155.67439270 0.6342999935 79.859748840 0.7372999787 0.7273392081 0.5946999788
 823.46600342  -999.250000 1.5469001532 19.046899796 17.500000000  -999.250000  -999.250000  -999.250000  -999.250000 109.48490143 155.78518677 0.6312000155 80.292854309 0.7143999934 0.6785550714 0.7355999947
 823.61840820  -999.250000 1.4531000853 18.953100204 17.500000000  -999.250000  -999.250000  -999.250000  -999.250000 123.21600342 156.26602173 0.6356999874 80.517494202 0.6514999866 0.6701189280 0.9412999749
 823.77081299  -999.250000 1.1405999660 18.640600204 17.500000000  -999.250000  -999.250000  -999.250000  -999.250000 123.71869659 156.84721375 0.6830999851 81.577476501 0.6815999746 0.6109119058 1.0015000105
 823.92321777  -999.250000 1.1562999487 18.656299591 17.500000000  -999.250000  -999.250000  -999.250000  -999.250000 116.82830048 155.11489868 0.7899000049 81.542320251 0.5515999794 0.6029647589 0.9973999858
 824.07562256  -999.250000 1.7812999487 19.281299591 17.500000000  -999.250000  -999.250000  -999.250000  -999.250000 112.42810059 155.41279602 0.9359999895 80.807182312 0.6542999744 0.6563347578 0.9955999851
 824.22802734  -999.250000 1.2655999660 18.765600204 17.500000000  -999.250000  -999.250000  -999.250000  -999.250000 111.38020325 153.51640320 1.0552999973 79.467552185 0.6546999812 0.6726563573 0.9819999933
 824.38043213  -999.250000 1.1250000000 18.625000000 17.500000000  -999.250000  -999.250000  -999.250000  -999.250000 116.01609802 152.26370239 1.1125999689 78.867370605 0.6888999939 0.6996650696 0.9700999856
 824.53283691  -999.250000 1.0937999487 18.593799591 17.500000000  -999.250000  -999.250000  -999.250000  -999.250000 107.13770294 152.75000000 1.0779999495 78.857696533 0.7095999718 0.7276704311 0.9490000010
 824.68524170  -999.250000 1.5780999660 19.078100204 17.500000000  -999.250000  -999.250000  -999.250000  -999.250000 107.54139709 153.22810364 1.0276999474 78.375038147 0.7426999807 0.7263965011 0.9592000246
 824.83764648  -999.250000 1.5156000853 19.015600204 17.500000000  -999.250000  -999.250000  -999.250000  -999.250000 104.42250061 152.81050110 0.9940999746 78.022430420 0.7110999823 0.6960636973 0.9782999754
 824.99005127  -999.250000 1.2969000340 18.796899796 17.500000000  -999.250000  -999.250000  -999.250000  -999.250000 102.72689819 153.85060120 0.9740999937 77.565032959 0.6858999729 0.7006035447 0.9495000243
 825.14245605  -999.250000 1.4844000340 18.984399796 17.500000000  -999.250000  -999.250000  -999.250000  -999.250000 105.61810303 152.12500000 0.9732999802 77.265197754 0.7124999762 0.7015971541 0.8676999807
 825.29479980  -999.250000 1.5156000853 19.015600204 17.500000000  -999.250000  -999.250000  -999.250000  -999.250000 109.83290100 152.23399353 0.9753999710 77.609878540 0.6905999780 0.6884669662 0.8043000102
