# LAS format log file from PETREL
# Project units are specified as depth units
#==================================================================
~Version information
VERS.   2.0:
WRAP.   NO:
#==================================================================
~Well
STRT .m      439.11318970 :
STOP .m      3157.0148926 :
STEP .m     0.00000000 :
NULL .        -999.250000 :
COMP.           : COMPANY
WELL.  16/10-1 Alpha   : WELL
FLD.            : FIELD
LOC.            : LOCATION
SRVC.           : SERVICE COMPANY
DATE.  2018-09-11 14:48:05   : Log Export Date {yyyy-MM-dd HH:mm:ss}
PROV.           : PROVINCE
UWI.   16/10-1   : UNIQUE WELL ID
API.            : API NUMBER
#==================================================================
~Curve
DEPT .m                   : DEPTH
Lithology_geolink ._      : Lithology_geolink
DCAL .in                  : DCAL
CALI .in                  : CALI
BS .in                    : BS
DRHO .g/cm3               : DRHO
NPHI .m3/m3               : NPHI
RHOB .g/cm3               : RHOB
PEF .b/e                  : PEF
GR .gAPI                  : GR
DTC .us/ft                : DTC
RDEP .ohm.m               : RDEP
SP .mV                    : SP
RSHA .ohm.m               : RSHA
RXO .ohm.m                : RXO
RMED .ohm.m               : RMED
~Parameter
#==================================================================
~Ascii
# ...
 2614.4709473 10.000000000 0.1640996933 8.6640996933 8.5000000000 0.0004000000 0.1554999948 2.5267000198 4.7018790245 25.973899841 80.791488647 1.9096000195 112.46476746  -999.250000  -999.250000 1.4634000063
 2614.6232910 10.000000000 0.1640996933 8.6640996933 8.5000000000 -0.003600000 0.1375000030 2.5164999962 4.6954808235 19.622999191 78.635604858 1.9279999733 112.81469727  -999.250000  -999.250000 1.7143000364
 2614.7758789 10.000000000 0.1640996933 8.6640996933 8.5000000000 -0.000700000 0.1269000024 2.5234000683 4.5235872269 14.637200356 71.840103149 1.9146000147 112.31440735  -999.250000  -999.250000 2.5748000145
 2614.9282227 10.000000000 0.1640996933 8.6640996933 8.5000000000 -0.002000000 0.1278000027 2.5311999321 4.1398110390 11.000000000 70.511100769 1.9953000546 111.97499847  -999.250000  -999.250000 3.2590000629
 2615.0805664 10.000000000 0.1796998978 8.6796998978 8.5000000000 -0.004400000 0.1251000017 2.5352001190 4.0591568947 12.434599876 69.893096924 2.2151000500 111.97499847  -999.250000  -999.250000 3.4000000954
 2615.2329102 10.000000000 0.2343997955 8.7343997955 8.5000000000 -0.008200000 0.1351000071 2.5469000340 4.2458682060 14.757800102 72.112396240 2.4756999016 111.97474670  -999.250000  -999.250000 3.1538999081
 2615.3854980 10.000000000 0.1640996933 8.6640996933 8.5000000000 -0.001100000 0.1274999976 2.5585000515 4.7636718750 18.916700363 72.744400024 2.6294000149 111.81444550  -999.250000  -999.250000 2.8620998859
 2615.5378418 10.000000000 0.1640996933 8.6640996933 8.5000000000 0.0017000000 0.1211000010 2.5636999607 4.9816708565 18.090499878 73.027397156 2.7144999504 111.23579407  -999.250000  -999.250000 2.9532999992
 2615.6901855 10.000000000 0.1640996933 8.6640996933 8.5000000000 0.0105999997 0.1154000014 2.5467000008 5.0352439880 14.967700005 70.659103394 2.6229000092 110.48447418  -999.250000  -999.250000 3.4358999729
 2615.8425293 10.000000000 0.1640996933 8.6640996933 8.5000000000 0.0077000000 0.1242000014 2.5257999897 4.6854968071 13.030599594 69.064903259 2.4498000145 109.65513611  -999.250000  -999.250000 3.9219999313
 2615.9948730 10.000000000 0.2500000000 8.7500000000 8.5000000000 0.0087000001 0.1438000053 2.5125000477 4.4489870071 14.318400383 70.564300537 2.3805000782 109.05532837  -999.250000  -999.250000 3.4860999584
 2616.1474609 10.000000000 0.2500000000 8.7500000000 8.5000000000 0.0019000000 0.1474000067 2.5095999241 4.4965372086 16.989000320 73.028297424 2.3870999813 109.44671631  -999.250000  -999.250000 2.5771000385
 2616.2998047 10.000000000 0.1796998978 8.6796998978 8.5000000000 -0.000100000 0.1480000019 2.5058999062 4.7970571518 17.554399490 74.196601868 2.3290998936 110.23175049  -999.250000  -999.250000 2.1605000496
 2616.4521484 10.000000000 0.2109003067 8.7109003067 8.5000000000 -0.003300000 0.1398999989 2.5025999546 5.0045819283 16.115299225 73.329101563 2.2365999222 111.07151794  -999.250000  -999.250000 2.4918999672
 2616.6044922 10.000000000 0.1953001171 8.6953001022 8.5000000000 -0.005098878 0.1429000050 2.5078999996 4.9692759514 15.108200073 73.206596375 2.1902999878 111.33295441  -999.250000  -999.250000 3.0362999439
 2616.7570801 10.000000000 0.2500000000 8.7500000000 8.5000000000 -0.004395200 0.1407999992 2.5338997841 4.8458528519 17.779300690 74.051399231 2.2018001080 111.18135071  -999.250000  -999.250000 2.8610999584
 2616.9094238 10.000000000 0.2578001022 8.7578001022 8.5000000000 -0.002898718 0.1395999938 2.5471000671 4.8994140625 20.439599991 75.327301025 2.2623999119 110.88667297  -999.250000  -999.250000 2.3571999073
 2617.0617676 10.000000000 0.2343997955 8.7343997955 8.5000000000 -0.002109936 0.1388999969 2.5390000343 4.9425888062 20.655000687 74.678398132 2.3090000153 110.18180084  -999.250000  -999.250000 2.2869999409
 2617.2141113 10.000000000 0.2343997955 8.7343997955 8.5000000000 -0.008309134 0.1397999972 2.5092999935 4.8356428146 15.233699799 71.748901367 2.2894001007 109.80525208  -999.250000  -999.250000 2.7493999004
 2617.3666992 10.000000000 0.1953001171 8.6953001022 8.5000000000 -0.013992321 0.1374000013 2.4960000515 4.7900948524 10.771499634 68.867202759 2.2007999420 109.09364319  -999.250000  -999.250000 3.5615000725
 2617.5190430 10.000000000 0.2578001022 8.7578001022 8.5000000000 -0.011582532 0.1430000067 2.5086998940 4.9506158829 10.566399574 69.291297913 2.1098001003 109.63507080  -999.250000  -999.250000 3.8387999535
 2617.6713867 10.000000000 0.2656002045 8.7656002045 8.5000000000 -0.000698718 0.1543000042 2.5332999229 5.0634012222 15.982299805 73.891098022 2.1298999786 110.05539703  -999.250000  -999.250000 2.8329999447
 2617.8237305 10.000000000 0.2734003067 8.7734003067 8.5000000000 0.0001048077 0.1580000073 2.5290000439 5.0947270393 20.714599609 76.870689392 2.1078000069 110.36444092  -999.250000  -999.250000 2.0401999950
 2617.9760742 10.000000000 0.2578001022 8.7578001022 8.5000000000 0.0030915064 0.1562999934 2.5171999931 4.8507738113 19.626899719 76.975402832 2.0113999844 110.76216888  -999.250000  -999.250000 1.9675999880
 2618.1286621 10.000000000 0.2578001022 8.7578001022 8.5000000000 -0.002183680 0.1559000015 2.4946999550 4.7449288368 16.595899582 76.218307495 1.9593000412 111.05407715  -999.250000  -999.250000 2.3591001034
 2618.2810059 10.000000000 0.2578001022 8.7578001022 8.5000000000 0.0028993590 0.1630000025 2.4979999065 4.7022800446 15.927700043 73.893798828 1.9229999781 110.98510742  -999.250000  -999.250000 2.3673999310
 2618.4333496 10.000000000 0.2578001022 8.7578001022 8.5000000000 0.0025012819 0.1572999954 2.5000000000 4.7658572197 16.205699921 74.479698181 1.9107999802 110.55471802  -999.250000  -999.250000 2.0985000134
 2618.5856934 10.000000000 0.2578001022 8.7578001022 8.5000000000 0.0032935897 0.1590999961 2.5034999847 4.7354331017 15.248900414 73.227996826 1.9538999796 110.56494904  -999.250000  -999.250000 2.0873999596
 2618.7382813 10.000000000 0.2578001022 8.7578001022 8.5000000000 -0.000725280 0.1580999941 2.4918999672 4.5339388847 11.935799599 71.170303345 1.9859000444 110.22448730  -999.250000  -999.250000 2.4349000454
 2618.8906250 10.000000000 0.2578001022 8.7578001022 8.5000000000 -0.008594231 0.1664000005 2.4739000797 4.4578580856 10.385299683 70.380798340 1.9594999552 110.06520081  -999.250000  -999.250000 2.8541998863
 2619.0429688 10.000000000 0.2578001022 8.7578001022 8.5000000000 -0.004995833 0.1717000008 2.4784998894 4.5063481331 10.307800293 72.132797241 1.9644000530 109.56616211  -999.250000  -999.250000 2.8889000416
 2619.1953125 10.000000000 0.2578001022 8.7578001022 8.5000000000 -0.002397116 0.1660999954 2.4848999977 4.7552962303 10.634699821 74.060302734 2.0473001003 109.48369598  -999.250000  -999.250000 2.4635999203
 2619.3479004 10.000000000 0.2578001022 8.7578001022 8.5000000000 -0.000614400 0.1559000015 2.4962000847 4.9377999306 11.389599800 75.152000427 2.0341000557 110.03826141  -999.250000  -999.250000 2.1545000076
 2619.5002441 10.000000000 0.2578001022 8.7578001022 8.5000000000 -0.005103366 0.1590999961 2.4865000248 4.9680738449 10.728799820 76.252296448 1.9772000313 110.27683258  -999.250000  -999.250000 2.2142999172
 2619.6525879 10.000000000 0.2968997955 8.7968997955 8.5000000000 -0.007200320 0.1726000011 2.4763998985 4.8691530228 11.550200462 74.674797058 1.9101999998 111.10762024  -999.250000  -999.250000 2.3626999855
 2619.8049316 10.000000000 0.2890996933 8.7890996933 8.5000000000 -0.007400481 0.1841000021 2.4649999142 4.6637678146 12.696800232 73.660003662 1.8077000380 111.86709595  -999.250000  -999.250000 2.2771000862
 2619.9572754 10.000000000 0.2656002045 8.7656002045 8.5000000000 -0.007699200 0.1865999997 2.4547998905 4.5260348320 12.887299538 75.523101807 1.7567000389 111.79710388  -999.250000  -999.250000 2.0915000439
 2620.1098633 10.000000000 0.3515997231 8.8515996933 8.5000000000 -0.007205609 0.1978999972 2.4419000149 4.4673271179 13.394499779 76.453201294 1.7467999458 111.04722595  -999.250000  -999.250000 1.9357999563
 2620.2622070 10.000000000 0.2890996933 8.7890996933 8.5000000000 -0.010705930 0.1964000016 2.4335896969 4.4665722847 12.933600426 75.568702698 1.7192000151 110.37651825  -999.250000  -999.250000 1.7907999754
