# LAS format log file from PETREL
# Project units are specified as depth units
#==================================================================
~Version information
VERS.   2.0:
WRAP.   NO:
#==================================================================
~Well
STRT .m      415.13760376 :
STOP .m      2850.0324707 :
STEP .m     0.00000000 :
NULL .        -999.250000 :
COMP.           : COMPANY
WELL.  16/10-3 Tyr Central   : WELL
FLD.            : FIELD
LOC.            : LOCATION
SRVC.           : SERVICE COMPANY
DATE.  2018-09-11 14:48:06   : Log Export Date {yyyy-MM-dd HH:mm:ss}
PROV.           : PROVINCE
UWI.   16/10-3   : UNIQUE WELL ID
API.            : API NUMBER
#==================================================================
~Curve
DEPT .m                   : DEPTH
Lithology_geolink ._      : Lithology_geolink
DCAL .in                  : DCAL
CALI .in                  : CALI
BS .in                    : BS
DRHO .g/cm3               : DRHO
THOR .ppm                 : THOR
NPHI .m3/m3               : NPHI
RHOB .g/cm3               : RHOB
PEF .b/e                  : PEF
GR .gAPI                  : GR
URAN .ppm                 : URAN
DTC .us/ft                : DTC
DTS .us/ft                : DTS
RDEP .ohm.m               : RDEP
SP .mV                    : SP
RSHA .ohm.m               : RSHA
RMED .ohm.m               : RMED
~Parameter
#==================================================================
~Ascii
# ...
 2842.1076660  -999.250000 -0.149271995 8.3507280350 8.5000000000 0.0096838539  -999.250000 0.2335197031 2.5190670490 3.2049119473  -999.250000  -999.250000  -999.250000  -999.250000 3.0921800137  -999.250000 1.9647459984 1.9554474354
 2842.2600098  -999.250000 -0.164383903 8.3356161118 8.5000000000 0.0155003499  -999.250000 0.2227534056 2.5228838921 3.4278879166  -999.250000  -999.250000  -999.250000  -999.250000 3.1746819019  -999.250000 1.9890700579 1.9819039106
 2842.4123535  -999.250000 -0.167880997 8.3321189880 8.5000000000 -0.004624861  -999.250000 0.2238273025 2.5124371052 3.7060201168  -999.250000  -999.250000  -999.250000  -999.250000 3.2615020275  -999.250000 2.0840189457 2.0563614368
 2842.5649414  -999.250000 -0.157432601 8.3425674438 8.5000000000 -0.008304494  -999.250000 0.2246585041 2.5043148994 2.8248989582  -999.250000  -999.250000  -999.250000  -999.250000 3.4444360733  -999.250000 2.1801359653 2.1530802250
 2842.7172852  -999.250000 -0.147390395 8.3526096344 8.5000000000 0.0071721682  -999.250000 0.2162238061 2.5174539089 2.7756199837  -999.250000  -999.250000  -999.250000  -999.250000 3.5806748867  -999.250000 2.2493081093 2.2303159237
 2842.8696289  -999.250000 -0.151806802 8.3481931686 8.5000000000 -0.002392454  -999.250000 0.2318287939 2.5074250698 3.4454889297  -999.250000  -999.250000  -999.250000  -999.250000 3.6225240231  -999.250000 2.3298161030 2.3070666790
 2843.0219727  -999.250000 -0.148158997 8.3518409729 8.5000000000 0.0156546291  -999.250000 0.2639446855 2.5233230591 3.1098990440  -999.250000  -999.250000  -999.250000  -999.250000 3.5702130795  -999.250000 2.2945799828 2.3061282635
 2843.1743164  -999.250000 -0.148961097 8.3510389328 8.5000000000 0.0027632529  -999.250000 0.2585650086 2.5095930099 3.1897890568  -999.250000  -999.250000  -999.250000  -999.250000 3.4430460930  -999.250000 2.2555279732 2.2665922642
 2843.3269043  -999.250000 -0.150921807 8.3490781784 8.5000000000 0.0216192789  -999.250000 0.2387461960 2.5378260612 3.0020270348  -999.250000  -999.250000  -999.250000  -999.250000 3.3639819622  -999.250000 2.2213211060 2.2307119370
 2843.4792480  -999.250000 -0.153883889 8.3461160660 8.5000000000 -0.013636120  -999.250000 0.2690840065 2.5236198902 3.0498919487  -999.250000  -999.250000  -999.250000  -999.250000 3.2542359829  -999.250000 2.2084639072 2.2119178772
 2843.6315918  -999.250000 -0.169361100 8.3306388855 8.5000000000 -0.004739945  -999.250000 0.2474043071 2.4989991188 3.4091451168  -999.250000  -999.250000  -999.250000  -999.250000 3.1616239548  -999.250000 2.1887950897 2.1946103573
 2843.7839355  -999.250000 -0.171920806 8.3280792236 8.5000000000 0.0122862002  -999.250000 0.2531821132 2.5172066689 3.0836040974  -999.250000  -999.250000  -999.250000  -999.250000 3.1320660114  -999.250000 2.1774349213 2.1806576252
 2843.9365234  -999.250000 -0.162392616 8.3376073837 8.5000000000 0.0077185468  -999.250000 0.2428151071 2.5179998875 3.1059780121  -999.250000  -999.250000  -999.250000  -999.250000 3.1165881157  -999.250000 2.1635479927 2.1674439907
 2844.0888672  -999.250000 -0.170649499 8.3293504715 8.5000000000 0.0033020340  -999.250000 0.2334513962 2.5083889961 3.4095349312  -999.250000  -999.250000  -999.250000  -999.250000 3.0583119392  -999.250000 2.2628619671 2.2338383198
 2844.2412109  -999.250000 -0.164269403 8.3357305527 8.5000000000 0.0251866300  -999.250000 0.2486560941 2.5281910896 3.3239450455  -999.250000  -999.250000  -999.250000  -999.250000 3.1098229885  -999.250000 2.3294610977 2.3113987446
 2844.3935547  -999.250000 -0.156317696 8.3436822891 8.5000000000 -0.019624989  -999.250000 0.2498178035 2.5059530735 2.6470160484  -999.250000  -999.250000  -999.250000  -999.250000 3.1571199894  -999.250000 2.3924670219 2.3747358322
 2844.5461426  -999.250000 -0.155038804 8.3449611664 8.5000000000 0.0132725500  -999.250000 0.2535767853 2.5165269375 3.1804969311  -999.250000  -999.250000  -999.250000  -999.250000 3.1589999199  -999.250000 2.3930790424 2.3933041096
 2844.6984863  -999.250000 -0.159804299 8.3401956558 8.5000000000 0.0117459502  -999.250000 0.2341838032 2.5294930935 2.6405489445  -999.250000  -999.250000  -999.250000  -999.250000 3.1580390930  -999.250000 2.4506299496 2.4334371090
 2844.8508301  -999.250000 -0.161922500 8.3380775452 8.5000000000 0.0161181707  -999.250000 0.2273335010 2.5482649803 3.0960860252  -999.250000  -999.250000  -999.250000  -999.250000 3.1551160812  -999.250000 2.4279999733 2.4349653721
 2845.0031738  -999.250000 -0.156239495 8.3437595367 8.5000000000 0.0221398696  -999.250000 0.2194854021 2.5653231144 2.8435559273  -999.250000  -999.250000  -999.250000  -999.250000 3.1598010063  -999.250000 2.4231588840 2.4238820076
 2845.1555176  -999.250000 -0.163682893 8.3363170624 8.5000000000 0.0224362593  -999.250000 0.2260469943 2.5688819885 3.2257339954  -999.250000  -999.250000  -999.250000  -999.250000 3.1590390205  -999.250000 2.4220399857 2.4219884872
 2845.3081055  -999.250000 -0.168804199 8.3311958313 8.5000000000 0.0039772610  -999.250000 0.2609396875 2.5449790955 3.9029300213  -999.250000  -999.250000  -999.250000  -999.250000 3.1551558971  -999.250000 2.4450559616 2.4381558895
 2845.4604492  -999.250000 -0.174767509 8.3252334595 8.5000000000 0.0069060889  -999.250000 0.2489217967 2.5170860291 4.1157541275  -999.250000  -999.250000  -999.250000  -999.250000 3.1655719280  -999.250000 2.4296569824 2.4344165325
 2845.6127930  -999.250000 -0.198041901 8.3019580841 8.5000000000 0.0122605897  -999.250000 0.2191658020 2.5083200932 4.4689149857  -999.250000  -999.250000  -999.250000  -999.250000 3.1573588848  -999.250000 2.4165179729 2.4201664925
 2845.7651367  -999.250000 -0.224929795 8.2750701904 8.5000000000 -0.003726281  -999.250000 0.2335748971 2.5252859592 3.2534608841  -999.250000  -999.250000  -999.250000  -999.250000 3.1493170261  -999.250000 2.4140789509 2.4149806499
 2845.9177246  -999.250000 -0.218314201 8.2816858292 8.5000000000 0.0030380420  -999.250000 0.2467478067 2.5115890503 3.6672489643  -999.250000  -999.250000  -999.250000  -999.250000 3.1634089947  -999.250000 2.3976659775 2.4027361870
 2846.0700684  -999.250000 -0.194933906 8.3050661087 8.5000000000 0.0262328591  -999.250000 0.2352464050 2.5369501114 2.6711900234  -999.250000  -999.250000  -999.250000  -999.250000 3.1572721004  -999.250000 2.3720059395 2.3792614937
 2846.2224121  -999.250000 -0.203615218 8.2963848114 8.5000000000 0.0538006686  -999.250000 0.2764104009 2.5678048134 2.4800479412  -999.250000  -999.250000  -999.250000  -999.250000 3.1560389996  -999.250000 2.4315409660 2.4134039879
 2846.3747559  -999.250000 -0.218403801 8.2815961838 8.5000000000 0.0052090138  -999.250000 0.2449979931 2.5421121120 3.5053489208  -999.250000  -999.250000  -999.250000  -999.250000 3.1511979103  -999.250000 2.4416821003 2.4395475388
 2846.5273438  -999.250000 -0.205551088 8.2944488525 8.5000000000 0.0024538860  -999.250000 0.2425445020 2.5160250664 4.1017742157  -999.250000  -999.250000  -999.250000  -999.250000 3.1548418999  -999.250000 2.3843359947 2.4015319347
 2846.6796875  -999.250000 -0.215570420 8.2844295502 8.5000000000 -0.001870846  -999.250000  -999.250000 2.5303750038 4.2139229774  -999.250000  -999.250000  -999.250000  -999.250000 3.1598050594  -999.250000 2.4242670536 2.4117217064
 2846.8320313  -999.250000 -0.212154403 8.2878456116 8.5000000000 -0.059682500  -999.250000  -999.250000 2.5396521091 3.2897799015  -999.250000  -999.250000  -999.250000  -999.250000 3.1494250298  -999.250000 2.3750269413 2.3896551132
 2846.9843750  -999.250000 -0.212960199 8.2870397568 8.5000000000 -0.009940243  -999.250000  -999.250000 2.5918490887 3.0299329758  -999.250000  -999.250000  -999.250000  -999.250000 3.1470799446  -999.250000 2.4056360722 2.3961424828
 2847.1367188  -999.250000 -0.229327217 8.2706727982 8.5000000000 0.0346968994  -999.250000  -999.250000 2.6064860821 3.2514419556  -999.250000  -999.250000  -999.250000  -999.250000 3.1498808861  -999.250000 2.4223649502 2.4179360867
 2847.2893066  -999.250000 -0.234804198 8.2651958466 8.5000000000 0.0089810248  -999.250000  -999.250000 2.5628020763 3.0929450989  -999.250000  -999.250000  -999.250000  -999.250000 3.1509609222  -999.250000 2.4133911133 2.4163360596
