# LAS format log file from PETREL
# Project units are specified as depth units
#==================================================================
~Version information
VERS.   2.0:
WRAP.   NO:
#==================================================================
~Well
STRT .m      415.13760376 :
STOP .m      2850.0324707 :
STEP .m     0.00000000 :
NULL .        -999.250000 :
COMP.           : COMPANY
WELL.  16/10-3 Tyr Central   : WELL
FLD.            : FIELD
LOC.            : LOCATION
SRVC.           : SERVICE COMPANY
DATE.  2018-09-11 14:48:06   : Log Export Date {yyyy-MM-dd HH:mm:ss}
PROV.           : PROVINCE
UWI.   16/10-3   : UNIQUE WELL ID
API.            : API NUMBER
#==================================================================
~Curve
DEPT .m                   : DEPTH
Lithology_geolink ._      : Lithology_geolink
DCAL .in                  : DCAL
CALI .in                  : CALI
BS .in                    : BS
DRHO .g/cm3               : DRHO
THOR .ppm                 : THOR
NPHI .m3/m3               : NPHI
RHOB .g/cm3               : RHOB
PEF .b/e                  : PEF
GR .gAPI                  : GR
URAN .ppm                 : URAN
DTC .us/ft                : DTC
DTS .us/ft                : DTS
RDEP .ohm.m               : RDEP
SP .mV                    : SP
RSHA .ohm.m               : RSHA
RMED .ohm.m               : RMED
~Parameter
#==================================================================
~Ascii
# ...
 2362.0476074 13.000000000 1.6548769474 10.154879570 8.5000000000 0.0089401752 13.683989525 0.2858648896 2.3945639133 3.4437720776 112.72730255 3.1131188869 99.299102783  -999.250000 1.4724400043  -999.250000 1.0837559700 1.0887538195
 2362.2001953 13.000000000 1.6703810692 10.170379639 8.5000000000 0.0175538398 13.412390709 0.2508076131 2.3920409679 3.6319470406 112.24739838 2.8834238052 98.658973694  -999.250000 1.4432259798  -999.250000 1.0503820181 1.0598880053
 2362.3525391 13.000000000 1.6873039007 10.187299728 8.5000000000 0.0325770192 13.031051636 0.2079181969 2.3939180374 3.0747640133 103.90989685 2.7644546032 98.197776794  -999.250000 1.4582999945  -999.250000 1.0691310167 1.0634691715
 2362.5048828 13.000000000 1.7225379944 10.222539902 8.5000000000 0.0169365909 12.096030235 0.2243400961 2.3700149059 3.3787980080 100.20780182 2.8309140205 97.980453491  -999.250000 1.5088529587  -999.250000 1.0863039494 1.0814114809
 2362.6572266 13.000000000 1.7527920008 10.252790451 8.5000000000 0.0664658993 11.123089790 0.2690190971 2.4256260395 2.8741741180 95.977256775 3.0638129711 98.015251160  -999.250000 1.5944039822  -999.250000 1.1301540136 1.1174128056
 2362.8098145 13.000000000 1.7990529537 10.299050331 8.5000000000 0.0109378304 10.745121002 0.2202941030 2.4260830879 3.5703029633 89.800369263 3.1854958534 98.387931824  -999.250000 1.6344089508  -999.250000 1.1492489576 1.1440039873
 2362.9621582 13.000000000 1.8431919813 10.343190193 8.5000000000 0.0180503093 10.658264160 0.2211208940 2.4279179573 2.7623970509 92.266433716 3.1484866142 99.212966919  -999.250000 1.5947450399  -999.250000 1.1288959980 1.1350231171
 2363.1145020 13.000000000 1.8555519581 10.355549812 8.5000000000 0.0268291607 10.610978127 0.2376821935 2.4049780369 3.8349189758 98.940612793 3.0539610386 100.35181427  -999.250000 1.4555660486  -999.250000 1.0511449575 1.0736731291
 2363.2668457 13.000000000 1.8540810347 10.354081154 8.5000000000 0.0161195304 10.584639549 0.2647700012 2.3732919693 3.6787519455 97.425590515 2.9055469036 101.36219788  -999.250000 1.3442740440  -999.250000 0.9867473841 1.0047166348
 2363.4194336 13.000000000 1.8798780441 10.379879951 8.5000000000 0.0229720809 10.575304985 0.2585668862 2.3585820198 2.5115799904 99.077339172 2.7136044502 101.96018219  -999.250000 1.2958790064  -999.250000 0.9817166924 0.9824610353
 2363.5717773 13.000000000 1.9222270250 10.422229767 8.5000000000 0.0825481266 10.610108376 0.2873007953 2.3992269039 2.1700839996 97.238922119 2.5598862171 102.19775391  -999.250000 1.2700209618  -999.250000 0.9546176791 0.9624919891
 2363.7241211 13.000000000 1.9345510006 10.434550285 8.5000000000 -0.008177905 10.746486664 0.2870346010 2.3386559486 2.8470959663 100.35230255 2.4677035809 102.17114258  -999.250000 1.2584480047  -999.250000 0.9465411901 0.9485397339
 2363.8764648 13.000000000 1.9349999428 10.435000420 8.5000000000 0.0492601097 10.994210243 0.2553445101 2.3609468937 3.1466660500 103.89700317 2.4511680603 101.89199829  -999.250000 1.2301609516  -999.250000 0.9525337815 0.9506846070
 2364.0288086 13.000000000 1.9561179876 10.456120491 8.5000000000 0.0252418499 11.283550262 0.3094047010 2.3802380562 2.3051741123 105.45780182 2.4938321114 101.31539917  -999.250000 1.2174789906  -999.250000 0.9290717840 0.9360166788
 2364.1813965 13.000000000 1.9627622366 10.462759018 8.5000000000 0.0386806801 11.593440056 0.2936576903 2.3896420002 2.7965350151 100.27829742 2.5663201809 100.68392181  -999.250000 1.2314000130  -999.250000 0.9562376738 0.9480240345
 2364.3337402 13.000000000 1.9524329901 10.452431679 8.5000000000 0.0308046807 11.986569405 0.2603065968 2.3707880974 2.5922389030 100.45880127 2.6618885994 100.31726074  -999.250000 1.2694410086  -999.250000 0.9801980853 0.9735038877
 2364.4860840 13.000000000 1.9711891413 10.471190453 8.5000000000 0.0255213603 12.404589653 0.2560820878 2.3671219349 2.4013800621 102.04160309 2.7490129471 100.22450256  -999.250000 1.3131870031  -999.250000 0.9780132174 0.9789256454
 2364.6384277 13.000000000 1.9902349710 10.490240097 8.5000000000 0.0047797030 12.662449837 0.2667956054 2.3612420559 2.5397500992 100.79840088 2.7487220764 100.26540375  -999.250000 1.3226770163  -999.250000 1.0048530102 0.9971974492
 2364.7910156 13.000000000 1.9737180471 10.473719597 8.5000000000 0.0372282416 12.811907768 0.2682772875 2.3859629631 2.5882079601 103.10079956 2.6844732761 100.37970734  -999.250000 1.3162189722  -999.250000 1.0212838650 1.0169759989
 2364.9433594 13.000000000 1.9547510147 10.454750061 8.5000000000 -0.000906250 12.828924179 0.2736892104 2.3725929260 2.3302059174 103.07669830 2.5947520733 100.69283295  -999.250000 1.2794144154  -999.250000 0.9755894542 0.9892486930
 2365.0957031 13.000000000 1.9597649574 10.459770203 8.5000000000 0.0458463505 12.538258553 0.2580462098 2.3873739243 2.9271960258 100.23690033 2.4923782349 101.33326721  -999.250000 1.2385590076  -999.250000 0.9296007752 0.9425435662
 2365.2480469 13.000000000 1.9657571316 10.465761185 8.5000000000 0.0027028420 12.162870407 0.2839643061 2.3265800476 5.1069359779 102.04859924 2.3958020210 102.18560791  -999.250000 1.2254819870  -999.250000 0.9334601164 0.9318090081
 2365.4006348 13.000000000 1.9612009525 10.461199760 8.5000000000 0.0891862437 11.913669586 0.3103182912 2.3585600853 2.9111909866 105.77010345 2.2706067562 102.87170410  -999.250000 1.2365249395  -999.250000 0.9531687498 0.9475261569
 2365.5529785 13.000000000 1.9696439505 10.469640732 8.5000000000 0.1441614032 11.720529556 0.2780165076 2.4253048897 2.9512519836 100.11530304 2.0824720860 103.37707520  -999.250000 1.2408227921  -999.250000 0.9345558286 0.9402639866
 2365.7053223 13.000000000 1.9651969671 10.465200424 8.5000000000 0.0514783300 11.608160019 0.2739787102 2.3559451103 2.8376429081 97.783782959 1.8454774618 103.79747772  -999.250000 1.2294267416  -999.250000 0.9322424531 0.9327128530
 2365.8576660 13.000000000 1.9525250196 10.452529907 8.5000000000 0.0964048505 11.614549637 0.2782743871 2.3645150661 4.0993552208 96.478942871 1.5649800301 104.03781128  -999.250000 1.2030800581  -999.250000 0.9185748100 0.9225512743
 2366.0100098 13.000000000 1.9520000219 10.452000618 8.5000000000 0.0167382900 11.641699791 0.2684868872 2.3275649548 2.9134969711 98.340263367 1.3726799488 104.02510071  -999.250000 1.1943199635  -999.250000 0.8941342831 0.9011486769
 2366.1625977 13.000000000 1.9443180561 10.444319725 8.5000000000 0.0611133613 11.634490967 0.2714500129 2.3557670116 2.9833519459 93.491348267 1.3562635183 103.74926758  -999.250000 1.1969105005  -999.250000 0.9132971168 0.9074119925
 2366.3149414 13.000000000 1.9401570559 10.440159798 8.5000000000 0.1005657017 11.629192352 0.2490253001 2.3915820122 3.3228490353 90.948379517 1.4141550064 103.16841125  -999.250000 1.2152993679  -999.250000 0.9361257553 0.9296602607
 2366.4672852 13.000000000 1.9611070156 10.461110115 8.5000000000 0.0575905405 11.642959595 0.2460851967 2.3651759624 2.7515161037 94.577201843 1.5708049536 102.36621094  -999.250000 1.2486029863  -999.250000 0.9768533111 0.9652667046
 2366.6196289 13.000000000 1.9735161066 10.473520279 8.5000000000 0.0501615964 11.734869957 0.2700800002 2.3841550350 3.0007870197 101.67489624 1.8399209976 101.48909760  -999.250000 1.3017820120  -999.250000 1.0202150345 1.0080897808
 2366.7722168 13.000000000 1.9672790766 10.467280388 8.5000000000 0.0642700791 11.984417915 0.2751896977 2.4368460178 2.9220008850 98.097541809 2.0322523117 100.76018524  -999.250000 1.3059185743  -999.250000 1.0306482315 1.0281200409
 2366.9245605 13.000000000 1.9794861078 10.479490280 8.5000000000 0.0145316897 12.388627052 0.2749662101 2.4149880409 2.5334579945 99.064239502 2.0887558460 100.37068939  -999.250000 1.3049988747  -999.250000 1.0357668400 1.0341255665
 2367.0769043 13.000000000 2.0107469559 10.510749817 8.5000000000 0.0138898203 12.698083878 0.2566649020 2.4082350731 2.4664189816 105.39219666 2.2048118114 100.30955505  -999.250000 1.2799525261  -999.250000 1.0138741732 1.0201755762
 2367.2292480 13.000000000 2.0187180042 10.518718719 8.5000000000 0.0254515093 12.712969780 0.2591541111 2.3964838982 2.5610690117 100.31990051 2.4198639393 100.53350067  -999.250000 1.2453919649  -999.250000 1.0034010410 1.0059691668
