# LAS format log file from PETREL
# Project units are specified as depth units
#==================================================================
~Version information
VERS.   2.0:
WRAP.   NO:
#==================================================================
~Well
STRT .m      415.13760376 :
STOP .m      2850.0324707 :
STEP .m     0.00000000 :
NULL .        -999.250000 :
COMP.           : COMPANY
WELL.  16/10-3 Tyr Central   : WELL
FLD.            : FIELD
LOC.            : LOCATION
SRVC.           : SERVICE COMPANY
DATE.  2018-09-11 14:48:06   : Log Export Date {yyyy-MM-dd HH:mm:ss}
PROV.           : PROVINCE
UWI.   16/10-3   : UNIQUE WELL ID
API.            : API NUMBER
#==================================================================
~Curve
DEPT .m                   : DEPTH
Lithology_geolink ._      : Lithology_geolink
DCAL .in                  : DCAL
CALI .in                  : CALI
BS .in                    : BS
DRHO .g/cm3               : DRHO
THOR .ppm                 : THOR
NPHI .m3/m3               : NPHI
RHOB .g/cm3               : RHOB
PEF .b/e                  : PEF
GR .gAPI                  : GR
URAN .ppm                 : URAN
DTC .us/ft                : DTC
DTS .us/ft                : DTS
RDEP .ohm.m               : RDEP
SP .mV                    : SP
RSHA .ohm.m               : RSHA
RMED .ohm.m               : RMED
~Parameter
#==================================================================
~Ascii
# ...
 420.47161865  -999.250000 -6.817539215 19.182460785 26.000001907  -999.250000  -999.250000  -999.250000  -999.250000  -999.250000 86.371696472  -999.250000  -999.250000  -999.250000 1.7744446993 466.91320801  -999.250000 1.6647118330
 420.62399292  -999.250000 -6.805471420 19.194530487 26.000001907  -999.250000  -999.250000  -999.250000  -999.250000  -999.250000 85.123878479  -999.250000  -999.250000  -999.250000 1.7883989811 455.68481445  -999.250000 1.6732779741
 420.77639771  -999.250000 -6.812655926 19.187339783 26.000001907  -999.250000  -999.250000  -999.250000  -999.250000  -999.250000 89.002510071  -999.250000  -999.250000  -999.250000 1.8043119907 441.17138672  -999.250000 1.6861815453
 420.92877197  -999.250000 -6.807257175 19.192739487 26.000001907  -999.250000  -999.250000  -999.250000  -999.250000  -999.250000 86.728775024  -999.250000  -999.250000  -999.250000 1.8174409866 430.33108521  -999.250000 1.7008622885
 421.08117676  -999.250000 -6.816569805 19.183429718 26.000001907  -999.250000  -999.250000  -999.250000  -999.250000  -999.250000 87.742149353  -999.250000  -999.250000  -999.250000 1.8285269737 422.18020630  -999.250000 1.7147388458
 421.23358154  -999.250000 -6.794989109 19.205009460 26.000001907  -999.250000  -999.250000  -999.250000  -999.250000  -999.250000 95.839988708  -999.250000  -999.250000  -999.250000 1.8404829502 415.57220459  -999.250000 1.7308932543
 421.38598633  -999.250000 -6.845680237 19.154319763 26.000001907  -999.250000  -999.250000  -999.250000  -999.250000  -999.250000 97.572303772  -999.250000 181.04699707  -999.250000 1.8515260220 407.51818848  -999.250000 1.7500243187
 421.53839111  -999.250000 -6.710163116 19.289840698 26.000001907  -999.250000  -999.250000  -999.250000  -999.250000  -999.250000 90.062973022  -999.250000 181.02630615  -999.250000 1.8587000370 398.18099976  -999.250000 1.7693153620
 421.69079590  -999.250000 -6.866720200 19.133279800 26.000001907  -999.250000  -999.250000  -999.250000  -999.250000  -999.250000 92.083648682  -999.250000 181.01550293  -999.250000 1.8628289700 391.00399780  -999.250000 1.7845774889
 421.84320068  -999.250000 -7.715330124 18.284669876 26.000001907  -999.250000  -999.250000  -999.250000  -999.250000  -999.250000 93.638328552  -999.250000 180.98699951  -999.250000 1.8610860109 383.05920410 0.6919814944 1.7952903509
 421.99557495  -999.250000 0.6321467757 18.132150650 17.503404617  -999.250000  -999.250000  -999.250000  -999.250000  -999.250000 87.057929993  -999.250000 180.97961426  -999.250000 1.8428109884 384.54959106 0.8188679218 1.7892611027
 422.14797974  -999.250000 0.6691113710 18.169109344 17.500000000  -999.250000  -999.250000  -999.250000  -999.250000  -999.250000 92.634735107  -999.250000 181.00119019  -999.250000 1.8113620281 375.48291016 0.9024506211 1.7455823421
 422.30038452  -999.250000 0.6040058136 18.104009628 17.500000000  -999.250000  -999.250000  -999.250000  -999.250000  -999.250000 102.45713043  -999.250000 181.12286377  -999.250000 1.7851090431 376.93850708 0.9451510906 1.6894172430
 422.45278931  -999.250000 0.6766051650 18.176610947 17.500000000  -999.250000  -999.250000  -999.250000  -999.250000  -999.250000 100.44260406  -999.250000 181.43493652  -999.250000 1.7610249519 374.26220703 0.9559484720 1.6481852531
 422.60519409  -999.250000 0.3583869636 17.858390808 17.500000000  -999.250000  -999.250000  -999.250000  -999.250000  -999.250000 99.575218201  -999.250000 181.96321106  -999.250000 2.1572680473 359.34811401 1.0047769547 1.2089244127
 422.75759888  -999.250000 0.3181571960 17.818159103 17.500000000  -999.250000  -999.250000  -999.250000  -999.250000  -999.250000 91.155273438  -999.250000 182.51800537  -999.250000 2.4271540642 359.45098877 0.9843192101 0.9909523726
 422.91000366  -999.250000 0.3476294875 17.847629547 17.500000000  -999.250000  -999.250000  -999.250000  -999.250000  -999.250000 96.918014526  -999.250000 182.84671021  -999.250000 2.2846798897 355.98901367 0.9868971705 0.9858832955
 423.06237793  -999.250000 0.3202876747 17.820289612 17.500000000  -999.250000  -999.250000  -999.250000  -999.250000  -999.250000 91.475685120  -999.250000 182.96495056  -999.250000 1.9948350191 359.96179199 0.9620301127 0.9692940712
 423.21478271  -999.250000 0.3123016059 17.812299728 17.500000000  -999.250000  -999.250000  -999.250000  -999.250000  -999.250000 98.004592896  -999.250000 183.01458740  -999.250000 1.9025330544 350.53259277 0.9048169255 0.9211425185
 423.36718750  -999.250000 0.2411804050 17.741180420 17.500000000  -999.250000  -999.250000  -999.250000  -999.250000  -999.250000 100.96000671  -999.250000 183.06037903  -999.250000 1.8060640097 353.02059937 0.9480184913 0.9348176718
 423.51959229  -999.250000 0.1978054047 17.697809219 17.500000000  -999.250000  -999.250000  -999.250000  -999.250000  -999.250000 98.222763062  -999.250000 183.10348511  -999.250000 1.7282420397 347.91839600 0.9353886247 0.9396339059
 423.67199707  -999.250000 0.2151432037 17.715139389 17.500000000  -999.250000  -999.250000  -999.250000  -999.250000  -999.250000 91.421714783  -999.250000 183.15248108  -999.250000 1.5859539509 354.26510620 0.8707451820 0.8893605471
 423.82440186  -999.250000 0.2485428005 17.748540878 17.500000000  -999.250000  -999.250000  -999.250000  -999.250000  -999.250000 91.667121887  -999.250000 183.25349426  -999.250000 1.5742570162 349.21710205 0.8571662903 0.8603180647
 423.97680664  -999.250000 0.2145863026 17.714590073 17.500000000  -999.250000  -999.250000  -999.250000  -999.250000  -999.250000 93.095634460  -999.250000 183.45425415  -999.250000 1.5653849840 347.12741089 0.8757783771 0.8702283502
 424.12918091  -999.250000 0.2828654945 17.782869339 17.500000000  -999.250000  -999.250000  -999.250000  -999.250000  -999.250000 86.498901367  -999.250000 183.69300842  -999.250000 1.4749170542 346.79809570 0.9251850247 0.9111244678
 424.28158569  -999.250000 0.2879143059 17.787910461 17.500000000  -999.250000  -999.250000  -999.250000  -999.250000  -999.250000 96.019416809  -999.250000 183.89645386  -999.250000 1.4843959808 351.07861328 0.8898637891 0.9007590413
 424.43399048  -999.250000 0.3176670074 17.817670822 17.500000000  -999.250000  -999.250000  -999.250000  -999.250000  -999.250000 93.633438110  -999.250000 183.99958801  -999.250000 1.5261260271 349.21371460 0.9165959954 0.9083846211
 424.58639526  -999.250000 0.2510528862 17.751050949 17.500000000  -999.250000  -999.250000  -999.250000  -999.250000  -999.250000 92.612648010  -999.250000 184.02198792  -999.250000 1.5327850580 339.00820923 0.9609649181 0.9484826922
 424.73880005  -999.250000 0.2068423778 17.706840515 17.500000000  -999.250000  -999.250000  -999.250000  -999.250000  -999.250000 92.132606506  -999.250000 184.09240723  -999.250000 1.4361890554 339.20059204 0.9241924882 0.9354380369
 424.89120483  -999.250000 0.2260550857 17.726060867 17.500000000  -999.250000  -999.250000  -999.250000  -999.250000  -999.250000 91.629058838  -999.250000 184.22869873  -999.250000 1.4654819965 339.74340820 0.8483728170 0.8699502349
 425.04357910  -999.250000 0.2346573174 17.734659195 17.500000000  -999.250000  -999.250000  -999.250000  -999.250000  -999.250000 93.252952576  -999.250000 184.30758667  -999.250000 1.4248609543 344.22131348 0.8063905835 0.8176755905
 425.19598389  -999.250000 0.2531833947 17.753179550 17.500000000  -999.250000  -999.250000  -999.250000  -999.250000  -999.250000 89.614433289  -999.250000 184.32690430  -999.250000 1.3789449930 337.87768555 0.7793626785 0.7866901755
 425.34838867  -999.250000 0.2673988044 17.767400742 17.500000000  -999.250000  -999.250000  -999.250000  -999.250000  -999.250000 95.428146362  -999.250000 184.38510132  -999.250000 1.3501919508 339.47659302 0.7597156763 0.7650833726
 425.50079346  -999.250000 0.2459907979 17.745990753 17.500000000  -999.250000  -999.250000  -999.250000  -999.250000  -999.250000 97.195480347  -999.250000 184.51510620  -999.250000 1.3432580233 335.99020386 0.7549067140 0.7560456395
 425.65319824  -999.250000 0.2249011993 17.724899292 17.500000000  -999.250000  -999.250000  -999.250000  -999.250000  -999.250000 86.408828735  -999.250000 184.72637939  -999.250000 1.3506560326 342.43231201 0.7726650834 0.7674767971
