# LAS format log file from PETREL
# Project units are specified as depth units
#==================================================================
~Version information
VERS.   2.0:
WRAP.   NO:
#==================================================================
~Well
STRT .m      415.13760376 :
STOP .m      2850.0324707 :
STEP .m     0.00000000 :
NULL .        -999.250000 :
COMP.           : COMPANY
WELL.  16/10-3 Tyr Central   : WELL
FLD.            : FIELD
LOC.            : LOCATION
SRVC.           : SERVICE COMPANY
DATE.  2018-09-11 14:48:06   : Log Export Date {yyyy-MM-dd HH:mm:ss}
PROV.           : PROVINCE
UWI.   16/10-3   : UNIQUE WELL ID
API.            : API NUMBER
#==================================================================
~Curve
DEPT .m                   : DEPTH
Lithology_geolink ._      : Lithology_geolink
DCAL .in                  : DCAL
CALI .in                  : CALI
BS .in                    : BS
DRHO .g/cm3               : DRHO
THOR .ppm                 : THOR
NPHI .m3/m3               : NPHI
RHOB .g/cm3               : RHOB
PEF .b/e                  : PEF
GR .gAPI                  : GR
URAN .ppm                 : URAN
DTC .us/ft                : DTC
DTS .us/ft                : DTS
RDEP .ohm.m               : RDEP
SP .mV                    : SP
RSHA .ohm.m               : RSHA
RMED .ohm.m               : RMED
~Parameter
#==================================================================
~Ascii
# ...
 1567.2816162  -999.250000 0.7629994154 13.012999535 12.250000954 0.0055791768  -999.250000  -999.250000 2.1223690510 2.2203369141 109.63680267  -999.250000 136.09440613  -999.250000 0.9638996124 87.215553284 0.7882214189 0.7865784764
 1567.4339600  -999.250000 0.7927169800 13.042719841 12.250000954 0.0313197002  -999.250000  -999.250000 2.1402139664 2.7147428989 100.16549683  -999.250000 135.22270203  -999.250000 0.9567949772 87.345916748 0.7835763097 0.7850345969
 1567.5864258  -999.250000 0.7105693221 12.960570335 12.250000954 0.0177744105  -999.250000  -999.250000 2.1362051964 4.4609007835 104.77179718  -999.250000 134.34159851  -999.250000 0.9444298744 87.294471741 0.7700660229 0.7739515901
 1567.7387695  -999.250000 0.8900861740 13.140091896 12.250000954 0.0880583003  -999.250000  -999.250000 2.1733839512 3.2524220943 105.92780304  -999.250000 134.29699707  -999.250000 0.9446828961 87.496643066 0.7613849044 0.7637243271
 1567.8912354  -999.250000 0.7637538910 13.013750076 12.250000954 0.0061405739  -999.250000  -999.250000 2.1222600937 3.0263559818 106.51290131  -999.250000 133.75239563  -999.250000 0.9458349943 87.370941162 0.7600625753 0.7603202462
 1568.0435791  -999.250000 0.7570408583 13.007040977 12.250000954 0.0227223393  -999.250000  -999.250000 2.1295926571 2.4225780964 101.99880219  -999.250000 132.89340210  -999.250000 0.9698567986 87.673660278 0.7707626224 0.7676102519
 1568.1960449  -999.250000 0.7550820708 13.005080223 12.250000954 0.0199646894  -999.250000  -999.250000 2.1434240341 2.6982960701 109.48590088  -999.250000 132.94349670  -999.250000 0.9709464908 87.615783691 0.7795019150 0.7771137953
 1568.3483887  -999.250000 0.7511634231 13.001159668 12.250000954 0.0125507703  -999.250000  -999.250000 2.1372859478 3.1323220730 106.79820251  -999.250000 133.93049622  -999.250000 0.9540941715 87.260681152 0.7701635957 0.7730371952
 1568.5008545  -999.250000 0.7481241822 12.998119354 12.250000954 0.0307828002  -999.250000  -999.250000 2.1417939663 3.6217839718 108.22709656  -999.250000 135.05700684  -999.250000 0.9337571263 87.447662354 0.7528200746 0.7577685118
 1568.6531982  -999.250000 0.9292793274 13.179280281 12.250000954 0.0641279593  -999.250000  -999.250000 2.1621420383 2.9053430557 106.44200134  -999.250000 135.60060120  -999.250000 0.9303321838 87.461532593 0.7532240748 0.7529153824
 1568.8056641  -999.250000 0.7423743606 12.992369652 12.250000954 0.0294550601  -999.250000  -999.250000 2.1447839737 2.9016499519 104.54709625  -999.250000 135.42630005  -999.250000 0.9382184148 87.240440369 0.7544819117 0.7541163564
 1568.9580078  -999.250000 0.7455090284 12.995510101 12.250000954 0.0107521396  -999.250000  -999.250000 2.1315319538 2.3603019714 111.24009705  -999.250000 135.00860596  -999.250000 0.9454510808 87.325248718 0.7552667260 0.7550438046
 1569.1104736  -999.250000 0.7479172349 12.997919083 12.250000954 0.0152955800  -999.250000  -999.250000 2.1281239986 2.2091379166 109.90299988  -999.250000 134.83000183  -999.250000 0.9553499222 87.272323608 0.7762290239 0.7701302767
 1569.2628174  -999.250000 0.7460823059 12.996080399 12.250000954 0.0115884496  -999.250000  -999.250000 2.1251230240 2.3742089272 118.54940033  -999.250000 134.79089355  -999.250000 0.9589362741 87.237693787 0.7806010246 0.7795470953
 1569.4151611  -999.250000 0.7469586730 12.996959686 12.250000954 -0.002101358  -999.250000  -999.250000 2.1077449322 2.6309039593 112.21209717  -999.250000 134.61540222  -999.250000 0.9610946178 87.133323669 0.7789149880 0.7794089913
 1569.5676270  -999.250000 0.7479590774 12.997960091 12.250000954 0.0186464693  -999.250000  -999.250000 2.1213839054 2.5774929523 106.22570038  -999.250000 134.60209656  -999.250000 0.9642245770 87.264961243 0.7772479057 0.7777124047
 1569.7199707  -999.250000 0.7249947190 12.974991798 12.250000954 0.0228117295  -999.250000  -999.250000 2.1200830936 2.5920300484 100.56259918  -999.250000 135.16380310  -999.250000 0.9719713926 87.263282776 0.7826591730 0.7810730338
 1569.8724365  -999.250000 0.7211226821 12.971118927 12.250000954 0.0225109998  -999.250000  -999.250000 2.1180820465 2.9115579128 104.47589874  -999.250000 135.89430237  -999.250000 0.9771879911 86.937072754 0.7910736203 0.7886778116
 1570.0247803  -999.250000 0.7382669449 12.988268852 12.250000954 0.0128352400  -999.250000  -999.250000 2.1093668938 2.4767858982 102.60959625  -999.250000 136.08560181  -999.250000 0.9681103826 87.265129089 0.7884721756 0.7892935872
 1570.1772461  -999.250000 0.7476301193 12.997630119 12.250000954 0.0170872808  -999.250000  -999.250000 2.1147530079 2.6695818901 105.86060333  -999.250000 135.39190674  -999.250000 0.9557923079 87.337913513 0.7861300111 0.7867366076
 1570.3295898  -999.250000 0.7480000854 12.998000145 12.250000954 0.0039698058  -999.250000  -999.250000 2.1121220589 2.4453461170 113.83390045  -999.250000 134.04069519  -999.250000 0.9509978294 87.573852539 0.7804160714 0.7820589542
 1570.4820557  -999.250000 0.7441654801 12.994169235 12.250000954 0.0031048991  -999.250000  -999.250000 2.1119999886 2.6339600086 109.54290009  -999.250000 132.51370239  -999.250000 0.9346129894 87.554008484 0.7733817101 0.7753738165
 1570.6343994  -999.250000 0.7449589372 12.994959831 12.250000954 0.0261915792  -999.250000  -999.250000 2.1436510086 2.5225028992 107.28730011  -999.250000 131.12680054  -999.250000 0.9282912016 87.282852173 0.7642446160 0.7668486834
 1570.7868652  -999.250000 0.7287015915 12.978700638 12.250000954 0.0153549500  -999.250000  -999.250000 2.1545870304 2.6836938858 111.32949829  -999.250000 129.88380432  -999.250000 0.9298390150 87.245750427 0.7575613260 0.7594100833
 1570.9392090  -999.250000 0.7519770265 13.001978874 12.250000954 0.0094224336  -999.250000  -999.250000 2.1454091072 3.9150600433 111.01779938  -999.250000 128.73359680  -999.250000 0.9066987038 87.192939758 0.7436304092 0.7476476431
 1571.0916748  -999.250000 0.7501239181 13.000120163 12.250000954 0.0167931691  -999.250000  -999.250000 2.1449999809 2.9393200874 115.80149841  -999.250000 128.10429382  -999.250000 0.8882312775 87.363571167 0.7382705212 0.7396985292
 1571.2440186  -999.250000 0.7442464828 12.994250298 12.250000954 0.0430564806  -999.250000  -999.250000 2.1613030434 3.0275070667 114.77739716  -999.250000 128.85189819  -999.250000 0.8665668964 87.453193665 0.7222042084 0.7268162370
 1571.3963623  -999.250000 0.7123660445 12.962369919 12.250000954 0.0370913893  -999.250000  -999.250000 2.1715860367 3.3884339333 104.50679779  -999.250000 130.52239990  -999.250000 0.8401157260 87.594772339 0.7004234195 0.7065513134
 1571.5488281  -999.250000 0.7320966721 12.982099533 12.250000954 0.0127088996  -999.250000  -999.250000 2.1480259895 5.4897599220 122.19020081  -999.250000 132.82040405  -999.250000 0.8227785826 87.552307129 0.6907156706 0.6932463646
 1571.7011719  -999.250000 0.8144769669 13.064478874 12.250000954 0.0656369627  -999.250000  -999.250000 2.1632959843 4.9017720222 115.92019653  -999.250000 135.47810364  -999.250000 0.7805634737 87.578941345 0.6689267755 0.6751474142
 1571.8536377  -999.250000 0.8199176788 13.069919586 12.250000954 -0.051548321  -999.250000  -999.250000 2.0690701008 3.4698760509 120.07250214  -999.250000 136.32479858  -999.250000 0.7591884136 87.534866333 0.6390466094 0.6474717259
 1572.0059814  -999.250000 1.1372590065 13.387260437 12.250000954 0.0739837363  -999.250000  -999.250000 2.1110069752 3.0024280548 113.82610321  -999.250000 135.65980530  -999.250000 0.7759451270 87.315071106 0.6481524110 0.6451384425
 1572.1584473  -999.250000 0.7051467896 12.955149651 12.250000954 0.0072291121  -999.250000  -999.250000 2.1245059967 2.6771569252 111.54509735  -999.250000 134.93310547  -999.250000 0.7987365127 87.307731628 0.6697630286 0.6636223197
 1572.3107910  -999.250000 0.6735306382 12.923529625 12.250000954 -0.000151219  -999.250000  -999.250000 2.1345920563 3.8630909920 115.30989838  -999.250000 134.05529785  -999.250000 0.8395069838 87.418586731 0.6958631873 0.6885705590
 1572.4632568  -999.250000 0.6605357528 12.910539627 12.250000954 0.0017785390  -999.250000  -999.250000 2.1330819130 4.5459737778 112.27079773  -999.250000 134.16380310  -999.250000 0.8628013134 87.227470398 0.7204967141 0.7136537433
