# LAS format log file from PETREL
# Project units are specified as depth units
#==================================================================
~Version information
VERS.   2.0:
WRAP.   NO:
#==================================================================
~Well
STRT .m      415.13760376 :
STOP .m      2850.0324707 :
STEP .m     0.00000000 :
NULL .        -999.250000 :
COMP.           : COMPANY
WELL.  16/10-3 Tyr Central   : WELL
FLD.            : FIELD
LOC.            : LOCATION
SRVC.           : SERVICE COMPANY
DATE.  2018-09-11 14:48:06   : Log Export Date {yyyy-MM-dd HH:mm:ss}
PROV.           : PROVINCE
UWI.   16/10-3   : UNIQUE WELL ID
API.            : API NUMBER
#==================================================================
~Curve
DEPT .m                   : DEPTH
Lithology_geolink ._      : Lithology_geolink
DCAL .in                  : DCAL
CALI .in                  : CALI
BS .in                    : BS
DRHO .g/cm3               : DRHO
THOR .ppm                 : THOR
NPHI .m3/m3               : NPHI
RHOB .g/cm3               : RHOB
PEF .b/e                  : PEF
GR .gAPI                  : GR
URAN .ppm                 : URAN
DTC .us/ft                : DTC
DTS .us/ft                : DTS
RDEP .ohm.m               : RDEP
SP .mV                    : SP
RSHA .ohm.m               : RSHA
RMED .ohm.m               : RMED
~Parameter
#==================================================================
~Ascii
# ...
 1076.5535889  -999.250000 1.4999998808 19.000000000 17.500000000  -999.250000  -999.250000  -999.250000  -999.250000  -999.250000 148.05451965  -999.250000 143.59710693  -999.250000 1.3401249647 510.61410522 1.0826239586 1.0804136992
 1076.7060547  -999.250000 1.4999998808 19.000000000 17.500000000  -999.250000  -999.250000  -999.250000  -999.250000  -999.250000 146.46789551  -999.250000 143.82620239  -999.250000 1.3562819958 510.09298706 1.0954509974 1.0920437574
 1076.8583984  -999.250000 1.4999998808 19.000000000 17.500000000  -999.250000  -999.250000  -999.250000  -999.250000  -999.250000 145.16413879  -999.250000 144.15370178  -999.250000 1.3253589869 510.15161133 1.0768259764 1.0824691057
 1077.0107422  -999.250000 1.4999998808 19.000000000 17.500000000  -999.250000  -999.250000  -999.250000  -999.250000  -999.250000 143.94937134  -999.250000 144.57960510  -999.250000 1.2280490398 511.07919312 1.0865349770 1.0832704306
 1077.1632080  -999.250000 1.4999998808 19.000000000 17.500000000  -999.250000  -999.250000  -999.250000  -999.250000  -999.250000 142.60646057  -999.250000 144.95429993  -999.250000 1.2871769667 510.77108765 1.0448000431 1.0569951534
 1077.3155518  -999.250000 1.4999998808 19.000000000 17.500000000  -999.250000  -999.250000  -999.250000  -999.250000  -999.250000 141.72830200  -999.250000 144.80369568  -999.250000 1.2947889566 512.36608887 1.0659780502 1.0593756437
 1077.4680176  -999.250000 1.4999998808 19.000000000 17.500000000  -999.250000  -999.250000  -999.250000  -999.250000  -999.250000 141.90480042  -999.250000 143.76609802  -999.250000 1.3199030161 510.79379272 1.1234710217 1.1072049141
 1077.6203613  -999.250000 1.4999998808 19.000000000 17.500000000  -999.250000  -999.250000  -999.250000  -999.250000  -999.250000 142.64221191  -999.250000 142.07589722  -999.250000 1.3612020016 510.94537354 1.1298309565 1.1286140680
 1077.7728271  -999.250000 1.4999998808 19.000000000 17.500000000  -999.250000  -999.250000  -999.250000  -999.250000  -999.250000 143.04789734  -999.250000 140.50340271  -999.250000 1.3936460018 513.11120605 1.1108299494 1.1164090633
 1077.9251709  -999.250000 1.4999998808 19.000000000 17.500000000  -999.250000  -999.250000  -999.250000  -999.250000  -999.250000 142.96406555  -999.250000 139.63890076  -999.250000 1.4179780483 511.61349487 1.1013790369 1.1041204929
 1078.0776367  -999.250000 1.4999998808 19.000000000 17.500000000  -999.250000  -999.250000  -999.250000  -999.250000  -999.250000 142.66960144  -999.250000 139.43840027  -999.250000 1.4333679676 510.50686646 1.1297270060 1.1214884520
 1078.2299805  -999.250000 1.4999998808 19.000000000 17.500000000  -999.250000  -999.250000  -999.250000  -999.250000  -999.250000 142.32617188  -999.250000 139.44869995  -999.250000 1.4282530546 511.30007935 1.1797970533 1.1655179262
 1078.3824463  -999.250000 1.4999998808 19.000000000 17.500000000  -999.250000  -999.250000  -999.250000  -999.250000  -999.250000 141.95669556  -999.250000 139.40370178  -999.250000 1.4049990177 511.05291748 1.1522849798 1.1608638763
 1078.5347900  -999.250000 1.4999998808 19.000000000 17.500000000  -999.250000  -999.250000  -999.250000  -999.250000  -999.250000 141.49510193  -999.250000 139.36430359  -999.250000 1.4107079506 514.06561279 1.1682460308 1.1632987261
 1078.6872559  -999.250000 1.4999998808 19.000000000 17.500000000  -999.250000  -999.250000  -999.250000  -999.250000  -999.250000 140.90159607  -999.250000 139.35589600  -999.250000 1.4081259966 512.61669922 1.1967680454 1.1890324354
 1078.8395996  -999.250000 1.4999998808 19.000000000 17.500000000  -999.250000  -999.250000  -999.250000  -999.250000  -999.250000 140.51579285  -999.250000 139.35809326  -999.250000 1.3907450438 513.19708252 1.1462010145 1.1613539457
 1078.9919434  -999.250000 1.4999998808 19.000000000 17.500000000  -999.250000  -999.250000  -999.250000  -999.250000  -999.250000 140.76440430  -999.250000 139.36770630  -999.250000 1.3880840540 511.43783569 1.1602799892 1.1556551456
 1079.1444092  -999.250000 1.4999998808 19.000000000 17.500000000  -999.250000  -999.250000  -999.250000  -999.250000  -999.250000 141.62719727  -999.250000 139.40870667  -999.250000 1.3793740273 514.57580566 1.1427869797 1.1482168436
 1079.2967529  -999.250000 1.4999998808 19.000000000 17.500000000  -999.250000  -999.250000  -999.250000  -999.250000  -999.250000 142.51820374  -999.250000 139.50830078  -999.250000 1.3799580336 512.36712646 1.1266700029 1.1314320564
 1079.4492188  -999.250000 1.4999998808 19.000000000 17.500000000  -999.250000  -999.250000  -999.250000  -999.250000  -999.250000 143.71180725  -999.250000 139.68020630  -999.250000 1.3761670589 515.36688232 1.1336640120 1.1314301491
 1079.6015625  -999.250000 1.4999998808 19.000000000 17.500000000  -999.250000  -999.250000  -999.250000  -999.250000  -999.250000 145.25610352  -999.250000 139.92680359  -999.250000 1.3894059658 513.67321777 1.1512349844 1.1461666822
 1079.7540283  -999.250000 1.4999998808 19.000000000 17.500000000  -999.250000  -999.250000  -999.250000  -999.250000  -999.250000 146.61940002  -999.250000 140.21229553  -999.250000 1.3947900534 512.22601318 1.2046459913 1.1892499924
 1079.9063721  -999.250000 1.4999998808 19.000000000 17.500000000  -999.250000  -999.250000  -999.250000  -999.250000  -999.250000 147.56599426  -999.250000 140.48249817  -999.250000 1.3930840492 514.31170654 1.1840039492 1.1902884245
 1080.0588379  -999.250000 1.4999998808 19.000000000 17.500000000  -999.250000  -999.250000  -999.250000  -999.250000  -999.250000 148.21980286  -999.250000 140.67610168  -999.250000 1.4217300415 513.43621826 1.1925790310 1.1893653870
 1080.2111816  -999.250000 1.4999998808 19.000000000 17.500000000  -999.250000  -999.250000  -999.250000  -999.250000  -999.250000 148.58230591  -999.250000 140.74240112  -999.250000 1.4450190067 512.24169922 1.2217149734 1.2135962248
 1080.3636475  -999.250000 1.4999998808 19.000000000 17.500000000  -999.250000  -999.250000  -999.250000  -999.250000  -999.250000 148.48460388  -999.250000 140.53219604  -999.250000 1.4661120176 514.82232666 1.2287470102 1.2273066044
 1080.5159912  -999.250000 1.4999998808 19.000000000 17.500000000  -999.250000  -999.250000  -999.250000  -999.250000  -999.250000 147.43060303  -999.250000 140.12989807  -999.250000 1.4008569717 512.99029541 1.2283920050 1.1774590015
 1080.6684570  -999.250000 1.4999998808 19.000000000 17.500000000  -999.250000  -999.250000  -999.250000  -999.250000  -999.250000 145.13609314  -999.250000 140.22889709  -999.250000 1.4037469625 515.18328857 1.2277580500 1.1389499903
 1080.8208008  -999.250000 1.4999998808 19.000000000 17.500000000  -999.250000  -999.250000  -999.250000  -999.250000  -999.250000 143.06210327  -999.250000 141.27999878  -999.250000 1.4107079506 512.45788574 1.2271239758 1.1103442907
 1080.9731445  -999.250000 1.4999998808 19.000000000 17.500000000  -999.250000  -999.250000  -999.250000  -999.250000  -999.250000 140.59370422  -999.250000 142.66050720  -999.250000 1.3592300415 512.24481201 1.2264900208 1.0809743404
 1081.1256104  -999.250000 1.4999998808 19.000000000 17.500000000  -999.250000  -999.250000  -999.250000  -999.250000  -999.250000 138.45689392  -999.250000 143.21249390  -999.250000 1.3215240240 512.76837158 1.2258549929 1.0887217522
 1081.2779541  -999.250000 1.4999998808 19.000000000 17.500000000  -999.250000  -999.250000  -999.250000  -999.250000  -999.250000 137.04220581  -999.250000 142.46609497  -999.250000 1.3716809750 511.36761475 1.2252210379 1.1197705269
 1081.4304199  -999.250000 1.4999998808 19.000000000 17.500000000  -999.250000  -999.250000  -999.250000  -999.250000  -999.250000 136.78500366  -999.250000 141.07220459  -999.250000 1.4008179903 512.64862061 1.2245860100 1.1302921772
 1081.5827637  -999.250000 1.4999998808 19.000000000 17.500000000  -999.250000  -999.250000  -999.250000  -999.250000  -999.250000 137.80419922  -999.250000 140.05670166  -999.250000 1.3943370581 512.19848633 1.2239520550 1.1294884682
 1081.7352295  -999.250000 1.4999998808 19.000000000 17.500000000  -999.250000  -999.250000  -999.250000  -999.250000  -999.250000 139.93159485  -999.250000 139.75630188  -999.250000 1.3853750229 511.80673218 1.2233179808 1.1380366087
