# LAS format log file from PETREL
# Project units are specified as depth units
#==================================================================
~Version information
VERS.   2.0:
WRAP.   NO:
#==================================================================
~Well
STRT .m      439.11318970 :
STOP .m      3157.0148926 :
STEP .m     0.00000000 :
NULL .        -999.250000 :
COMP.           : COMPANY
WELL.  16/10-1 Alpha   : WELL
FLD.            : FIELD
LOC.            : LOCATION
SRVC.           : SERVICE COMPANY
DATE.  2018-09-11 14:48:05   : Log Export Date {yyyy-MM-dd HH:mm:ss}
PROV.           : PROVINCE
UWI.   16/10-1   : UNIQUE WELL ID
API.            : API NUMBER
#==================================================================
~Curve
DEPT .m                   : DEPTH
Lithology_geolink ._      : Lithology_geolink
DCAL .in                  : DCAL
CALI .in                  : CALI
BS .in                    : BS
DRHO .g/cm3               : DRHO
NPHI .m3/m3               : NPHI
RHOB .g/cm3               : RHOB
PEF .b/e                  : PEF
GR .gAPI                  : GR
DTC .us/ft                : DTC
RDEP .ohm.m               : RDEP
SP .mV                    : SP
RSHA .ohm.m               : RSHA
RXO .ohm.m                : RXO
RMED .ohm.m               : RMED
~Parameter
#==================================================================
~Ascii
# ...
 2971.0869141 4.0000000000 0.0937004089 8.5937004089 8.5000000000 0.0015000000 0.1748999953 2.5355000496 2.9408988953 68.693901062 77.386596680 1.2978999615 115.18879700  -999.250000  -999.250000 1.6023999453
 2971.2392578 4.0000000000 0.0859003067 8.5859003067 8.5000000000 -0.003500000 0.1792999953 2.5297999382 2.9088129997 66.146400452 78.639396667 1.3259999752 115.07360077  -999.250000  -999.250000 1.6210000515
 2971.3916016 4.0000000000 0.0781001970 8.5781002045 8.5000000000 -0.000400000 0.1853999943 2.5355999470 2.9801499844 65.207199097 77.585296631 1.3503999710 115.52549744  -999.250000  -999.250000 1.6383999586
 2971.5439453 4.0000000000 0.0703001022 8.5703001022 8.5000000000 0.0052999998 0.1887000054 2.5483000278 3.0574290752 63.698799133 77.882598877 1.3709000349 116.19609833  -999.250000  -999.250000 1.6679999828
 2971.6962891 4.0000000000 0.0703001022 8.5703001022 8.5000000000 0.0103000002 0.1826999933 2.5543000698 3.1143140793 63.222900391 78.323501587 1.3875999451 116.63670349  -999.250000  -999.250000 1.6983000040
 2971.8488770 4.0000000000 -0.007800102 8.4921998978 8.5000000000 0.0100999996 0.1887000054 2.5541000366 3.0734109879 63.020198822 78.161804199 1.4034999609 116.69129944  -999.250000  -999.250000 1.7280999422
 2972.0012207 4.0000000000 -0.023400312 8.4765996933 8.5000000000 0.0082000000 0.1873999983 2.5473001003 3.0999460220 64.253501892 78.462997437 1.4211000204 116.27030182  -999.250000  -999.250000 1.7402000427
 2972.1535645 4.0000000000 -0.023400312 8.4765996933 8.5000000000 0.0049999999 0.1930000037 2.5443000793 3.1555271149 63.186199188 79.547698975 1.4407000542 116.09999847  -999.250000  -999.250000 1.7304999828
 2972.3059082 4.0000000000 -0.023400312 8.4765996933 8.5000000000 0.0030000000 0.1867000014 2.5357999802 3.1515300274 63.883701324 78.737594604 1.4528000355 116.33679962  -999.250000  -999.250000 1.7304999828
 2972.4584961 4.0000000000 -0.023400312 8.4765996933 8.5000000000 0.0019000000 0.1852999926 2.5332000256 3.0561339855 62.947200775 78.844390869 1.4608000517 117.00779724  -999.250000  -999.250000 1.7425999641
 2972.6108398 4.0000000000 -0.023400312 8.4765996933 8.5000000000 0.0052999998 0.1827999949 2.5322999954 3.0203480721 67.459602356 78.739990234 1.4672000408 117.34999847  -999.250000  -999.250000 1.7596999407
 2972.7631836 4.0000000000 -0.023400312 8.4765996933 8.5000000000 0.0035999999 0.1871999949 2.5423998833 3.0588760376 67.677200317 78.461601257 1.4774999619 117.50859833  -999.250000  -999.250000 1.7773000002
 2972.9155273 4.0000000000 -0.023400312 8.4765996933 8.5000000000 0.0034000000 0.1935999990 2.5473001003 3.0555510521 69.313400269 77.820999146 1.4881000519 117.77069855  -999.250000  -999.250000 1.8069000244
 2973.0681152 4.0000000000 -0.023400312 8.4765996933 8.5000000000 0.0033000000 0.1913000047 2.5560998917 3.0692610741 70.269096375 78.000099182 1.4961999655 117.75859833  -999.250000  -999.250000 1.8510999680
 2973.2204590 4.0000000000 0.0390996896 8.5390996933 8.5000000000 0.0082999999 0.1864999980 2.5589001179 3.0827639103 69.839302063 78.171302795 1.5052000284 117.94129944  -999.250000  -999.250000 1.8882000446
 2973.3728027 4.0000000000 0.0000000000 8.5000000000 8.5000000000 0.0133999996 0.1808999926 2.5655999184 3.1329030991 70.577697754 77.225898743 1.5202000141 117.59999847  -999.250000  -999.250000 1.8871999979
 2973.5251465 4.0000000000 0.0312004108 8.5312004089 8.5000000000 0.0133999996 0.1797000021 2.5566000938 3.0863599777 69.481597900 78.101501465 1.5483000278 117.75890350  -999.250000  -999.250000 1.8755999804
 2973.6774902 4.0000000000 0.0156001989 8.5156002045 8.5000000000 0.0063999998 0.1782999933 2.5452001095 3.0188050270 72.391998291 78.494102478 1.5870000124 118.41570282  -999.250000  -999.250000 1.8797999620
 2973.8300781 4.0000000000 0.0312004108 8.5312004089 8.5000000000 0.0001000000 0.1787000000 2.5455000401 3.1456429958 73.593902588 78.601898193 1.6289999485 119.25779724  -999.250000  -999.250000 1.9191000462
 2973.9824219 4.0000000000 0.1171998978 8.6171998978 8.5000000000 -0.000500000 0.1800999939 2.5977001190 3.4528059959 71.924201965 76.609596252 1.6826000214 119.44129944  -999.250000  -999.250000 1.9767999649
 2974.1347656 16.000000000 0.1874999851 8.6875000000 8.5000000000 -0.002900000 0.1606000066 2.6617999077 3.6735649109 67.332000732 71.355499268 1.7367000580 119.02069855  -999.250000  -999.250000 2.0852999687
 2974.2871094 16.000000000 0.3828001022 8.8828001022 8.5000000000 -0.003400000 0.1400000006 2.7137999535 3.3593940735 57.802101135 65.246803284 1.7604999542 118.84999847  -999.250000  -999.250000 2.3598001003
 2974.4396973 16.000000000 0.5937004089 9.0937004089 8.5000000000 -0.003100000 0.1437000036 2.6789000034 3.0561521053 56.195800781 62.791198730 1.7754000425 118.84999847  -999.250000  -999.250000 2.8062000275
 2974.5920410 16.000000000 0.6406002641 9.1406002045 8.5000000000 0.0030000000 0.1706999987 2.6256000996 2.9180250168 60.501998901 64.042602539 1.7905999422 118.69129944  -999.250000  -999.250000 3.0546998978
 2974.7443848 4.0000000000 0.6093997955 9.1093997955 8.5000000000 0.0027999999 0.1932000071 2.5834999084 2.9855079651 70.418998718 68.413696289 1.7984000444 118.50890350  -999.250000  -999.250000 2.7344999313
 2974.8967285 4.0000000000 0.5468997955 9.0468997955 8.5000000000 0.0004000000 0.1930000037 2.5634999275 2.9600141048 74.876998901 74.981300354 1.7991000414 118.77110291  -999.250000  -999.250000 2.3141999245
 2975.0493164 4.0000000000 0.4687004089 8.9687004089 8.5000000000 0.0024999999 0.1924999952 2.5567998886 2.9502449036 75.650100708 78.141799927 1.7877999544 118.67890167  -999.250000  -999.250000 2.0659999847
 2975.2016602 4.0000000000 0.4062004089 8.9062004089 8.5000000000 0.0059000002 0.1885000020 2.5532999039 2.9769690037 73.836402893 78.404602051 1.7501000166 118.84999847  -999.250000  -999.250000 1.9648000002
 2975.3540039 4.0000000000 0.3046998978 8.8046998978 8.5000000000 0.0088000000 0.1937000006 2.5564999580 3.0334100723 73.719200134 78.679405212 1.7129000425 119.02850342  -999.250000  -999.250000 1.9205000401
 2975.5063477 4.0000000000 0.2578001022 8.7578001022 8.5000000000 0.0071999999 0.1928000003 2.5590999126 3.0466120243 70.547698975 78.291099548 1.6979999542 119.55130005  -999.250000  -999.250000 1.9191999435
 2975.6589355 4.0000000000 0.1874999851 8.6875000000 8.5000000000 0.0083999997 0.1903000027 2.5660998821 2.9907228947 69.924499512 78.249992371 1.7024999857 119.77069855  -999.250000  -999.250000 1.9459999800
 2975.8112793 4.0000000000 0.2578001022 8.7578001022 8.5000000000 0.0055999998 0.1871999949 2.5701999664 3.0377860069 68.549896240 78.269912720 1.7122999430 119.83799744  -999.250000  -999.250000 1.9946000576
 2975.9636230 4.0000000000 0.2500000000 8.7500000000 8.5000000000 0.0044999998 0.1861000061 2.5724000931 3.1097769737 70.468002319 78.481094360 1.7267999649 120.19049835  -999.250000  -999.250000 2.0711998940
 2976.1159668 4.0000000000 0.2500000000 8.7500000000 8.5000000000 0.0051000002 0.1908999979 2.5755000114 3.2606759071 68.279899597 78.508789063 1.7432999611 119.67120361  -999.250000  -999.250000 2.1589000225
 2976.2683105 4.0000000000 0.0937004089 8.5937004089 8.5000000000 0.0026000000 0.1902000010 2.5699000359 3.3874349594 66.943801880 78.673004150 1.7489000559 119.05069733  -999.250000  -999.250000 2.2276000977
 2976.4208984 4.0000000000 0.0703001022 8.5703001022 8.5000000000 -0.004200000 0.1916999966 2.5583999157 3.3663771152 67.746803284 79.423896790 1.7383999825 118.63610077  -999.250000  -999.250000 2.2239999771
 2976.5732422 4.0000000000 0.0703001022 8.5703001022 8.5000000000 -0.008000000 0.1899999976 2.5436999798 3.2696340084 72.337898254 79.011482239 1.7128000259 118.92890167  -999.250000  -999.250000 2.1405999660
 2976.7255859 4.0000000000 0.0703001022 8.5703001022 8.5000000000 -0.006200000 0.1888999939 2.5432000160 3.2643849850 71.518501282 78.750000000 1.6843999624 119.02069855  -999.250000  -999.250000 2.0162000656
 2976.8779297 4.0000000000 0.0703001022 8.5703001022 8.5000000000 0.0013000000 0.1864999980 2.5506000519 3.2865080833 69.222198486 78.515701294 1.6512999535 118.69129944  -999.250000  -999.250000 1.9072999954
