# LAS format log file from PETREL
# Project units are specified as depth units
#==================================================================
~Version information
VERS.   2.0:
WRAP.   NO:
#==================================================================
~Well
STRT .m      415.13760376 :
STOP .m      2850.0324707 :
STEP .m     0.00000000 :
NULL .        -999.250000 :
COMP.           : COMPANY
WELL.  16/10-3 Tyr Central   : WELL
FLD.            : FIELD
LOC.            : LOCATION
SRVC.           : SERVICE COMPANY
DATE.  2018-09-11 14:48:06   : Log Export Date {yyyy-MM-dd HH:mm:ss}
PROV.           : PROVINCE
UWI.   16/10-3   : UNIQUE WELL ID
API.            : API NUMBER
#==================================================================
~Curve
DEPT .m                   : DEPTH
Lithology_geolink ._      : Lithology_geolink
DCAL .in                  : DCAL
CALI .in                  : CALI
BS .in                    : BS
DRHO .g/cm3               : DRHO
THOR .ppm                 : THOR
NPHI .m3/m3               : NPHI
RHOB .g/cm3               : RHOB
PEF .b/e                  : PEF
GR .gAPI                  : GR
URAN .ppm                 : URAN
DTC .us/ft                : DTC
DTS .us/ft                : DTS
RDEP .ohm.m               : RDEP
SP .mV                    : SP
RSHA .ohm.m               : RSHA
RMED .ohm.m               : RMED
~Parameter
#==================================================================
~Ascii
# ...
 1247.2416992  -999.250000 0.5524979234 12.802498817 12.250000954 0.0467877202  -999.250000  -999.250000 2.1213738918 3.5261929035 129.78590393  -999.250000 137.47009277  -999.250000 1.6573330164 60.727989197 1.0977499485 1.0961055756
 1247.3940430  -999.250000 0.5663719177 12.816370010 12.250000954 0.0634416416  -999.250000  -999.250000 2.1324970722 3.3698320389 131.77340698  -999.250000 138.75779724  -999.250000 1.6512930393 62.076469421 1.1152399778 1.1101714373
 1247.5463867  -999.250000 0.5535821915 12.803580284 12.250000954 0.0478826612  -999.250000  -999.250000 2.1243739128 3.0239479542 124.61609650  -999.250000 138.94610596  -999.250000 1.6874029636 60.444301605 1.1782230139 1.1602346897
 1247.6988525  -999.250000 0.5395870209 12.789590836 12.250000954 0.0217057597  -999.250000  -999.250000 2.0952589512 3.3084356785 115.96720123  -999.250000 138.75059509  -999.250000 1.7043249607 57.836780548 1.1752510071 1.1769535542
 1247.8511963  -999.250000 0.5735005736 12.823499680 12.250000954 0.0532870293  -999.250000  -999.250000 2.1026248932 2.9959430695 129.46499634  -999.250000 138.67900085  -999.250000 1.7203309536 59.642021179 1.1845819950 1.1815230846
 1248.0036621  -999.250000 0.5769156814 12.826920509 12.250000954 0.0422409512  -999.250000  -999.250000 2.0924630165 3.5519912243 126.34470367  -999.250000 138.68919373  -999.250000 1.7219580412 62.661727905 1.1840419769 1.1841242313
 1248.1560059  -999.250000 0.5683755875 12.818380356 12.250000954 0.0604788102  -999.250000  -999.250000 2.1082909107 3.4335060120 123.87909698  -999.250000 138.74980164  -999.250000 1.7152910233 64.078590393 1.1763329506 1.1784640551
 1248.3084717  -999.250000 0.5804529190 12.830450058 12.250000954 0.0492561087  -999.250000  -999.250000 2.1003789902 3.3550808430 131.25450134  -999.250000 138.69129944  -999.250000 1.7398970127 63.921512604 1.1625859737 1.1667234898
 1248.4608154  -999.250000 0.5771666169 12.827170372 12.250000954 0.0419845693  -999.250000  -999.250000 2.0952088833 3.3025479317 125.42109680  -999.250000 138.57060242  -999.250000 1.7285410166 64.309776306 1.1629580259 1.1628077030
 1248.6131592  -999.250000 0.5559111238 12.805910110 12.250000954 0.0378575586  -999.250000  -999.250000 2.0911660194 3.4105501175 126.06908417  -999.250000 138.73480225  -999.250000 1.7529159784 66.365592957 1.1965299845 1.1869179010
 1248.7656250  -999.250000 0.5674561858 12.817460060 12.250000954 0.0529105924  -999.250000  -999.250000 2.0967490673 3.0035450459 123.91572571  -999.250000 139.12680054  -999.250000 1.7702859640 67.897033691 1.2056649923 1.2037783861
 1248.9179688  -999.250000 0.5545806885 12.804579735 12.250000954 0.0500893742  -999.250000  -999.250000 2.1027510166 4.2947359085 124.88732147  -999.250000 139.52890015  -999.250000 1.7825009823 64.758987427 1.2040829659 1.2044287920
 1249.0703125  -999.250000 0.5520840287 12.802079201 12.250000954 0.0248115379  -999.250000  -999.250000 2.0895860195 5.7541670799 125.83977509  -999.250000 139.94000244  -999.250000 1.7868319750 65.837966919 1.1972919703 1.1988115311
 1249.2227783  -999.250000 0.6976891160 12.947690964 12.250000954 0.0501137376  -999.250000  -999.250000 2.1110448837 5.3885779381 127.63449860  -999.250000 140.11630249  -999.250000 1.7908339500 66.259162903 1.1989170313 1.1985032558
 1249.3751221  -999.250000 0.7806463242 13.030650139 12.250000954 0.0459643379  -999.250000  -999.250000 2.1100840569 12.539070129 131.87130737  -999.250000 139.53860474  -999.250000 1.8034529686 66.097396851 1.1673649549 1.1768410206
 1249.5275879  -999.250000 0.7332038879 12.983200073 12.250000954 0.0239390880  -999.250000  -999.250000 2.0381190777 6.9978570938 121.93309784  -999.250000 138.37030029  -999.250000 1.7646859884 67.325347900 1.1612080336 1.1623934507
 1249.6799316  -999.250000 0.7156713605 12.965669632 12.250000954 0.1189744473  -999.250000  -999.250000 2.0694890022 4.6210927963 124.04620361  -999.250000 137.25320435  -999.250000 1.7323319912 66.095832825 1.1686630249 1.1664435863
 1249.8323975  -999.250000 0.5952063203 12.845210075 12.250000954 0.0537127666  -999.250000  -999.250000 2.0863339901 5.5742387772 127.79290009  -999.250000 137.05839539  -999.250000 1.7568670511 62.831253052 1.1565389633 1.1605671644
 1249.9847412  -999.250000 0.6714258194 12.921429634 12.250000954 0.0151841044  -999.250000  -999.250000 2.0812520981 10.180049896 134.16700745  -999.250000 137.76969910  -999.250000 1.7637469769 62.374309540 1.1569579840 1.1567038298
 1250.1372070  -999.250000 0.7583714128 13.008370399 12.250000954 0.0067680259  -999.250000  -999.250000 2.0570430756 4.1405501366 125.56300354  -999.250000 138.99319458  -999.250000 1.7419530153 60.815479279 1.1828609705 1.1755609512
 1250.2895508  -999.250000 1.0014719963 13.251469612 12.250000954 0.1065510735  -999.250000  -999.250000 2.0933580399 4.0331940651 127.83869934  -999.250000 140.25889587  -999.250000 1.7208789587 63.568748474 1.1772940159 1.1793038845
 1250.4420166  -999.250000 0.5348042846 12.784799576 12.250000954 0.0355810188  -999.250000  -999.250000 2.0835013390 3.2522339821 132.38259888  -999.250000 140.48010254  -999.250000 1.6864479780 64.040069580 1.1463190317 1.1549443007
 1250.5943604  -999.250000 0.5331572890 12.783160210 12.250000954 0.0680408999  -999.250000  -999.250000 2.1088609695 3.3331100941 123.04509735  -999.250000 140.04570007  -999.250000 1.6811679602 65.686546326 1.1248780489 1.1307384968
 1250.7468262  -999.250000 0.5378332138 12.787830353 12.250000954 0.0656256080  -999.250000  -999.250000 2.1349120140 4.9305458069 128.12130737  -999.250000 139.21919250  -999.250000 1.7059040070 62.161769867 1.1249580383 1.1248803139
 1250.8991699  -999.250000 0.5427932739 12.792791367 12.250000954 0.0110936295  -999.250000  -999.250000 2.0842390060 3.8782238960 124.01609802  -999.250000 137.88090515  -999.250000 1.6724779606 59.518859863 1.1393740177 1.1350563765
 1251.0515137  -999.250000 0.5190467834 12.769048691 12.250000954 0.0501601845  -999.250000  -999.250000 2.0944559574 3.4452400208 119.82579803  -999.250000 136.81129456  -999.250000 1.6892000437 60.621311188 1.1534099579 1.1495525837
 1251.2039795  -999.250000 0.5304604173 12.780460358 12.250000954 0.0395190753  -999.250000  -999.250000 2.1122519970 3.3641500473 126.51789856  -999.250000 135.95750427  -999.250000 1.6804139614 61.034328461 1.1587920189 1.1571228504
 1251.3563232  -999.250000 0.5511198044 12.801119804 12.250000954 0.0754198879  -999.250000  -999.250000 2.1369519234 3.6575050354 124.46119690  -999.250000 135.22549438  -999.250000 1.7259600163 59.797191620 1.0649379492 1.0921140909
 1251.5087891  -999.250000 0.5654172897 12.815418243 12.250000954 0.0550649688  -999.250000  -999.250000 2.1456670761 7.5172519684 132.38319397  -999.250000 135.13710022  -999.250000 1.6656539440 61.624530792 1.1021770239 1.0903688669
 1251.6611328  -999.250000 0.5956984162 12.845699310 12.250000954 0.0474224761  -999.250000  -999.250000 2.1268401146 12.018010139 117.93740082  -999.250000 135.58309937  -999.250000 1.6601259708 59.123619080 1.0809969902 1.0878564119
 1251.8135986  -999.250000 0.9956703186 13.245670319 12.250000954 0.1012989879  -999.250000  -999.250000 2.1336669922 12.631990433 124.97339630  -999.250000 136.07820129  -999.250000 1.6293209791 59.627460480 1.1058620214 1.0984531641
 1251.9659424  -999.250000 1.0340750217 13.284070015 12.250000954 0.0779796615  -999.250000  -999.250000 2.0765230656 6.4426550865 117.91999817  -999.250000 136.39720154  -999.250000 1.6002089977 60.430168152 1.1280659437 1.1221166849
 1252.1184082  -999.250000 1.5208469629 13.770850182 12.250000954 0.0951014757  -999.250000  -999.250000 2.0596261024 4.7308177948 128.55999756  -999.250000 135.97000122  -999.250000 1.5961250067 63.445419312 1.0963979959 1.1058168411
 1252.2707520  -999.250000 0.9184188247 13.168419838 12.250000954 0.0450817831  -999.250000  -999.250000 2.0877358913 5.1147551537 128.87229919  -999.250000 135.19369507  -999.250000 1.5940840244 63.720920563 1.0767940283 1.0818897486
 1252.4232178  -999.250000 0.5862874985 12.836291313 12.250000954 0.0707874522  -999.250000  -999.250000 2.1378688812 8.5628328323 120.84059906  -999.250000 135.99220276  -999.250000 1.6399660110 62.077510834 1.0003859997 1.0223721266
