# LAS format log file from PETREL
# Project units are specified as depth units
#==================================================================
~Version information
VERS.   2.0:
WRAP.   NO:
#==================================================================
~Well
STRT .m      415.13760376 :
STOP .m      2850.0324707 :
STEP .m     0.00000000 :
NULL .        -999.250000 :
COMP.           : COMPANY
WELL.  16/10-3 Tyr Central   : WELL
FLD.            : FIELD
LOC.            : LOCATION
SRVC.           : SERVICE COMPANY
DATE.  2018-09-11 14:48:06   : Log Export Date {yyyy-MM-dd HH:mm:ss}
PROV.           : PROVINCE
UWI.   16/10-3   : UNIQUE WELL ID
API.            : API NUMBER
#==================================================================
~Curve
DEPT .m                   : DEPTH
Lithology_geolink ._      : Lithology_geolink
DCAL .in                  : DCAL
CALI .in                  : CALI
BS .in                    : BS
DRHO .g/cm3               : DRHO
THOR .ppm                 : THOR
NPHI .m3/m3               : NPHI
RHOB .g/cm3               : RHOB
PEF .b/e                  : PEF
GR .gAPI                  : GR
URAN .ppm                 : URAN
DTC .us/ft                : DTC
DTS .us/ft                : DTS
RDEP .ohm.m               : RDEP
SP .mV                    : SP
RSHA .ohm.m               : RSHA
RMED .ohm.m               : RMED
~Parameter
#==================================================================
~Ascii
# ...
 900.53161621  -999.250000 5.0355610847 22.535560608 17.500000000  -999.250000  -999.250000  -999.250000  -999.250000  -999.250000 127.43409729  -999.250000 140.44360352  -999.250000 1.2832939625 507.51501465 0.7722743750 0.7709941864
 900.68402100  -999.250000 5.0483665466 22.548372269 17.500000000  -999.250000  -999.250000  -999.250000  -999.250000  -999.250000 131.25109863  -999.250000 141.10110474  -999.250000 1.2542510033 506.77966309 0.7665603161 0.7682864070
 900.83642578  -999.250000 4.8267941475 22.326789856 17.500000000  -999.250000  -999.250000  -999.250000  -999.250000  -999.250000 123.86450195  -999.250000 141.57170105  -999.250000 1.1214690208 507.85452271 0.7182329893 0.7322512865
 900.98883057  -999.250000 4.8419017792 22.341899872 17.500000000  -999.250000  -999.250000  -999.250000  -999.250000  -999.250000 128.35879517  -999.250000 141.53669739  -999.250000 1.0258059502 509.31649780 0.6552984118 0.6730444431
 901.14123535  -999.250000 4.8822669983 22.382270813 17.500000000  -999.250000  -999.250000  -999.250000  -999.250000  -999.250000 132.31390381  -999.250000 141.08630371  -999.250000 1.0085879564 510.03683472 0.6657063961 0.6619464755
 901.29364014  -999.250000 5.0325012207 22.532499313 17.500000000  -999.250000  -999.250000  -999.250000  -999.250000  -999.250000 133.50939941  -999.250000 140.55599976  -999.250000 1.0252389908 509.67095947 0.6512559056 0.6556237340
 901.44604492  -999.250000 5.0600781441 22.560079575 17.500000000  -999.250000  -999.250000  -999.250000  -999.250000  -999.250000 135.43600464  -999.250000 140.22560120  -999.250000 1.0537669659 509.83703613 0.6452245712 0.6467918754
 901.59838867  -999.250000 5.0590839386 22.559078217 17.500000000  -999.250000  -999.250000  -999.250000  -999.250000  -999.250000 135.31599426  -999.250000 140.17689514  -999.250000 1.0636210442 508.47189331 0.6684278250 0.6616505980
 901.75079346  -999.250000 4.9536213875 22.453620911 17.500000000  -999.250000  -999.250000  -999.250000  -999.250000  -999.250000 137.35350037  -999.250000 140.48559570  -999.250000 1.1061160564 506.79672241 0.6733360887 0.6722184420
 901.90319824  -999.250000 4.7334589958 22.233459473 17.500000000  -999.250000  -999.250000  -999.250000  -999.250000  -999.250000 139.19689941  -999.250000 141.27070618  -999.250000 1.1022520065 507.16824341 0.6709911227 0.6717329621
 902.05560303  -999.250000 4.3839340210 21.883930206 17.500000000  -999.250000  -999.250000  -999.250000  -999.250000  -999.250000 137.56889343  -999.250000 142.67289734  -999.250000 1.1268939972 508.66091919 0.6650480032 0.6667543054
 902.20800781  -999.250000 5.1793818474 22.679380417 17.500000000  -999.250000  -999.250000  -999.250000  -999.250000  -999.250000 125.97740173  -999.250000 144.59719849  -999.250000 1.0973290205 507.69400024 0.6337668896 0.6427804232
 902.36041260  -999.250000 5.0741939545 22.574188232 17.500000000  -999.250000  -999.250000  -999.250000  -999.250000  -999.250000 125.07379913  -999.250000 146.42950439  -999.250000 1.0816279650 509.75323486 0.6335989237 0.6332834959
 902.51281738  -999.250000 5.0747046471 22.574710846 17.500000000  -999.250000  -999.250000  -999.250000  -999.250000  -999.250000 130.41459656  -999.250000 147.64050293  -999.250000 1.0857889652 509.89508057 0.6373304725 0.6362825632
 902.66522217  -999.250000 5.1372570992 22.637256622 17.500000000  -999.250000  -999.250000  -999.250000  -999.250000  -999.250000 134.54949951  -999.250000 147.87240601  -999.250000 1.0639610291 509.99630737 0.6079698205 0.6165678501
 902.81762695  -999.250000 5.1313800812 22.631378174 17.500000000  -999.250000  -999.250000  -999.250000  -999.250000  -999.250000 129.73829651  -999.250000 146.96449280  -999.250000 1.0735330582 510.03997803 0.6353712082 0.6270884275
 902.97003174  -999.250000 5.1223793030 22.622381210 17.500000000  -999.250000  -999.250000  -999.250000  -999.250000  -999.250000 118.85939789  -999.250000 145.09809875  -999.250000 1.0845329762 509.69839478 0.6202160120 0.6250106096
 903.12243652  -999.250000 5.1162528992 22.616247177 17.500000000  -999.250000  -999.250000  -999.250000  -999.250000  -999.250000 122.85489655  -999.250000 143.09880066  -999.250000 1.1060609818 510.19473267 0.6348093152 0.6303738356
 903.27484131  -999.250000 5.1045069695 22.604509354 17.500000000  -999.250000  -999.250000  -999.250000  -999.250000  -999.250000 130.22680664  -999.250000 141.84800720  -999.250000 1.1443220377 509.67544556 0.6401026249 0.6387634277
 903.42724609  -999.250000 5.1087889671 22.608789444 17.500000000  -999.250000  -999.250000  -999.250000  -999.250000  -999.250000 133.88969421  -999.250000 141.73469543  -999.250000 1.1488740444 506.27261353 0.6695095897 0.6610404849
 903.57965088  -999.250000 5.1396579742 22.639659882 17.500000000  -999.250000  -999.250000  -999.250000  -999.250000  -999.250000 129.70039368  -999.250000 142.63670349  -999.250000 1.1863360405 506.04254150 0.6932883263 0.6867803931
 903.73199463  -999.250000 5.0796895027 22.579692841 17.500000000  -999.250000  -999.250000  -999.250000  -999.250000  -999.250000 128.58929443  -999.250000 144.39349365  -999.250000 1.1975779533 506.73138428 0.6893882155 0.6908339262
 903.88439941  -999.250000 5.1028652191 22.602869034 17.500000000  -999.250000  -999.250000  -999.250000  -999.250000  -999.250000 129.61689758  -999.250000 146.33450317  -999.250000 1.1932100058 507.92318726 0.6795493960 0.6823358536
 904.03680420  -999.250000 5.0972933769 22.597291946 17.500000000  -999.250000  -999.250000  -999.250000  -999.250000  -999.250000 130.58419800  -999.250000 147.68899536  -999.250000 1.1901259422 508.35751343 0.6539139152 0.6612260938
 904.18920898  -999.250000 5.0845470428 22.584552765 17.500000000  -999.250000  -999.250000  -999.250000  -999.250000  -999.250000 131.01530457  -999.250000 148.25199890  -999.250000 1.1084539890 506.10131836 0.6298195720 0.6364892125
 904.34161377  -999.250000 4.7430019379 22.243000031 17.500000000  -999.250000  -999.250000  -999.250000  -999.250000  -999.250000 133.50520325  -999.250000 148.07000732  -999.250000 1.0311340094 505.61868286 0.5995771289 0.6080716848
 904.49401855  -999.250000 4.7308750153 22.230880737 17.500000000  -999.250000  -999.250000  -999.250000  -999.250000  -999.250000 138.37550354  -999.250000 147.49580383  -999.250000 1.0394910574 507.48437500 0.6164991260 0.6112126708
 904.64642334  -999.250000 4.6907711029 22.190767288 17.500000000  -999.250000  -999.250000  -999.250000  -999.250000  -999.250000 136.04939270  -999.250000 146.81170654  -999.250000 1.0495760441 508.22241211 0.6293435097 0.6258631349
 904.79882813  -999.250000 4.9044971466 22.404499054 17.500000000  -999.250000  -999.250000  -999.250000  -999.250000  -999.250000 136.53300476  -999.250000 146.02819824  -999.250000 1.1389100552 507.34973145 0.6784710288 0.6644244790
 904.95123291  -999.250000 5.0701103210 22.570110321 17.500000000  -999.250000  -999.250000  -999.250000  -999.250000  -999.250000 133.35360718  -999.250000 144.98100281  -999.250000 1.2386009693 508.70788574 0.7345839739 0.7190303206
 905.10363770  -999.250000 5.1143488884 22.614349365 17.500000000  -999.250000  -999.250000  -999.250000  -999.250000  -999.250000 135.40199280  -999.250000 144.00259399  -999.250000 1.3004039526 508.21136475 0.7386639714 0.7381873727
 905.25604248  -999.250000 3.3874049187 20.887411118 17.500000000  -999.250000  -999.250000  -999.250000  -999.250000  -999.250000 132.35830688  -999.250000 143.53450012  -999.250000 1.3623169661 509.68850708 0.7445585728 0.7428456545
 905.40844727  -999.250000 3.6760060787 21.176010132 17.500000000  -999.250000  -999.250000  -999.250000  -999.250000  -999.250000 130.91780090  -999.250000 143.79350281  -999.250000 1.3208990097 507.75833130 0.7223641872 0.7288906574
 905.56085205  -999.250000 3.8941400051 21.394138336 17.500000000  -999.250000  -999.250000  -999.250000  -999.250000  -999.250000 133.04660034  -999.250000 144.29519653  -999.250000 1.2240040302 507.53640747 0.7201313972 0.7205159664
 905.71319580  -999.250000 3.2985148430 20.798519135 17.500000000  -999.250000  -999.250000  -999.250000  -999.250000  -999.250000 134.46359253  -999.250000 145.18539429  -999.250000 1.1442149878 507.56799316 0.6817842722 0.6929833293
