# LAS format log file from PETREL
# Project units are specified as depth units
#==================================================================
~Version information
VERS.   2.0:
WRAP.   NO:
#==================================================================
~Well
STRT .m      415.13760376 :
STOP .m      2850.0324707 :
STEP .m     0.00000000 :
NULL .        -999.250000 :
COMP.           : COMPANY
WELL.  16/10-3 Tyr Central   : WELL
FLD.            : FIELD
LOC.            : LOCATION
SRVC.           : SERVICE COMPANY
DATE.  2018-09-11 14:48:06   : Log Export Date {yyyy-MM-dd HH:mm:ss}
PROV.           : PROVINCE
UWI.   16/10-3   : UNIQUE WELL ID
API.            : API NUMBER
#==================================================================
~Curve
DEPT .m                   : DEPTH
Lithology_geolink ._      : Lithology_geolink
DCAL .in                  : DCAL
CALI .in                  : CALI
BS .in                    : BS
DRHO .g/cm3               : DRHO
THOR .ppm                 : THOR
NPHI .m3/m3               : NPHI
RHOB .g/cm3               : RHOB
PEF .b/e                  : PEF
GR .gAPI                  : GR
URAN .ppm                 : URAN
DTC .us/ft                : DTC
DTS .us/ft                : DTS
RDEP .ohm.m               : RDEP
SP .mV                    : SP
RSHA .ohm.m               : RSHA
RMED .ohm.m               : RMED
~Parameter
#==================================================================
~Ascii
# ...
 2047.3416748 9.0000000000 2.6268501282 14.876849174 12.250000954 -0.031483699  -999.250000  -999.250000 2.1842169762 5.0457539558 56.072521210  -999.250000 113.06325531  -999.250000 0.6844568253 91.514442444 0.5800498724 0.5730935931
 2047.4940186 9.0000000000 2.9822111130 15.232210159 12.250000954 0.0215295609  -999.250000  -999.250000 2.1551649570 6.9181399345 53.267490387  -999.250000 112.63260651  -999.250000 0.6645948291 91.475166321 0.5622184277 0.5677140951
 2047.6464844 9.0000000000 3.3529419899 15.602940559 12.250000954 0.0113933897  -999.250000  -999.250000 2.1175420284 4.4580388069 54.012519836  -999.250000 114.01876831  -999.250000 0.5706622005 91.621246338 0.5045145750 0.5211591721
 2047.7988281 9.0000000000 3.9889576435 16.238960266 12.250000954 0.0476096608  -999.250000  -999.250000 2.1371150017 3.8342449665 56.237968445  -999.250000 115.72065735  -999.250000 0.4963889122 91.504783630 0.4807671010 0.4870474339
 2047.9512939 9.0000000000 4.2385268211 16.488529205 12.250000954 0.0311217792  -999.250000  -999.250000 2.1389589310 3.9680430889 54.180240631  -999.250000 116.90700531  -999.250000 0.5799493194 91.516120911 0.4927495122 0.4890158474
 2048.1037598 9.0000000000 2.7300293446 14.980031013 12.250000954 0.0023956089  -999.250000  -999.250000 2.1322879791 3.8822929859 52.221729279  -999.250000 117.41536713  -999.250000 0.5935298800 91.354843140 0.4999482930 0.4979919791
 2048.2561035 9.0000000000 2.3398120403 14.589810371 12.250000954 0.0091269063  -999.250000  -999.250000 2.1521439552 4.3170070648 50.946258545  -999.250000 117.39363098  -999.250000 0.6073470712 91.540733337 0.5126739144 0.5090333223
 2048.4084473 9.0000000000 2.2271590233 14.477161407 12.250000954 0.0080545433  -999.250000  -999.250000 2.2028999329 4.3273911476 52.007980347  -999.250000 116.97239685  -999.250000 0.6660931110 91.473731995 0.5480743051 0.5379333496
 2048.5607910 9.0000000000 2.2230000496 14.472999573 12.250000954 0.0013493220  -999.250000  -999.250000 2.2472400665 4.5299921036 49.163040161  -999.250000 115.75099945  -999.250000 0.7645493746 91.485580444 0.6033853889 0.5877192616
 2048.7133789 9.0000000000 2.2277939320 14.477789879 12.250000954 0.0139770797  -999.250000  -999.250000 2.2835180759 4.2140808105 47.064849854  -999.250000 113.37783051  -999.250000 0.8581464887 91.625541687 0.6574730873 0.6424880028
 2048.8657227 9.0000000000 2.3689920902 14.618990898 12.250000954 0.0167133808  -999.250000  -999.250000 2.2830820084 4.5703377724 48.151779175  -999.250000 110.02858734  -999.250000 0.8032389879 91.449478149 0.6331759095 0.6409782171
 2049.0180664 9.0000000000 2.4383270741 14.688330650 12.250000954 -0.002316763  -999.250000  -999.250000 2.2513370514 4.8123869896 52.054698944  -999.250000 107.70903778  -999.250000 0.6501119733 91.786613464 0.5284553766 0.5589872003
 2049.1704102 9.0000000000 2.5273888111 14.777390480 12.250000954 -0.008307963  -999.250000  -999.250000 2.2116050720 4.6967029572 52.432430267  -999.250000 108.42359924  -999.250000 0.6279376745 91.503356934 0.5052782297 0.5109102130
 2049.3229980 9.0000000000 2.7121946812 14.962199211 12.250000954 0.0203601494  -999.250000  -999.250000 2.2052059174 6.7092151642 52.169120789  -999.250000 110.66857910  -999.250000 0.6142042279 91.324729919 0.4985243976 0.5002772212
 2049.4753418 9.0000000000 2.9549560547 15.204960823 12.250000954 0.0268466007  -999.250000  -999.250000 2.1973280907 4.6114192009 50.084838867  -999.250000 112.28020477  -999.250000 0.6036862135 91.615013123 0.4834496081 0.4877600074
 2049.6276855 9.0000000000 2.5045001507 14.754501343 12.250000954 0.0378325097  -999.250000  -999.250000 2.2075529099 4.1352539063 54.272239685  -999.250000 112.22201538  -999.250000 0.5972943902 91.547172546 0.4852365851 0.4844987094
 2049.7800293 9.0000000000 2.4130189419 14.663021088 12.250000954 0.0001751730  -999.250000  -999.250000 2.1964828968 3.5998620987 52.340911865  -999.250000 110.60970306  -999.250000 0.6277098060 91.639930725 0.5076693296 0.5011320710
 2049.9323730 9.0000000000 2.4224820137 14.672478676 12.250000954 0.0104113696  -999.250000  -999.250000 2.1960000992 3.5475230217 48.840419769  -999.250000 109.44480133  -999.250000 0.6575198770 91.625801086 0.5285525918 0.5227333307
 2050.0849609 9.0000000000 2.4738237858 14.723819733 12.250000954 0.0214430001  -999.250000  -999.250000 2.2257270813 3.7517299652 54.374038696  -999.250000 109.65778351  -999.250000 0.6496145129 91.745063782 0.5216041207 0.5238919854
 2050.2373047 9.0000000000 2.6505830288 14.900580406 12.250000954 0.0210455991  -999.250000  -999.250000 2.2346739769 4.0839209557 52.269889832  -999.250000 110.33120728  -999.250000 0.6442102790 91.650413513 0.5192402005 0.5198730826
 2050.3896484 9.0000000000 2.6791112423 14.929109573 12.250000954 0.0029407020  -999.250000  -999.250000 2.2033319473 4.5425558090 47.920589447  -999.250000 110.58460999  -999.250000 0.6340587735 91.828338623 0.5122054219 0.5142397285
 2050.5419922 9.0000000000 2.7721593380 15.022160530 12.250000954 0.0185685605  -999.250000  -999.250000 2.1952800751 3.3974819183 52.573440552  -999.250000 110.76349640  -999.250000 0.6182975173 91.857612610 0.5009883046 0.5041538477
 2050.6945801 9.0000000000 2.8105170727 15.060520172 12.250000954 0.0022059139  -999.250000  -999.250000 2.1652770042 4.3199200630 54.577930450  -999.250000 112.28395081  -999.250000 0.5585501790 91.594146729 0.4609637856 0.4724840224
 2050.8469238 9.0000000000 2.8225510120 15.072550774 12.250000954 0.0203220602  -999.250000  -999.250000 2.1467359066 5.1171770096 54.891178131  -999.250000 115.05635071  -999.250000 0.4811914861 91.698463440 0.4429838061 0.4477487206
 2050.9992676 9.0000000000 2.8652169704 15.115219116 12.250000954 0.0156991798  -999.250000  -999.250000 2.1287291050 7.6649990082 61.118198395  -999.250000 116.88691711  -999.250000 0.4325033128 91.687103271 0.4420956075 0.4421640933
 2051.1516113 9.0000000000 2.8218860626 15.071888924 12.250000954 0.0190650094  -999.250000  -999.250000 2.1011240482 9.7056283951 62.059268951  -999.250000 115.77720642  -999.250000 0.4178910851 91.780342102 0.4432790875 0.4429153800
 2051.3041992 9.0000000000 2.8190412521 15.069039345 12.250000954 0.0718047768  -999.250000  -999.250000 2.1115040779 4.5917048454 58.126121521  -999.250000 112.05427551  -999.250000 0.4242622852 91.565147400 0.4365996122 0.4385323822
 2051.4565430 9.0000000000 2.7115919590 14.961589813 12.250000954 0.0213842597  -999.250000  -999.250000 2.1100821495 4.3352541924 59.600200653  -999.250000 107.67124939  -999.250000 0.4246819019 91.418693542 0.4349051118 0.4352799952
 2051.6088867 9.0000000000 2.6110639572 14.861061096 12.250000954 -0.002719307  -999.250000  -999.250000 2.1013660431 5.0945940018 50.841300964  -999.250000 104.77124023  -999.250000 0.4243319929 91.631813049 0.4350455105 0.4350038469
 2051.7612305 9.0000000000 2.5945231915 14.844520569 12.250000954 -0.017779300  -999.250000  -999.250000 2.0875639915 5.2261199951 55.473159790  -999.250000 104.79599762  -999.250000 0.4293687046 91.717002869 0.4315321147 0.4325858951
 2051.9135742 9.0000000000 2.6544868946 14.904489517 12.250000954 0.0263232291  -999.250000  -999.250000 2.1119630337 4.5033750534 57.477241516  -999.250000 106.42009735  -999.250000 0.4438681901 91.502273560 0.4310815930 0.4311961532
 2052.0661621 9.0000000000 2.4613771439 14.711380959 12.250000954 0.0243686307  -999.250000  -999.250000 2.1331379414 3.8963689804 54.268630981  -999.250000 107.35143280  -999.250000 0.4875423014 91.516387939 0.4258846045 0.4274280071
 2052.2185059 9.0000000000 2.1086320877 14.358630180 12.250000954 0.0238157492  -999.250000  -999.250000 2.1675729752 3.6454050541 53.048980713  -999.250000 107.80881500  -999.250000 0.5332564116 91.390052795 0.4466381967 0.4405807853
 2052.3708496 9.0000000000 1.9759670496 14.225969315 12.250000954 -0.001596633  -999.250000  -999.250000 2.1526870728 4.2857031822 50.015190125  -999.250000 108.19159698  -999.250000 0.5573881865 91.298118591 0.4633193016 0.4587435722
 2052.5231934 9.0000000000 2.0564379692 14.306440353 12.250000954 0.0113647403  -999.250000  -999.250000 2.1519999504 4.7507171631 46.764629364  -999.250000 107.55889893  -999.250000 0.5822358727 91.359138489 0.4876979887 0.4807833433
