# LAS format log file from PETREL
# Project units are specified as depth units
#==================================================================
~Version information
VERS.   2.0:
WRAP.   NO:
#==================================================================
~Well
STRT .m      2766.8217773 :
STOP .m      3149.9555664 :
STEP .m     0.00000000 :
NULL .        -999.250000 :
COMP.           : COMPANY
WELL.  16/10-2 Delta   : WELL
FLD.            : FIELD
LOC.            : LOCATION
SRVC.           : SERVICE COMPANY
DATE.  2018-09-11 14:48:06   : Log Export Date {yyyy-MM-dd HH:mm:ss}
PROV.           : PROVINCE
UWI.   16/10-2   : UNIQUE WELL ID
API.            : API NUMBER
#==================================================================
~Curve
DEPT .m                   : DEPTH
Lithology_geolink ._      : Lithology_geolink
DCAL .in                  : DCAL
CALI .in                  : CALI
BS .in                    : BS
DRHO .g/cm3               : DRHO
THOR .ppm                 : THOR
NPHI .m3/m3               : NPHI
RHOB .g/cm3               : RHOB
PEF .b/e                  : PEF
GR .gAPI                  : GR
URAN .ppm                 : URAN
DTC .us/ft                : DTC
RDEP .ohm.m               : RDEP
SP .mV                    : SP
RMED .ohm.m               : RMED
~Parameter
#==================================================================
~Ascii
# ...
 3016.4533691 1.0000000000 -0.062503807 8.4374961853 8.5000000000 0.0159844402 3.5917398930 0.1406935006 2.4831950665 4.3127398491 30.671810150 0.8297762871 75.599807739 1.5556559563 86.675048828 1.4612369537
 3016.6057129 1.0000000000 -0.070325851 8.4296741486 8.5000000000 0.0160594508 2.7850151062 0.1359238029 2.4578390121 4.8013257980 30.546770096 0.5730339289 75.199569702 1.5390219688 86.799018860 2.0687839985
 3016.7580566 1.0000000000 -0.085947037 8.4140529633 8.5000000000 0.0171296708 2.7004189491 0.1334456950 2.4324090481 5.4340991974 30.425090790 0.4826230109 74.701347351 1.4930360317 85.672523499 2.5608069897
 3016.9104004 1.0000000000 -0.093725197 8.4062747955 8.5000000000 0.0140059199 2.8271920681 0.1378988028 2.4316949844 5.8429560661 33.029079437 0.5290926099 75.798393250 1.3923369646 83.671791077 2.7716250420
 3017.0629883 1.0000000000 -0.078140259 8.4218597412 8.5000000000 0.0196277201 3.2108891010 0.1418866962 2.4701390266 5.3467211723 31.671379089 0.6829953790 74.798423767 1.2496900558 81.670806885 2.8595399857
 3017.2153320 1.0000000000 -0.085930817 8.4140691757 8.5000000000 0.0355655402 3.8873908520 0.1679478139 2.5245850086 4.8715047836 31.422090530 0.9738653302 74.000686646 1.1016830206 79.551826477 2.9432868958
 3017.3676758 1.0000000000 -0.078128807 8.4218711853 8.5000000000 0.0315899402 5.3732948303 0.1985931993 2.5100989342 4.5977921486 33.811309814 0.8943725228 75.299346924 0.9541698098 78.175666809 2.5295031071
 3017.5200195 1.0000000000 -0.078125000 8.4218750000 8.5000000000 0.0148993703 5.0004019737 0.2160236984 2.4294550419 4.8046607971 40.655368805 0.4028910100 79.199508667 0.8339986801 76.425209045 1.7413120270
 3017.6723633 1.0000000000 -0.078123093 8.4218769073 8.5000000000 0.0134581998 4.4581670761 0.2192962021 2.3634970188 4.9219851494 38.905769348 0.3268007040 83.300865173 0.7494964004 73.674423218 1.2040480375
 3017.8249512 1.0000000000 -0.070307732 8.4296922684 8.5000000000 0.0117701702 4.6600589752 0.2090246975 2.3290710449 5.3789830208 36.904338837 0.5075880885 86.900009155 0.6884490848 71.298767090 0.9829087257
 3017.9772949 1.0000000000 -0.062500000 8.4375000000 8.5000000000 0.0099841096 4.8152499199 0.2129575908 2.3337540627 5.5038070679 33.787368774 0.8178223968 86.897346497 0.6449831128 69.298637390 0.9805443287
 3018.1296387 1.0000000000 -0.062500000 8.4375000000 8.5000000000 0.0091669997 4.6358342171 0.2081026137 2.3636410236 5.4016008377 40.035301208 0.7103273273 84.199752808 0.6088504195 67.927352905 1.0578060150
 3018.2819824 1.0000000000 -0.062500000 8.4375000000 8.5000000000 0.0084458506 4.5009779930 0.2019639909 2.3858270645 4.8512811661 43.030181885 0.6486960053 83.995704651 0.5824956894 69.678207397 1.1973880529
 3018.4345703 1.0000000000 -0.062500000 8.4375000000 8.5000000000 0.0065362351 4.7861948013 0.2018125951 2.3902590275 4.6882228851 42.401309967 -0.225669295 81.498748779 0.5688375235 71.552070618 1.2685830593
 3018.5869141 1.0000000000 -0.062500000 8.4375000000 8.5000000000 0.0066170678 4.8781452179 0.2097059041 2.3860619068 5.0348968506 40.033020020 -0.256250113 80.900459290 0.5639684796 72.549240112 1.2822159529
 3018.7392578 1.0000000000 -0.062500000 8.4375000000 8.5000000000 0.0076511749 3.6269769669 0.2282855958 2.3695249557 5.4256329536 37.157341003 -0.137670904 82.299468994 0.5644528866 72.425033569 1.2724649906
 3018.8916016 1.0000000000 -0.062500000 8.4375000000 8.5000000000 0.0073928861 3.6754910946 0.2267015129 2.3407061100 5.0390658379 36.156261444 -0.080731124 83.899986267 0.5703123808 71.425003052 1.1806650162
 3019.0441895 1.0000000000 -0.062500000 8.4375000000 8.5000000000 0.0061495658 4.0920081139 0.2117917985 2.3117539883 4.4491329193 33.031021118 0.4483987987 85.600410461 0.5791047812 70.424087524 1.0185240507
 3019.1965332 1.0000000000 -0.062500000 8.4375000000 8.5000000000 0.0055874661 4.5680689812 0.1965637058 2.3267660141 4.2111592293 32.408798218 0.6874281168 86.798316956 0.5883846283 67.924171448 0.9322124720
 3019.3488770 1.0000000000 -0.062500000 8.4375000000 8.5000000000 0.0087109460 4.6211600304 0.1944492906 2.3698067665 4.5166110992 35.908958435 0.6969460845 84.497596741 0.5961971879 66.801910400 1.0471190214
 3019.5012207 1.0000000000 -0.062500000 8.4375000000 8.5000000000 0.0141591895 4.5671768188 0.2097007930 2.4027080536 5.4148988724 38.378391266 0.6883816719 82.298805237 0.6015716791 68.554389954 1.2697559595
 3019.6535645 1.0000000000 -0.062500000 8.4375000000 8.5000000000 0.0144717898 4.5179991722 0.2188158035 2.4046289921 5.9840950966 40.680809021 0.7472602129 81.499794006 0.6079313755 71.553878784 1.4229090214
 3019.8061523 1.0000000000 -0.062500000 8.4375000000 8.5000000000 0.0141606703 3.9038391113 0.2151519954 2.3898200989 5.8299698830 37.034889221 0.7839764953 81.400093079 0.6196171045 73.672866821 1.4540699720
 3019.9584961 1.0000000000 -0.062500000 8.4375000000 8.5000000000 0.0151224304 3.7684059143 0.2045965046 2.3805890083 4.8951210976 34.189289093 0.8243063092 83.698570251 0.6308522224 73.924827576 1.4706929922
 3020.1108398 1.0000000000 -0.062500000 8.4375000000 8.5000000000 0.0212418307 3.9262032509 0.2012237012 2.3718099594 4.3751358986 31.032079697 0.9146296978 84.899681091 0.6342763901 72.425376892 1.4716789722
 3020.2631836 1.0000000000 -0.062500000 8.4375000000 8.5000000000 0.0129265198 3.9082269669 0.2226078063 2.3504090309 4.5156898499 31.156280518 0.9421663284 86.699943542 0.6298819780 69.924789429 1.4033039808
 3020.4157715 1.0000000000 -0.062500000 8.4375000000 8.5000000000 0.0112572201 3.2223889828 0.2316077054 2.3360359669 5.1174001694 31.405839920 0.9002547860 86.200469971 0.6225553155 68.049873352 1.2489420176
 3020.5681152 1.0000000000 -0.062500000 8.4375000000 8.5000000000 0.0072433320 3.5563919544 0.2315066904 2.3219220638 5.5624241829 30.547010422 1.0411959887 87.199760437 0.6157175899 67.799987793 1.0790480375
 3020.7204590 1.0000000000 -0.062500000 8.4375000000 8.5000000000 0.0069572208 3.8772232533 0.2217307985 2.3251180649 5.4721908569 30.705839157 1.1829140186 86.899513245 0.6098548770 67.801048279 1.0157150030
 3020.8728027 1.0000000000 -0.062500000 8.4375000000 8.5000000000 0.0067542209 3.9769961834 0.2313784957 2.3484170437 5.0903139114 32.947799683 1.6119539738 86.498901367 0.6030101776 68.678947449 1.0899549723
 3021.0253906 1.0000000000 -0.062500000 8.4375000000 8.5000000000 0.0086007426 4.8942890167 0.2431146950 2.3801889420 5.3875169754 39.439628601 1.7880680561 85.800987244 0.5922542810 71.183273315 1.1601430178
 3021.1777344 1.0000000000 -0.062500000 8.4375000000 8.5000000000 0.0114544500 4.2024221420 0.2513462007 2.3972759247 5.7965149879 40.530288696 1.3386050463 86.299560547 0.5766736865 75.421249390 1.1533260345
 3021.3300781 1.0000000000 -0.062500000 8.4375000000 8.5000000000 0.0143893203 3.9536106586 0.2607821226 2.3801989555 6.7260861397 41.280860901 1.2317759991 85.500411987 0.5605549812 78.298522949 1.0791399479
 3021.4824219 1.0000000000 -0.062500000 8.4375000000 8.5000000000 0.0130846603 3.6678190231 0.2667345107 2.3444571495 6.9179410934 38.656631470 1.1637619734 86.799842834 0.5449240804 79.174873352 1.0703140497
 3021.6350098 2.0000000000 -0.062500000 8.4375000000 8.5000000000 0.0098662898 3.6038489342 0.2800388932 2.3025081158 6.6599030495 38.156108856 1.1573489904 89.000251770 0.5322248936 76.674171448 1.0986130238
 3021.7873535 2.0000000000 -0.062500000 8.4375000000 8.5000000000 0.0085089747 3.6193931103 0.2740352154 2.2812819481 5.5347990990 37.529609680 1.1299400330 90.100791931 0.5249034762 73.048126221 1.0087029934
 3021.9396973 2.0000000000 -0.062500000 8.4375000000 8.5000000000 0.0046902359 3.8115849495 0.2584629953 2.2622609138 4.9333000183 34.782329559 1.2602070570 91.399627686 0.5268666148 69.922576904 0.8636932969
 3022.0920410 2.0000000000 -0.062500000 8.4375000000 8.5000000000 0.0009264429 3.7826509476 0.2245108932 2.2602970600 4.6289482117 35.906040192 1.2717579603 90.996154785 0.5385990739 67.422821045 0.7846972942
 3022.2443848 2.0000000000 -0.062500000 8.4375000000 8.5000000000 -0.001160015 4.3613901138 0.1989530921 2.2863709927 4.6598172188 35.752819061 1.3440999985 88.092666626 0.5576586723 65.801048279 0.8070129752
