# LAS format log file from PETREL
# Project units are specified as depth units
#==================================================================
~Version information
VERS.   2.0:
WRAP.   NO:
#==================================================================
~Well
STRT .m      439.11318970 :
STOP .m      3157.0148926 :
STEP .m     0.00000000 :
NULL .        -999.250000 :
COMP.           : COMPANY
WELL.  16/10-1 Alpha   : WELL
FLD.            : FIELD
LOC.            : LOCATION
SRVC.           : SERVICE COMPANY
DATE.  2018-09-11 14:48:05   : Log Export Date {yyyy-MM-dd HH:mm:ss}
PROV.           : PROVINCE
UWI.   16/10-1   : UNIQUE WELL ID
API.            : API NUMBER
#==================================================================
~Curve
DEPT .m                   : DEPTH
Lithology_geolink ._      : Lithology_geolink
DCAL .in                  : DCAL
CALI .in                  : CALI
BS .in                    : BS
DRHO .g/cm3               : DRHO
NPHI .m3/m3               : NPHI
RHOB .g/cm3               : RHOB
PEF .b/e                  : PEF
GR .gAPI                  : GR
DTC .us/ft                : DTC
RDEP .ohm.m               : RDEP
SP .mV                    : SP
RSHA .ohm.m               : RSHA
RXO .ohm.m                : RXO
RMED .ohm.m               : RMED
~Parameter
#==================================================================
~Ascii
# ...
 2257.8549805 4.0000000000 0.4062004089 12.906202316 12.500000000 -0.015300000 0.2815000117 2.4063000679 3.8370079994 48.196998596 109.83159637 0.8414000273 89.455131531  -999.250000  -999.250000 1.0398999453
 2258.0073242 4.0000000000 0.4062004089 12.906202316 12.500000000 -0.016799999 0.2822000086 2.4040999413 3.8237869740 48.560501099 110.16610718 0.8410000205 89.615303040  -999.250000  -999.250000 1.0325000286
 2258.1596680 4.0000000000 0.4062004089 12.906202316 12.500000000 -0.024599999 0.2655999959 2.4008998871 3.9952669144 48.857601166 110.91909790 0.8378999829 89.753326416  -999.250000  -999.250000 1.0277999640
 2258.3120117 4.0000000000 0.4062004089 12.906202316 12.500000000 -0.024800001 0.2725999951 2.4021999836 3.9892580509 51.720500946 110.89449310 0.8343999982 90.331733704  -999.250000  -999.250000 1.0177999735
 2258.4643555 4.0000000000 0.4062004089 12.906202316 12.500000000 -0.023100000 0.2883000076 2.4028999805 3.7575809956 56.486198425 111.00000000 0.8299999833 90.435142517  -999.250000  -999.250000 1.0106999874
 2258.6169434 5.0000000000 0.4062004089 12.906202316 12.500000000 -0.017300000 0.3003000021 2.4105999470 3.7014250755 57.014900208 111.10800171 0.8241000175 89.411857605  -999.250000  -999.250000 1.0147000551
 2258.7692871 5.0000000000 0.4062004089 12.906202316 12.500000000 -0.014000000 0.3000999987 2.4230999947 3.8034389019 57.169200897 111.03839111 0.8159000278 88.693489075  -999.250000  -999.250000 1.0198999643
 2258.9216309 5.0000000000 0.4062004089 12.906202316 12.500000000 -0.015100000 0.2949000001 2.4254999161 4.0152101517 54.966999054 111.46710205 0.8065999746 87.684303284  -999.250000  -999.250000 1.0163999796
 2259.0739746 5.0000000000 0.4062004089 12.906202316 12.500000000 -0.016200000 0.2802000046 2.4216001034 3.9584209919 54.715099335 111.39600372 0.7961000204 87.503486633  -999.250000  -999.250000 1.0096000433
 2259.2265625 5.0000000000 0.4062004089 12.906202316 12.500000000 -0.019300001 0.2644000053 2.4107000828 3.9068129063 55.134601593 111.77259827 0.7896000147 87.674850464  -999.250000  -999.250000 0.9986000061
 2259.3789063 5.0000000000 0.4062004089 12.906202316 12.500000000 -0.015699999 0.2709000111 2.4179000854 3.8098330498 53.952098846 112.86460114 0.7857000232 87.471702576  -999.250000  -999.250000 0.9746000171
 2259.5312500 5.0000000000 0.4062004089 12.906202316 12.500000000 -0.014200000 0.2700999975 2.4198999405 3.9648060799 53.557098389 113.37380219 0.7850999832 87.812629700  -999.250000  -999.250000 0.9477999806
 2259.6835938 5.0000000000 0.4062004089 12.906202316 12.500000000 -0.018999999 0.3050999939 2.4121000767 3.9885630608 51.556400299 113.49690247 0.7773000002 87.891830444  -999.250000  -999.250000 0.9352999926
 2259.8361816 4.0000000000 0.4062004089 12.906202316 12.500000000 -0.022500001 0.2937000096 2.4063000679 3.9516479969 56.252399445 113.40450287 0.7684999704 87.832000732  -999.250000  -999.250000 0.9444000125
 2259.9885254 4.0000000000 0.4062004089 12.906202316 12.500000000 -0.028700000 0.2903999984 2.4012000561 3.9532499313 52.404701233 114.35079193 0.7588000298 87.034263611  -999.250000  -999.250000 0.9560999870
 2260.1408691 4.0000000000 0.4062004089 12.906202316 12.500000000 -0.022399999 0.2630000114 2.4152998924 4.1923952103 54.759498596 114.73139954 0.7501999736 86.695381165  -999.250000  -999.250000 0.9566000104
 2260.2932129 5.0000000000 0.4062004089 12.906202316 12.500000000 -0.022299999 0.2734999955 2.4182999134 4.5673670769 53.948799133 114.72100067 0.7468000054 87.614181519  -999.250000  -999.250000 0.9390000105
 2260.4455566 5.0000000000 0.4062004089 12.906202316 12.500000000 -0.013500000 0.2658999860 2.4249000549 4.8360500336 57.972900391 114.29119873 0.7537999749 88.454483032  -999.250000  -999.250000 0.9217000008
 2260.5981445 5.0000000000 0.4062004089 12.906202316 12.500000000 -0.008900000 0.2599999905 2.4191999435 4.8743238449 57.375301361 114.27490234 0.7599999905 89.245544434  -999.250000  -999.250000 0.9157999754
 2260.7504883 5.0000000000 0.4062004089 12.906202316 12.500000000 -0.005900000 0.2614000142 2.4052000046 4.7596530914 55.351001740 113.19240570 0.7637000084 89.278526306  -999.250000  -999.250000 0.9217000008
 2260.9028320 5.0000000000 0.4062004089 12.906202316 12.500000000 -0.004500000 0.3059999943 2.4005000591 4.4203348160 53.989799500 112.77009583 0.7678999901 89.076316833  -999.250000  -999.250000 0.9459000230
 2261.0551758 5.0000000000 0.4062004089 12.906202316 12.500000000 -0.009300000 0.3319000006 2.3982999325 4.0079631805 55.889099121 112.65550232 0.7753999829 89.295272827  -999.250000  -999.250000 0.9545000196
 2261.2077637 5.0000000000 0.4140996635 12.914099693 12.500000000 -0.019200001 0.3497000039 2.3949000835 3.8020799160 55.582401276 112.79309845 0.7786999941 89.114768982  -999.250000  -999.250000 0.9832999706
 2261.3601074 5.0000000000 0.5703001022 13.070300102 12.500000000 -0.026300000 0.3145999908 2.3952000141 3.8225600719 56.870998383 112.18540192 0.7907000184 88.943893433  -999.250000  -999.250000 0.9983000159
 2261.5124512 5.0000000000 0.4062004089 12.906202316 12.500000000 -0.030900000 0.2906999886 2.4024999142 3.9472119808 55.614200592 112.14450073 0.8051999807 88.714485168  -999.250000  -999.250000 1.0027999878
 2261.6647949 5.0000000000 0.4062004089 12.906202316 12.500000000 -0.026100000 0.2673000097 2.4110999107 3.9165179729 53.374198914 112.32920074 0.8197000027 88.587341309  -999.250000  -999.250000 0.9947999716
 2261.8173828 4.0000000000 0.4062004089 12.906202316 12.500000000 -0.022600001 0.2700000107 2.4077999592 3.7532680035 55.749099731 111.98339844 0.8270999789 87.666343689  -999.250000  -999.250000 0.9883000255
 2261.9697266 4.0000000000 0.4375000000 12.937499046 12.500000000 -0.021400001 0.2921999991 2.3991000652 3.6799130440 58.632099152 111.38249969 0.8264999986 87.484962463  -999.250000  -999.250000 0.9889000058
 2262.1220703 5.0000000000 0.4062004089 12.906202316 12.500000000 -0.019800000 0.2834999859 2.4005999565 3.6301829815 62.633098602 110.90660095 0.8149999976 88.416610718  -999.250000  -999.250000 0.9916999936
 2262.2744141 5.0000000000 0.4062004089 12.906202316 12.500000000 -0.021700000 0.2865999937 2.4063000679 3.6450378895 60.193099976 111.12309265 0.7943999767 89.064903259  -999.250000  -999.250000 0.9944999814
 2262.4267578 5.0000000000 0.4062004089 12.906202316 12.500000000 -0.018100001 0.3109999895 2.4138000011 4.0395817757 56.853199005 114.03459930 0.7742000222 89.804893494  -999.250000  -999.250000 0.9940999746
 2262.5793457 5.0000000000 0.4062004089 12.906202316 12.500000000 -0.014700000 0.3353999853 2.4137001038 5.1710171700 54.862899780 114.14399719 0.7778999805 91.385734558  -999.250000  -999.250000 0.9452000260
 2262.7316895 5.0000000000 0.4062004089 12.906202316 12.500000000 -0.018100001 0.3197999895 2.3887000084 6.5329089165 56.468799591 115.49999237 0.7886000276 92.606880188  -999.250000  -999.250000 0.8906000257
 2262.8840332 5.0000000000 0.4296999276 12.929699898 12.500000000 -0.001500000 0.2865000069 2.3670001030 7.1831259727 53.805301666 115.44849396 0.7943999767 91.517578125  -999.250000  -999.250000 0.8519999981
 2263.0363770 4.0000000000 0.2343997955 12.734399796 12.500000000 0.0156999994 0.3086000085 2.3352999687 6.8093819618 54.583801270 112.17330170 0.8001999855 90.288139343  -999.250000  -999.250000 0.9003000259
 2263.1889648 4.0000000000 0.4062004089 12.906202316 12.500000000 0.0531000011 0.3332000077 2.3473000526 6.1027269363 53.240299225 110.56649780 0.8022999763 89.198692322  -999.250000  -999.250000 0.9474999905
 2263.3413086 4.0000000000 0.4062004089 12.906202316 12.500000000 0.0527999997 0.3395000100 2.3529000282 5.3503232002 58.442699432 110.47419739 0.7949000001 88.687629700  -999.250000  -999.250000 0.9864000082
 2263.4936523 5.0000000000 0.4062004089 12.906202316 12.500000000 0.0197000001 0.3145000041 2.3492999077 4.6219201088 61.131401062 110.04479980 0.8043000102 88.767234802  -999.250000  -999.250000 0.9836000204
 2263.6459961 5.0000000000 0.4218998253 12.921899796 12.500000000 0.0015000000 0.3023000062 2.3687000275 4.1816530228 60.574901581 110.19949341 0.8234000206 89.017227173  -999.250000  -999.250000 0.9886000156
