# LAS format log file from PETREL
# Project units are specified as depth units
#==================================================================
~Version information
VERS.   2.0:
WRAP.   NO:
#==================================================================
~Well
STRT .m      415.13760376 :
STOP .m      2850.0324707 :
STEP .m     0.00000000 :
NULL .        -999.250000 :
COMP.           : COMPANY
WELL.  16/10-3 Tyr Central   : WELL
FLD.            : FIELD
LOC.            : LOCATION
SRVC.           : SERVICE COMPANY
DATE.  2018-09-11 14:48:06   : Log Export Date {yyyy-MM-dd HH:mm:ss}
PROV.           : PROVINCE
UWI.   16/10-3   : UNIQUE WELL ID
API.            : API NUMBER
#==================================================================
~Curve
DEPT .m                   : DEPTH
Lithology_geolink ._      : Lithology_geolink
DCAL .in                  : DCAL
CALI .in                  : CALI
BS .in                    : BS
DRHO .g/cm3               : DRHO
THOR .ppm                 : THOR
NPHI .m3/m3               : NPHI
RHOB .g/cm3               : RHOB
PEF .b/e                  : PEF
GR .gAPI                  : GR
URAN .ppm                 : URAN
DTC .us/ft                : DTC
DTS .us/ft                : DTS
RDEP .ohm.m               : RDEP
SP .mV                    : SP
RSHA .ohm.m               : RSHA
RMED .ohm.m               : RMED
~Parameter
#==================================================================
~Ascii
# ...
 2522.0676270 2.0000000000 -0.214961097 8.2850389481 8.5000000000 -0.000281067 6.2515730858 0.2421507984 2.3077769279 5.5028181076 79.247329712 2.8143830299 84.857452393  -999.250000 0.6756104827  -999.250000 0.5043370128 0.5024846196
 2522.2199707 2.0000000000 -0.178454384 8.3215456009 8.5000000000 0.0587820709 5.8293290138 0.2373311967 2.3906319141 4.7159481049 76.911422729 2.9044370651 82.460212708  -999.250000 0.7496997118  -999.250000 0.5342016220 0.5255281925
 2522.3723145 2.0000000000 -0.150104493 8.3498945236 8.5000000000 0.1042566001 5.1863098145 0.1937406957 2.5448079109 4.2979259491 67.846878052 3.0299360752 79.931167603  -999.250000 0.9531682134  -999.250000 0.6387252212 0.6087846160
 2522.5249023 2.0000000000 -0.147078499 8.3529205322 8.5000000000 0.0534774400 4.6224699020 0.1516709030 2.6153779030 5.0090360641 61.730220795 3.0577669144 79.060012817  -999.250000 1.5157040358  -999.250000 0.9125034213 0.8356035352
 2522.6772461 2.0000000000 -0.141232505 8.3587684631 8.5000000000 0.0091735199 4.2954931259 0.1423881948 2.5276436806 4.9329700470 61.831020355 2.9141910076 80.509330750  -999.250000 1.4053230286  -999.250000 0.9148051143 0.9179840088
 2522.8295898 2.0000000000 -0.145808205 8.3541917801 8.5000000000 0.0502654798 4.2965698242 0.1623314023 2.4297630787 6.8975520134 66.186897278 2.6255509853 83.556343079  -999.250000 1.0538829565  -999.250000 0.7110747099 0.7714359164
 2522.9819336 2.0000000000 -0.149841294 8.3501586914 8.5000000000 0.0284701008 4.5442261696 0.1830402017 2.3693339825 5.5649609566 70.846847534 2.2711920738 87.124458313  -999.250000 0.9317293763  -999.250000 0.6114643812 0.6387013197
 2523.1342773 2.0000000000 -0.160568193 8.3394317627 8.5000000000 0.0334586389 4.9179878235 0.1913826019 2.3718039989 4.4653468132 73.552421570 1.9240260124 90.085472107 153.83290100 0.9989631176  -999.250000 0.6209911704 0.6171410680
 2523.2868652 2.0000000000 -0.162921906 8.3370780945 8.5000000000 0.0316300318 5.3154449463 0.2183030993 2.3719999790 4.5129289627 75.887733459 1.6690189838 91.968589783 157.54969788 1.1753849983  -999.250000 0.7239794731 0.6942600012
 2523.4392090 2.0000000000 -0.165885001 8.3341150284 8.5000000000 0.0200878493 5.6138248444 0.2430997044 2.3556549549 6.7948479652 73.351058960 1.5367749929 92.962387085 161.95172119 1.2828290462  -999.250000 0.7917643785 0.7732781768
 2523.5915527 2.0000000000 -0.179444298 8.3205556870 8.5000000000 0.0526403487 5.7501511574 0.2169212997 2.3818891048 5.2034578323 74.530242920 1.5497360229 93.256523132 166.58050537 1.2206670046  -999.250000 0.7934054732 0.7937204838
 2523.7438965 2.0000000000 -0.166551605 8.3334484100 8.5000000000 0.0424003601 5.7983670235 0.2244551033 2.3618659973 4.6614179611 73.286300659 1.6746590137 93.374771118 170.75190735 1.1371959448  -999.250000 0.7289878726 0.7479422688
 2523.8964844 2.0000000000 -0.152546898 8.3474531174 8.5000000000 0.0247631297 5.8774461746 0.2519386113 2.3427410126 5.1881508827 74.783401489 1.7886780500 93.505355835 173.81440735 1.1205430031  -999.250000 0.7189244032 0.7211279869
 2524.0488281 2.0000000000 -0.138540298 8.3614597321 8.5000000000 0.0175903197 6.1180748940 0.2487812042 2.3314249516 5.9129619598 73.366722107 1.7676980495 93.411018372 174.85113525 1.1411420107  -999.250000 0.7140867114 0.7154064178
 2524.2011719 2.0000000000 -0.118765801 8.3812341690 8.5000000000 0.0128799304 6.5079832077 0.2148728073 2.3290770054 5.7529578209 77.394660950 1.6227120161 92.837387085 174.58541870 1.1631499529  -999.250000 0.7084742785 0.7100948691
 2524.3535156 2.0000000000 -0.123763107 8.3762369156 8.5000000000 0.0195276197 6.9209079742 0.2266799957 2.3309209347 5.7472882271 79.374839783 1.4347670078 91.823440552 174.01820374 1.1572749615  -999.250000 0.7014886141 0.7034756541
 2524.5061035 2.0000000000 -0.119195901 8.3808040619 8.5000000000 0.0226516202 7.2451338768 0.2478304058 2.3194699287 5.2321901321 76.857910156 1.2425329685 90.536254883 173.19918823 1.0530309677  -999.250000 0.6364223957 0.6553626657
 2524.6584473 2.0000000000 -0.121883392 8.3781166077 8.5000000000 0.0436155610 7.4272131920 0.2607237995 2.3103489876 4.9787459373 74.568786621 1.0577030182 89.310882568 171.79449463 0.8795465231  -999.250000 0.5635579228 0.5842599869
 2524.8107910 2.0000000000 -0.112384804 8.3876152039 8.5000000000 0.0299199894 7.4829540253 0.2408913970 2.3099999428 5.7203488350 68.246177673 0.9349930286 88.449821472 170.31201172 0.7646424174  -999.250000 0.5422503948 0.5477179289
 2524.9631348 2.0000000000 -0.103355400 8.3966445923 8.5000000000 0.0543536693 7.4441680908 0.2369682044 2.3445749283 5.5043869019 71.764831543 0.9008293748 87.831832886 169.28450012 0.7768027782  -999.250000 0.5318064094 0.5346372128
 2525.1154785 2.0000000000 -0.098196037 8.4018039703 8.5000000000 0.0519576296 7.3620800972 0.2133980989 2.3911540508 6.6813001633 74.613967896 0.9293302298 87.221260071 168.83819580 0.9261459112  -999.250000 0.6100941896 0.5871859193
 2525.2680664 2.0000000000 -0.073010437 8.4269895554 8.5000000000 0.0431012511 7.2735719681 0.1889121979 2.4545109272 5.5189719200 71.378547668 0.9984216690 86.659233093 168.48829651 1.1368609667  -999.250000 0.7443435788 0.7064560056
 2525.4204102 2.0000000000 -0.043155670 8.4568443298 8.5000000000 0.0300586000 7.1705951691 0.1792683005 2.4762289524 4.5993590355 74.740303040 1.1786520481 86.329437256 168.19400024 1.2381559610  -999.250000 0.8076468706 0.7908333540
 2525.5727539 2.0000000000 -0.043920528 8.4560785294 8.5000000000 0.0010868470 7.0782318115 0.1730429977 2.3944139481 5.1453428268 77.966499329 1.3828990459 86.280807495 168.26750183 1.2794289589  -999.250000 0.8501057029 0.8384025693
 2525.7250977 5.0000000000 -0.056488041 8.4435119629 8.5000000000 0.0323491916 7.0796737671 0.2214163989 2.3785119057 6.4101328850 81.799461365 1.4089870453 86.561088562 169.11799622 1.0988880396  -999.250000 0.7587432265 0.7861615419
 2525.8776855 5.0000000000 -0.055078514 8.4449205399 8.5000000000 0.0418775901 7.1367192268 0.2453490943 2.4020249844 5.2257142067 82.590332031 1.3044639826 87.266998291 170.12358093 1.0130809546  -999.250000 0.6998857260 0.7161000371
 2526.0300293 2.0000000000 -0.053077701 8.4469223022 8.5000000000 0.0354585089 7.1959428787 0.2238021940 2.3808889389 7.3453311920 80.632331848 1.1681549549 88.353958130 170.79420471 1.0263379812  -999.250000 0.6985365152 0.6983115673
 2526.1823730 2.0000000000 -0.033765789 8.4662342072 8.5000000000 0.0613846295 7.2922611237 0.2266507000 2.3963489532 5.4091939926 76.268379211 0.9820538759 89.489089966 171.58279419 0.9791153073  -999.250000 0.6825730801 0.6872525811
 2526.3347168 2.0000000000 -0.010908130 8.4890918732 8.5000000000 0.0295668393 7.4106669426 0.2448101938 2.3854730129 7.4344348907 72.725982666 0.7754834890 90.393791199 171.75039673 0.9848440886  -999.250000 0.6787335277 0.6796576977
 2526.4873047 2.0000000000 0.0053730006 8.5053730011 8.5000000000 0.0269972496 7.4269638062 0.2299841940 2.3686649799 6.1820521355 73.055221558 0.6594908834 90.795539856 170.82350159 0.8810539842  -999.250000 0.6182169914 0.6358956695
 2526.6396484 2.0000000000 -0.010340690 8.4896593094 8.5000000000 0.0229953397 7.2973327637 0.2198724002 2.3478140831 6.0774350166 75.539596558 0.6717200279 90.317848206 169.19369507 0.8059340119  -999.250000 0.5750914216 0.5870679617
 2526.7919922 2.0000000000 -0.118698098 8.3813018799 8.5000000000 0.0216588005 7.1035771370 0.2077970952 2.3383460045 5.3984041214 73.661079407 0.7592949271 88.971206665 166.45268250 0.7789344788  -999.250000 0.5512400866 0.5578038692
 2526.9443359 2.0000000000 -0.220002204 8.2799978256 8.5000000000 0.0286958702 6.8712711334 0.2069361955 2.3533670902 5.5236010551 74.772827148 0.8724122047 87.116088867 163.27319336 0.7448545098  -999.250000 0.5395712852 0.5427218080
 2527.0966797 2.0000000000 -0.259546310 8.2404537201 8.5000000000 0.0107751098 6.6005902290 0.1943345070 2.3770580292 5.4084630013 70.538261414 0.9992601275 85.443290710 159.94418335 0.7395123839  -999.250000 0.5220525265 0.5270730853
 2527.2492676 2.0000000000 -0.268689185 8.2313108444 8.5000000000 0.0187819805 6.3539280891 0.2034116983 2.3616609573 5.2967448235 67.759918213 1.1224039793 84.376533508 157.99420166 0.6996523142  -999.250000 0.5039448738 0.5090919733
