# LAS format log file from PETREL
# Project units are specified as depth units
#==================================================================
~Version information
VERS.   2.0:
WRAP.   NO:
#==================================================================
~Well
STRT .m      2766.8217773 :
STOP .m      3149.9555664 :
STEP .m     0.00000000 :
NULL .        -999.250000 :
COMP.           : COMPANY
WELL.  16/10-2 Delta   : WELL
FLD.            : FIELD
LOC.            : LOCATION
SRVC.           : SERVICE COMPANY
DATE.  2018-09-11 14:48:06   : Log Export Date {yyyy-MM-dd HH:mm:ss}
PROV.           : PROVINCE
UWI.   16/10-2   : UNIQUE WELL ID
API.            : API NUMBER
#==================================================================
~Curve
DEPT .m                   : DEPTH
Lithology_geolink ._      : Lithology_geolink
DCAL .in                  : DCAL
CALI .in                  : CALI
BS .in                    : BS
DRHO .g/cm3               : DRHO
THOR .ppm                 : THOR
NPHI .m3/m3               : NPHI
RHOB .g/cm3               : RHOB
PEF .b/e                  : PEF
GR .gAPI                  : GR
URAN .ppm                 : URAN
DTC .us/ft                : DTC
RDEP .ohm.m               : RDEP
SP .mV                    : SP
RMED .ohm.m               : RMED
~Parameter
#==================================================================
~Ascii
# ...
 3117.4943848 1.0000000000 -0.210937500 8.2890634537 8.5000000000 0.0189834908 3.6491630077 0.2553527057 2.2870910168 6.8992891312 42.813560486 0.5264487863 90.198478699 0.4536024034 71.549766541 1.0829939842
 3117.6467285 1.0000000000 -0.210937500 8.2890634537 8.5000000000 0.0209472291 3.7571380138 0.2515048981 2.2945899963 7.3978729248 43.433891296 0.6075916290 89.297706604 0.4472472966 71.424728394 1.0752359629
 3117.7990723 1.0000000000 -0.210937500 8.2890634537 8.5000000000 0.0264896601 3.7591109276 0.2509208918 2.3037879467 7.1252079010 41.688831329 0.6408662796 88.200851440 0.4384832084 71.300079346 1.0947120190
 3117.9516602 1.0000000000 -0.210937500 8.2890634537 8.5000000000 0.0205229893 3.8334751129 0.2450667024 2.2939128876 6.5353889465 40.906558990 0.6521273255 88.299949646 0.4311552048 70.550292969 1.0937500000
 3118.1040039 1.0000000000 -0.210937500 8.2890634537 8.5000000000 0.0144784804 3.4362089634 0.2474589944 2.2714989185 5.9882950783 38.500061035 0.3997462988 88.499992371 0.4252930880 68.300048828 1.0537120104
 3118.2563477 1.0000000000 -0.210937500 8.2890634537 8.5000000000 0.0105819404 3.3843929768 0.2574028075 2.2541730404 5.8555121422 36.405910492 0.2943981886 88.700210571 0.4184538126 66.049468994 1.0078029633
 3118.4086914 1.0000000000 -0.210937500 8.2890634537 8.5000000000 0.0108461697 5.0668201447 0.2692524791 2.2544450760 5.9803099632 35.406009674 0.2518534958 89.299995422 0.4091722965 64.550079346 0.9809545875
 3118.5612793 1.0000000000 -0.210937500 8.2890634537 8.5000000000 0.0062998561 5.7881741524 0.2702668905 2.2498009205 5.7581171989 35.065040588 0.3800460100 89.299461365 0.3989171982 64.675796509 0.9775410891
 3118.7136230 1.0000000000 -0.210937500 8.2890634537 8.5000000000 0.0047066282 5.0350952148 0.2679973841 2.2446470261 6.0390567780 37.412239075 0.1573065072 88.800300598 0.3911060989 65.426078796 0.9794837236
 3118.8659668 1.0000000000 -0.210937500 8.2890634537 8.5000000000 0.0047122249 4.8724398613 0.2721184790 2.2399189472 6.0358028412 41.532840729 0.2202157974 89.001106262 0.3862242103 66.175437927 0.9735875726
 3119.0183105 1.0000000000 -0.210937500 8.2890634537 8.5000000000 0.0053307489 4.2541990280 0.2733274102 2.2385149002 6.3899087906 42.405361176 0.1111705005 89.599403381 0.3828159869 66.424743652 0.9487556815
 3119.1708984 1.0000000000 -0.210937500 8.2890634537 8.5000000000 0.0039183078 4.1119241714 0.2759943008 2.2316009998 6.0627107620 41.563049316 0.1489371061 89.699951172 0.3798846900 67.049583435 0.9238442183
 3119.3232422 2.0000000000 -0.210937500 8.2890634537 8.5000000000 0.0048967269 3.9740097523 0.2638556957 2.2286450863 6.0273528099 37.813541412 0.1979158074 89.600013733 0.3779301941 67.549850464 0.9189466834
 3119.4755859 2.0000000000 -0.210937500 8.2890634537 8.5000000000 0.0044905851 3.2022399902 0.2709909081 2.2211909294 6.0703167915 36.531101227 0.1304350942 89.999969482 0.3784182072 66.924896240 0.9243180156
 3119.6279297 2.0000000000 -0.210937500 8.2890634537 8.5000000000 0.0028784729 3.3055660725 0.2600736022 2.2231087685 6.1172699928 34.906311035 0.1875967979 89.699577332 0.3808611929 66.049873352 0.9414088130
 3119.7802734 2.0000000000 -0.210937500 8.2890634537 8.5000000000 -0.000247981 5.0760798454 0.2586260140 2.2377266884 6.2969198227 35.032310486 0.3799510896 88.798828125 0.3847660124 65.799987793 0.9467908144
 3119.9328613 2.0000000000 -0.210937500 8.2890634537 8.5000000000 0.0025895571 5.3973469734 0.2572945058 2.2736279964 6.3519001007 36.315048218 0.4967246354 87.398933411 0.3852527142 65.801490784 0.9629539251
 3120.0852051 2.0000000000 -0.210937500 8.2890634537 8.5000000000 0.0034584140 5.8427019119 0.2659730911 2.3005189896 6.6325550079 38.445930481 0.6333780885 86.499374390 0.3842796087 67.052543640 1.0156329870
 3120.2375488 1.0000000000 -0.210937500 8.2890634537 8.5000000000 0.0021496040 6.1342120171 0.2733117044 2.2952580452 6.4685759544 43.821979523 0.6910744905 86.101547241 0.3857468963 68.676681519 1.0203889608
 3120.3898926 1.0000000000 -0.210937500 8.2890634537 8.5000000000 0.0007766285 6.2030978203 0.2767949998 2.2761878967 6.3789868355 48.714359283 0.7006704211 86.899291992 0.3881813884 69.549201965 0.9590393901
 3120.5424805 1.0000000000 -0.210937500 8.2890634537 8.5000000000 0.0050877188 6.4200830460 0.2742734849 2.2757918835 6.4023308754 50.623989105 0.8638918996 88.898956299 0.3915998042 68.800376892 0.8960294127
 3120.6948242 1.0000000000 -0.210937500 8.2890634537 8.5000000000 0.0087353745 6.4023580551 0.2704348862 2.2883210182 6.3203248978 48.094150543 0.8195962906 89.000015259 0.3925780058 67.800148010 0.8623101115
 3120.8471680 1.0000000000 -0.210937500 8.2890634537 8.5000000000 0.0107097495 6.2953300476 0.2675403953 2.2987759113 5.8671441078 45.436920166 0.7653272748 88.999992371 0.3867169917 68.050170898 0.8642680049
 3120.9995117 1.0000000000 -0.210937500 8.2890634537 8.5000000000 0.0097978199 4.4564771652 0.2702436149 2.2902619839 5.6602039337 42.685600281 0.5167132020 89.000000000 0.3784160018 68.925926208 0.9126284719
 3121.1520996 1.0000000000 -0.210937500 8.2890634537 8.5000000000 0.0100143896 3.6181199551 0.2702747881 2.2762029171 5.7424578667 39.404350281 0.3969149888 89.001518250 0.3750041127 70.549873352 0.9657831788
 3121.3044434 1.0000000000 -0.210937500 8.2890634537 8.5000000000 0.0070309849 3.4649400711 0.2628263235 2.2588810921 6.0267767906 37.403610229 0.3476214111 90.599349976 0.3794085085 70.423507690 0.9266343117
 3121.4567871 1.0000000000 -0.210937500 8.2890634537 8.5000000000 0.0036152450 3.7280890942 0.2576664090 2.2593688965 5.5972008705 35.408618927 0.4595097005 90.098136902 0.3901610076 69.298522949 0.8329576254
 3121.6091309 2.0000000000 -0.210937500 8.2890634537 8.5000000000 0.0042100758 3.8028318882 0.2417436987 2.2791008949 5.3287649155 36.809169769 0.4540208876 88.994056702 0.4048204124 68.425247192 0.8033897877
 3121.7614746 2.0000000000 -0.210937500 8.2890634537 8.5000000000 0.0063658250 3.9265601635 0.2299892008 2.3173129559 5.6403818130 35.188758850 0.3636448979 86.102264404 0.4223493934 68.549888611 0.8847023249
 3121.9140625 2.0000000000 -0.210937500 8.2890634537 8.5000000000 0.0060611428 4.1860380173 0.2241461873 2.3708050251 6.4606008530 37.686470032 0.4603204131 83.301147461 0.4365175068 70.049369812 1.0380229950
 3122.0664063 2.0000000000 -0.210937500 8.2890634537 8.5000000000 0.0103313401 5.2236499786 0.2396796942 2.4397370815 7.6562008858 38.437469482 0.4149360061 79.200164795 0.4482417107 73.549842834 1.2841700315
 3122.2187500 2.0000000000 -0.210932702 8.2890672684 8.5000000000 0.0140067302 8.1940259933 0.2517622113 2.4818680286 7.4803299904 41.438308716 0.5711712837 75.900207520 0.4580090940 77.926467896 1.5781420469
 3122.3710938 2.0000000000 -0.195323020 8.3046770096 8.5000000000 0.0103651499 8.3879299164 0.2668544054 2.4490449429 7.0578751564 43.907379150 0.7054833770 76.502159119 0.4619146883 82.426376343 1.6287449598
 3122.5236816 4.0000000000 -0.210937500 8.2890634537 8.5000000000 0.0050910618 5.3648447990 0.2679464817 2.3808579445 6.0261812210 45.531780243 0.3990012109 79.603500366 0.4628922045 84.424186707 1.3971350193
 3122.6760254 4.0000000000 -0.210914582 8.2890853882 8.5000000000 0.0012293380 5.1707210541 0.2806383967 2.3167788982 4.9364399910 46.029640198 0.3002035916 82.906303406 0.4643583000 83.671577454 1.0915039778
 3122.8283691 4.0000000000 -0.195326790 8.3046731949 8.5000000000 0.0001861435 4.4278950691 0.2633422017 2.2688319683 4.1986298561 44.899501801 0.0185361691 87.302146912 0.4663208127 81.295722961 0.8875151873
 3122.9807129 4.0000000000 -0.203107789 8.2968921661 8.5000000000 -0.000796554 4.3877010345 0.2435541898 2.2487499714 3.8735249043 41.160099030 0.0391640812 88.498756409 0.4731374085 78.927429199 0.7877004743
 3123.1333008 4.0000000000 -0.195317313 8.3046827316 8.5000000000 0.0024679170 6.0434050560 0.2202811986 2.2909188271 4.0936050415 40.781501770 0.6518694162 87.900390625 0.4897348881 76.051887512 0.8407850862
 3123.2856445 4.0000000000 -0.203123078 8.2968769073 8.5000000000 0.0074632470 8.8484096527 0.2312564105 2.3997199535 4.3749179840 43.249279022 1.2386690378 87.500106812 0.5170816183 75.925033569 1.0516959429
