# LAS format log file from PETREL
# Project units are specified as depth units
#==================================================================
~Version information
VERS.   2.0:
WRAP.   NO:
#==================================================================
~Well
STRT .m      2766.8217773 :
STOP .m      3149.9555664 :
STEP .m     0.00000000 :
NULL .        -999.250000 :
COMP.           : COMPANY
WELL.  16/10-2 Delta   : WELL
FLD.            : FIELD
LOC.            : LOCATION
SRVC.           : SERVICE COMPANY
DATE.  2018-09-11 14:48:06   : Log Export Date {yyyy-MM-dd HH:mm:ss}
PROV.           : PROVINCE
UWI.   16/10-2   : UNIQUE WELL ID
API.            : API NUMBER
#==================================================================
~Curve
DEPT .m                   : DEPTH
Lithology_geolink ._      : Lithology_geolink
DCAL .in                  : DCAL
CALI .in                  : CALI
BS .in                    : BS
DRHO .g/cm3               : DRHO
THOR .ppm                 : THOR
NPHI .m3/m3               : NPHI
RHOB .g/cm3               : RHOB
PEF .b/e                  : PEF
GR .gAPI                  : GR
URAN .ppm                 : URAN
DTC .us/ft                : DTC
RDEP .ohm.m               : RDEP
SP .mV                    : SP
RMED .ohm.m               : RMED
~Parameter
#==================================================================
~Ascii
# ...
 2867.8632813 5.0000000000 0.9844378829 9.4844379425 8.5000000000 0.0098945145 5.4959001541 0.3043232858 2.4263029099 7.5157189369 54.187500000 0.9316980839 89.999893188 0.6323326826 90.550987244 0.9892184734
 2868.0156250 5.0000000000 0.9453191757 9.4453191757 8.5000000000 0.0095529528 5.0256009102 0.3008511066 2.4156410694 7.7304329872 52.718990326 0.8041474223 89.800033569 0.6235365868 88.800277710 1.0849449635
 2868.1679688 5.0000000000 0.8437470794 9.3437471390 8.5000000000 0.0066070538 5.1913948059 0.3076478839 2.4083220959 7.6212339401 50.624729156 0.8576002121 89.000000000 0.6220712066 87.549781799 1.2002129555
 2868.3205566 5.0000000000 0.8280486465 9.3280487061 8.5000000000 0.0077600591 5.4097208977 0.3075180948 2.4057099819 8.3047637939 49.281108856 0.9064037800 88.999412537 0.6264693141 86.549270630 1.2851730585
 2868.4729004 4.0000000000 0.6952982545 9.1952981949 8.5000000000 0.0063220258 5.5892081261 0.2922360897 2.4019839764 8.4377059937 49.035228729 0.9456127286 87.998870850 0.6342868805 85.298690796 1.3144249916
 2868.6252441 4.0000000000 0.6796664596 9.1796674728 8.5000000000 0.0010218170 5.8062810898 0.2826569080 2.3895909786 8.6568965912 53.250701904 1.0169680119 86.798019409 0.6445446014 83.923683167 1.2851109505
 2868.7775879 4.0000000000 0.6638783813 9.1638784409 8.5000000000 0.0018545630 5.8979458809 0.2706378996 2.3934969902 9.1476354599 53.782409668 1.0844279528 85.296127319 0.6548030972 82.923927307 1.2509169579
 2868.9301758 4.0000000000 0.5546398163 9.0546398163 8.5000000000 0.0052273469 5.9778728485 0.2629668117 2.4104139805 8.6717948914 54.463130951 1.1653339863 82.999786377 0.6655411720 82.300758362 1.2157499790
 2869.0825195 4.0000000000 0.5312681198 9.0312681198 8.5000000000 0.0042775576 6.1287121773 0.2537171841 2.4155759811 8.6328430176 51.720901489 1.2437829971 82.900077820 0.6723579168 82.674697876 1.1816669703
 2869.2348633 4.0000000000 0.4453477561 8.9453477859 8.5000000000 0.0044050282 6.0761160851 0.2496245950 2.4050009251 8.2267313004 51.999881744 1.1727859974 83.299842834 0.6738275290 82.550041199 1.2197109461
 2869.3872070 4.0000000000 0.3828153908 8.8828153610 8.5000000000 0.0050157020 6.2889862061 0.2509361207 2.3965361118 8.3046836853 53.093700409 1.1973359585 84.599929810 0.6674808264 81.675033569 1.3242139816
 2869.5397949 4.0000000000 0.2656145096 8.7656154633 8.5000000000 0.0070673982 6.3063378334 0.2571434081 2.3875110149 7.8670978546 50.000831604 1.2161780596 85.900123596 0.6547799706 81.424583435 1.4678109884
 2869.6921387 4.0000000000 0.2343044132 8.7343044281 8.5000000000 0.0087765818 6.5480389595 0.2540450990 2.3894209862 7.5893602371 52.563968658 1.3067749739 86.300300598 0.6391487718 80.173606873 1.5850160122
 2869.8444824 4.0000000000 0.1327628940 8.6327629089 8.5000000000 0.0104635097 6.2678761482 0.2588376999 2.3863680363 6.8900818825 54.690158844 1.0440380573 86.699478149 0.6230301261 78.172729492 1.6650589705
 2869.9968262 4.0000000000 0.0859260634 8.5859260559 8.5000000000 0.0104926899 6.4239711761 0.2529906929 2.3903861046 6.3789558411 57.184638977 1.1350619793 86.201309204 0.6073985100 76.047492981 1.6835589409
 2870.1491699 4.0000000000 0.0779704973 8.5779714584 8.5000000000 0.0115762698 6.3917369843 0.2581587136 2.3899750710 6.4147801399 55.178298950 1.1966110468 87.098373413 0.5912747979 74.297286987 1.6591529846
 2870.3017578 4.0000000000 -0.007930756 8.4920692444 8.5000000000 0.0112297302 6.0270071030 0.2590064108 2.3855609894 6.8121881485 50.067790985 1.1496050358 86.200942993 0.5727726817 72.801536560 1.6445460320
 2870.4541016 4.0000000000 -0.062463764 8.4375362396 8.5000000000 0.0111660799 5.9303522110 0.2595793009 2.3811359406 6.6680650711 49.937580109 1.1868209839 85.500473022 0.5507956147 71.300987244 1.6396520138
 2870.6064453 4.0000000000 -0.070310593 8.4296894073 8.5000000000 0.0102765197 6.0811748505 0.2533327937 2.3799550533 6.2696499825 49.937500000 1.3245229721 85.400009155 0.5249099135 70.050361633 1.6210989952
 2870.7587891 4.0000000000 -0.070312500 8.4296884537 8.5000000000 0.0119773904 6.3504528999 0.2508395910 2.3863859177 6.0742011070 52.781398773 1.8321830034 84.800048828 0.4946266115 68.799926758 1.5732369423
 2870.9113770 4.0000000000 -0.070312500 8.4296884537 8.5000000000 0.0121843498 5.9873151779 0.2580108941 2.3878650665 5.8200540543 54.875991821 1.7516249418 85.600692749 0.4628756940 68.049392700 1.5048630238
 2871.0637207 4.0000000000 -0.070319183 8.4296808243 8.5000000000 0.0091379303 4.1467370987 0.2657532990 2.3851699829 5.2338590622 57.122798920 1.6112459898 87.201057434 0.4301482141 66.672958374 1.4599629641
 2871.2160645 4.0000000000 -0.078134537 8.4218654633 8.5000000000 0.0031863530 3.9022612572 0.2731620967 2.3525969982 4.5973567963 54.399169922 1.5576740503 88.502243042 0.3974213004 64.169982910 1.4629060030
 2871.3684082 2.0000000000 -0.085913658 8.4140863419 8.5000000000 0.0026325721 2.8232369423 0.2775439024 2.3187220097 4.3436408043 48.397201538 0.9656213522 90.402641296 0.3651862144 59.917060852 1.4754790068
 2871.5209961 2.0000000000 -0.070297241 8.4297027588 8.5000000000 -0.000667366 2.6709439754 0.2714540958 2.2692949772 4.2734818459 42.558380127 0.8946865201 92.101753235 0.3353987038 54.791389465 1.4059809446
 2871.6733398 2.0000000000 -0.062506683 8.4374933243 8.5000000000 -0.002860382 2.3607280254 0.2680951059 2.2368860245 4.2968540192 40.408218384 0.7531847954 92.999183655 0.3100808859 50.304111481 1.2657539845
 2871.8256836 2.0000000000 -0.070308693 8.4296913147 8.5000000000 -0.000047200 2.3244071007 0.2566049993 2.2258489132 4.2929711342 39.156940460 0.6672465205 92.600242615 0.2876094878 47.176708221 1.1611900330
 2871.9780273 2.0000000000 -0.070312500 8.4296884537 8.5000000000 0.0019188570 2.2340540886 0.2664887905 2.2290039063 4.2656297684 38.156429291 0.5832589865 92.799957275 0.2695344090 44.925399780 1.1298880577
 2872.1303711 2.0000000000 -0.078122139 8.4218778610 8.5000000000 0.0035120519 2.1443328857 0.2673259079 2.2304770947 4.1718430519 37.187538147 0.4880813062 92.500320435 0.2553685904 43.799831390 1.0800579786
 2872.2829590 2.0000000000 -0.062500000 8.4375000000 8.5000000000 0.0030247199 2.1518359184 0.2819662988 2.2226660252 3.9998450279 37.404590607 0.4863912761 94.200973511 0.2426694036 42.924850464 0.9721062779
 2872.4353027 2.0000000000 -0.062507629 8.4374923706 8.5000000000 0.0023152691 2.3807549477 0.2834410071 2.2036910057 3.7225060463 34.437500000 0.6077162027 95.902030945 0.2314351052 42.673370361 0.8617466092
 2872.5876465 1.0000000000 -0.070312500 8.4296884537 8.5000000000 -0.001229647 2.2704069614 0.2919377983 2.1717538834 3.5604410172 34.434581757 0.5619267821 98.102493286 0.2206895053 40.923049927 0.7865468860
 2872.7399902 1.0000000000 -0.070312500 8.4296884537 8.5000000000 -0.002196332 2.2062950134 0.3000727892 2.1320590973 3.4785389900 32.191089630 0.4840420187 100.00000000 0.2104333937 39.423118591 0.7294588089
 2872.8925781 1.0000000000 -0.070328712 8.4296712875 8.5000000000 -0.002455795 2.5073618889 0.2973870039 2.1043739319 3.4925479889 34.336959839 0.5121394992 100.00039673 0.2011536062 38.298469543 0.7095379829
 2873.0449219 1.0000000000 -0.078118317 8.4218816757 8.5000000000 -0.001296017 2.2383809090 0.2829774916 2.1062560081 3.6697800159 31.002670288 0.3741005063 100.19989014 0.1923896968 37.550590515 0.7416735291
 2873.1972656 1.0000000000 -0.070316307 8.4296836853 8.5000000000 0.0010100210 2.0452489853 0.2543169856 2.1342248917 3.8827209473 31.124950409 0.2890394926 98.300796509 0.1850616932 37.050209045 0.7797688246
 2873.3496094 1.0000000000 -0.070312500 8.4296884537 8.5000000000 0.0061066588 1.8827300072 0.2469835132 2.1680490971 4.0195231438 31.531230927 0.1716738045 96.900093079 0.1796877980 36.550029755 0.7197303176
 2873.5021973 1.0000000000 -0.078125000 8.4218750000 8.5000000000 0.0038107301 2.0912148952 0.2588945031 2.1751608849 3.9003319740 33.031589508 0.2539519072 98.100112915 0.1762686074 36.175071716 0.5429297090
 2873.6545410 1.0000000000 -0.078119271 8.4218807220 8.5000000000 -0.002108954 1.8945629597 0.2704266906 2.1717851162 3.7090029716 34.122470856 0.0932449326 98.400489807 0.1733378023 36.425159454 0.4159902036
