# LAS format log file from PETREL
# Project units are specified as depth units
#==================================================================
~Version information
VERS.   2.0:
WRAP.   NO:
#==================================================================
~Well
STRT .m      439.11318970 :
STOP .m      3157.0148926 :
STEP .m     0.00000000 :
NULL .        -999.250000 :
COMP.           : COMPANY
WELL.  16/10-1 Alpha   : WELL
FLD.            : FIELD
LOC.            : LOCATION
SRVC.           : SERVICE COMPANY
DATE.  2018-09-11 14:48:05   : Log Export Date {yyyy-MM-dd HH:mm:ss}
PROV.           : PROVINCE
UWI.   16/10-1   : UNIQUE WELL ID
API.            : API NUMBER
#==================================================================
~Curve
DEPT .m                   : DEPTH
Lithology_geolink ._      : Lithology_geolink
DCAL .in                  : DCAL
CALI .in                  : CALI
BS .in                    : BS
DRHO .g/cm3               : DRHO
NPHI .m3/m3               : NPHI
RHOB .g/cm3               : RHOB
PEF .b/e                  : PEF
GR .gAPI                  : GR
DTC .us/ft                : DTC
RDEP .ohm.m               : RDEP
SP .mV                    : SP
RSHA .ohm.m               : RSHA
RXO .ohm.m                : RXO
RMED .ohm.m               : RMED
~Parameter
#==================================================================
~Ascii
# ...
 1901.2388916  -999.250000 -0.101599701 12.398401260 12.500000000 -0.009600000 0.3718000054 2.3938999176 11.857500076 74.003700256 118.37480164 0.7415000200 94.415748596  -999.250000  -999.250000 1.0420999527
 1901.3913574  -999.250000 0.4218998253 12.921899796 12.500000000 -0.011200000 0.3846000135 2.2309000492 12.797180176 80.893798828 129.94990540 0.7274000049 93.809394836  -999.250000  -999.250000 0.8291000128
 1901.5437012  -999.250000 0.8750000000 13.374999046 12.500000000 0.0034000000 0.4546999931 2.0996000767 14.170149803 83.437698364 140.67039490 0.7426000237 93.717193604  -999.250000  -999.250000 0.6963999867
 1901.6960449  -999.250000 0.7031002045 13.203100204 12.500000000 -0.002100000 0.5069000125 2.0041999817 14.973779678 89.560203552 146.29829407 0.7192999721 94.409652710  -999.250000  -999.250000 0.6542999744
 1901.8485107  -999.250000 0.9843997955 13.484399796 12.500000000 -0.010400000 0.5277000070 1.9903000593 14.967550278 87.102401733 148.50680542 0.6536999941 95.148445129  -999.250000  -999.250000 0.6847000122
 1902.0008545  -999.250000 1.3983999491 13.898400307 12.500000000 -0.009500000 0.4887999892 1.9819999933 16.595449448 84.026397705 145.21479797 0.6201999784 96.159591675  -999.250000  -999.250000 0.6869999766
 1902.1533203  -999.250000 1.8984000683 14.398400307 12.500000000 -0.005000000 0.5034999847 1.9570000172 18.584289551 84.654998779 146.23899841 0.6104000211 96.340431213  -999.250000  -999.250000 0.6801999807
 1902.3056641  -999.250000 2.6953001022 15.195299149 12.500000000 -0.002200000 0.4751999974 1.9113999605 20.432659149 85.881202698 145.12289429 0.5947999954 95.880149841  -999.250000  -999.250000 0.6700000167
 1902.4581299  -999.250000 2.9453001022 15.445299149 12.500000000 -0.011800000 0.5026999712 1.8903000355 18.429870605 86.235099792 144.93859863 0.5946999788 95.186851501  -999.250000  -999.250000 0.6797999740
 1902.6104736  -999.250000 2.9140999317 15.414100647 12.500000000 -0.022500001 0.4850000143 1.9113999605 15.490309715 83.157203674 144.39039612 0.6044999957 94.249870300  -999.250000  -999.250000 0.6862999797
 1902.7629395  -999.250000 2.2344000340 14.734399796 12.500000000 -0.021900000 0.4672999978 1.9681999683 12.683289528 80.019096375 145.17309570 0.6007999778 94.090011597  -999.250000  -999.250000 0.6751000285
 1902.9152832  -999.250000 2.0155999660 14.515601158 12.500000000 -0.009500000 0.4415000081 2.0060999393 12.730469704 83.191596985 145.15980530 0.6108999848 93.601066589  -999.250000  -999.250000 0.6646000147
 1903.0677490  -999.250000 2.6171996593 15.117199898 12.500000000 -0.004700000 0.4361000061 1.9754999876 15.511400223 86.572799683 143.93380737 0.6457999945 93.360923767  -999.250000  -999.250000 0.6509000063
 1903.2200928  -999.250000 2.0859000683 14.585900307 12.500000000 0.0014000000 0.4627000093 1.9393999577 19.775360107 93.726898193 141.77909851 0.6751000285 93.451713562  -999.250000  -999.250000 0.6638000011
 1903.3725586  -999.250000 1.5859000683 14.085900307 12.500000000 0.0073000002 0.4584999979 1.9177000523 21.172029495 94.896202087 139.51679993 0.7178000212 93.441108704  -999.250000  -999.250000 0.6902999878
 1903.5249023  -999.250000 2.5546996593 15.054699898 12.500000000 0.0119000003 0.4429000020 1.9129999876 16.828580856 90.393898010 128.21359253 0.7861999869 93.850845337  -999.250000  -999.250000 0.7337999940
 1903.6772461  -999.250000 2.1094000340 14.609399796 12.500000000 0.0098999999 0.4167000055 1.9780000448 13.879579544 86.080596924 110.27609253 0.7860999703 94.079948425  -999.250000  -999.250000 0.8238999844
 1903.8297119  -999.250000 1.5547000170 14.054699898 12.500000000 0.0111999996 0.4684999883 2.0615000725 14.730010033 82.455398560 119.86620331 0.7653999925 94.608322144  -999.250000  -999.250000 0.9029999971
 1903.9820557  -999.250000 1.6952999830 14.195299149 12.500000000 0.0116999997 0.4708000124 2.0701000690 17.018270493 80.199897766 120.26789856 0.7616999745 95.165550232  -999.250000  -999.250000 0.9180999994
 1904.1345215  -999.250000 0.9375000596 13.437500000 12.500000000 0.0068000001 0.4912999868 1.9979000092 19.690500259 83.066703796 128.10020447 0.7638000250 94.958122253  -999.250000  -999.250000 0.7882000208
 1904.2868652  -999.250000 1.6172000170 14.117198944 12.500000000 0.0007000000 0.4654000103 1.9141999483 18.267700195 82.606796265 141.41920471 0.7721999884 95.668251038  -999.250000  -999.250000 0.7203000188
 1904.4393311  -999.250000 2.6328003407 15.132799149 12.500000000 0.0002000000 0.5141000152 1.9231998920 14.445910454 83.208198547 144.59190369 0.7401000261 96.532058716  -999.250000  -999.250000 0.6866000295
 1904.5916748  -999.250000 2.4140999317 14.914100647 12.500000000 0.0034000000 0.5109999776 1.9424999952 11.553890228 79.190101624 144.06559753 0.6639999747 97.668182373  -999.250000  -999.250000 0.6980000138
 1904.7441406  -999.250000 1.4844000340 13.984399796 12.500000000 0.0070000002 0.5074999928 1.9642000198 10.476409912 80.461097717 144.53050232 0.6273999810 97.813743591  -999.250000  -999.250000 0.6999999881
 1904.8964844  -999.250000 1.3750000000 13.874999046 12.500000000 0.0068000001 0.4833000004 1.9779000282 11.799570084 84.286300659 145.48309326 0.6136000156 96.939834595  -999.250000  -999.250000 0.7167999744
 1905.0489502  -999.250000 2.1171998978 14.617199898 12.500000000 0.0114000002 0.5090000033 1.9945000410 14.142180443 88.847099304 146.12030029 0.6021000147 96.223854065  -999.250000  -999.250000 0.7062000036
 1905.2012939  -999.250000 3.5000000000 16.000000000 12.500000000 0.0081000002 0.5164999962 2.0037000179 16.936100006 86.322799683 145.19099426 0.6219000220 95.849029541  -999.250000  -999.250000 0.7113000154
 1905.3537598  -999.250000 2.8671996593 15.367199898 12.500000000 0.0122999996 0.5440000296 2.0072000027 18.434349060 86.382301331 143.72239685 0.6646999717 95.313812256  -999.250000  -999.250000 0.7163000107
 1905.5061035  -999.250000 2.8983998299 15.398398399 12.500000000 0.0138999997 0.5454000235 1.9846999645 18.035760880 84.556900024 144.41819763 0.6718000174 94.480422974  -999.250000  -999.250000 0.7160999775
 1905.6584473  -999.250000 3.0155999660 15.515600204 12.500000000 0.0164000001 0.5975000262 1.9726999998 16.663270950 85.156303406 144.17390442 0.6844999790 94.048355103  -999.250000  -999.250000 0.7142999768
 1905.8109131  -999.250000 1.9687000513 14.468701363 12.500000000 0.0068000001 0.5975999832 1.9630000591 14.436010361 81.280197144 140.73970032 0.6960999966 94.139083862  -999.250000  -999.250000 0.7218999863
 1905.9632568  -999.250000 2.5469000340 15.046898842 12.500000000 -0.003900000 0.5849000216 1.9543000460 15.265040398 77.870796204 139.67190552 0.6962000132 93.968688965  -999.250000  -999.250000 0.7283999920
 1906.1157227  -999.250000 2.0155999660 14.515601158 12.500000000 -0.004100000 0.5485000014 1.9477000237 15.425330162 81.818099976 140.57080078 0.7067000270 93.889015198  -999.250000  -999.250000 0.7383000255
 1906.2680664  -999.250000 2.2890999317 14.789099693 12.500000000 -0.000500000 0.5040000081 1.9375000000 13.966130257 91.546302795 139.56469727 0.7348999977 93.719078064  -999.250000  -999.250000 0.7365000248
 1906.4205322  -999.250000 2.1171998978 14.617199898 12.500000000 -0.003600000 0.5076000094 1.9689999819 11.049550056 99.398200989 139.59260559 0.7368999720 94.127220154  -999.250000  -999.250000 0.7243999839
 1906.5728760  -999.250000 1.5859000683 14.085900307 12.500000000 -0.009600000 0.4519000053 2.0388998985 9.2147865295 100.46459961 144.71479797 0.7160999775 95.239715576  -999.250000  -999.250000 0.7236999869
 1906.7253418  -999.250000 0.7578001022 13.257799149 12.500000000 -0.020500001 0.4154999852 2.1054000854 9.0688104630 96.840499878 144.70379639 0.7001000047 95.909477234  -999.250000  -999.250000 0.7247999907
 1906.8776855  -999.250000 0.2109003067 12.710900307 12.500000000 -0.019500000 0.3810999990 2.1205000877 8.8171892166 92.141601563 143.29249573 0.6937000155 96.249992371  -999.250000  -999.250000 0.7318000197
 1907.0301514  -999.250000 0.4609003365 12.960899353 12.500000000 -0.016500000 0.4327999949 2.1092998981 8.5879659653 88.096496582 143.48489380 0.7020999789 96.239768982  -999.250000  -999.250000 0.7354000211
