# LAS format log file from PETREL
# Project units are specified as depth units
#==================================================================
~Version information
VERS.   2.0:
WRAP.   NO:
#==================================================================
~Well
STRT .m      439.11318970 :
STOP .m      3157.0148926 :
STEP .m     0.00000000 :
NULL .        -999.250000 :
COMP.           : COMPANY
WELL.  16/10-1 Alpha   : WELL
FLD.            : FIELD
LOC.            : LOCATION
SRVC.           : SERVICE COMPANY
DATE.  2018-09-11 14:48:05   : Log Export Date {yyyy-MM-dd HH:mm:ss}
PROV.           : PROVINCE
UWI.   16/10-1   : UNIQUE WELL ID
API.            : API NUMBER
#==================================================================
~Curve
DEPT .m                   : DEPTH
Lithology_geolink ._      : Lithology_geolink
DCAL .in                  : DCAL
CALI .in                  : CALI
BS .in                    : BS
DRHO .g/cm3               : DRHO
NPHI .m3/m3               : NPHI
RHOB .g/cm3               : RHOB
PEF .b/e                  : PEF
GR .gAPI                  : GR
DTC .us/ft                : DTC
RDEP .ohm.m               : RDEP
SP .mV                    : SP
RSHA .ohm.m               : RSHA
RXO .ohm.m                : RXO
RMED .ohm.m               : RMED
~Parameter
#==================================================================
~Ascii
 439.11318970  -999.250000 -6.890600204 19.109399796 26.000001907  -999.250000  -999.250000  -999.250000  -999.250000 55.661899567 150.81129456 2.0197000504 50.473430634  -999.250000 0.4552571476 2.2634999752
 439.26559448  -999.250000 -6.906199932 19.093799591 26.000001907  -999.250000  -999.250000  -999.250000  -999.250000 53.783500671 150.08940125 2.0272998810 51.213939667  -999.250000 0.4696447849 2.2579998970
 439.41799927  -999.250000 -6.890600204 19.109399796 26.000001907  -999.250000  -999.250000  -999.250000  -999.250000 51.397300720 152.82119751 2.0352001190 51.018478394  -999.250000 0.4731453657 2.2283999920
 439.57040405  -999.250000 -6.890600204 19.109399796 26.000001907  -999.250000  -999.250000  -999.250000  -999.250000 49.438899994 153.62829590 2.0429999828 52.188339233  -999.250000 0.4695967138 2.1967999935
 439.72280884  -999.250000 -6.890600204 19.109399796 26.000001907  -999.250000  -999.250000  -999.250000  -999.250000 50.181999207 156.17871094 2.0504000187 52.669010162  -999.250000 0.4811125398 2.1877000332
 439.87521362  -999.250000 -6.890600204 19.109399796 26.000001907  -999.250000  -999.250000  -999.250000  -999.250000 46.489601135 157.44529724 2.0510001183 52.363639832  -999.250000 0.4884032905 2.1833000183
 440.02758789  -999.250000 -6.906199932 19.093799591 26.000001907  -999.250000  -999.250000  -999.250000  -999.250000 48.549800873 157.10420227 2.0564999580 52.418758392  -999.250000 0.4891285598 2.1717998981
 440.17999268  -999.250000 -6.906199932 19.093799591 26.000001907  -999.250000  -999.250000  -999.250000  -999.250000 47.888000488 151.08470154 2.0566000938 51.993751526  -999.250000 0.4856776297 2.1559000015
 440.33239746  -999.250000 -6.906199932 19.093799591 26.000001907  -999.250000  -999.250000  -999.250000  -999.250000 45.419101715 153.00257874 2.0488998890 51.913761139  -999.250000 0.4873868823 2.1057000160
 440.48480225  -999.250000 -6.906199932 19.093799591 26.000001907  -999.250000  -999.250000  -999.250000  -999.250000 45.369998932 155.55900574 2.0620000362 51.493759155  -999.250000 0.4866131246 2.1077001095
 440.63720703  -999.250000 -6.906199932 19.093799591 26.000001907  -999.250000  -999.250000  -999.250000  -999.250000 43.659599304 161.09809875 2.0506999493 51.122390747  -999.250000 0.4708874822 2.1224999428
 440.78961182  -999.250000 -6.906199932 19.093799591 26.000001907  -999.250000  -999.250000  -999.250000  -999.250000 44.531898499 169.25759888 2.0346000195 51.832248688  -999.250000 0.4854184985 2.1208999157
 440.94201660  -999.250000 -6.906199932 19.093799591 26.000001907  -999.250000  -999.250000  -999.250000  -999.250000 42.552700043 172.32460022 2.0074999332 52.778640747  -999.250000 0.5134513378 2.1143999100
 441.09439087  -999.250000 -6.906199932 19.093799591 26.000001907  -999.250000  -999.250000  -999.250000  -999.250000 44.549198151 172.34371948 1.9752000570 52.679050446  -999.250000 0.5109535456 2.0929000378
 441.24679565  -999.250000 -6.890600204 19.109399796 26.000001907  -999.250000  -999.250000  -999.250000  -999.250000 42.062000275 173.60409546 1.9366999865 51.703781128  -999.250000 0.5136447549 2.0574998856
 441.39920044  -999.250000 -6.906199932 19.093799591 26.000001907  -999.250000  -999.250000  -999.250000  -999.250000 42.116001129 176.08149719 1.8993999958 51.618751526  -999.250000 0.5219355226 2.0083000660
 441.55160522  -999.250000 -6.890600204 19.109399796 26.000001907  -999.250000  -999.250000  -999.250000  -999.250000 40.455600739 176.92710876 1.8500000238 51.898559570  -999.250000 0.5231289268 1.9667999744
 441.70401001  -999.250000 -6.906199932 19.093799591 26.000001907  -999.250000  -999.250000  -999.250000  -999.250000 41.159500122 179.17550659 1.7949999571 52.373908997  -999.250000 0.5367092490 1.9564000368
 441.85641479  -999.250000 -6.890600204 19.109399796 26.000001907  -999.250000  -999.250000  -999.250000  -999.250000 38.834800720 178.27040100 1.7489000559 52.148719788  -999.250000 0.5645638704 1.9406000376
 442.00881958  -999.250000 -6.890600204 19.109399796 26.000001907  -999.250000  -999.250000  -999.250000  -999.250000 35.415798187 177.49429321 1.6936999559 51.932159424  -999.250000 0.5650972724 1.9055999517
 442.16119385  -999.250000 -6.906199932 19.093799591 26.000001907  -999.250000  -999.250000  -999.250000  -999.250000 34.584800720 179.11120605 1.6513999701 51.057392120  -999.250000 0.5658357739 1.8655999899
 442.31359863  -999.250000 -6.906199932 19.093799591 26.000001907  -999.250000  -999.250000  -999.250000  -999.250000 34.273601532 179.65119934 1.6216000319 50.462406158  -999.250000 0.5827901363 1.8575999737
 442.46600342  -999.250000 -6.906199932 19.093799591 26.000001907  -999.250000  -999.250000  -999.250000  -999.250000 34.463401794 181.48600769 1.5994999409 49.992240906  -999.250000 0.5907256603 1.8378000259
 442.61840820  -999.250000 -6.906199932 19.093799591 26.000001907  -999.250000  -999.250000  -999.250000  -999.250000 36.899101257 180.25000000 1.5893000364 48.593704224  -999.250000 0.6152895689 1.8753000498
 442.77081299  -999.250000 -6.906199932 19.093799591 26.000001907  -999.250000  -999.250000  -999.250000  -999.250000 34.505298615 178.77781677 1.5864000320 48.273586273  -999.250000 0.6068558097 1.9327000380
 442.92315674  -999.250000 -6.906199932 19.093799591 26.000001907  -999.250000  -999.250000  -999.250000  -999.250000 34.587764740 177.86526489 1.5923975706 49.240108490  -999.250000 0.6079964042 1.9622881413
 443.07556152  -999.250000 -6.906199932 19.093799591 26.000001907  -999.250000  -999.250000  -999.250000  -999.250000 30.555315018 179.33612061 1.6106927395 48.979949951  -999.250000 0.5943668485 1.9963862896
 443.22796631  -999.250000 -6.906199932 19.093799591 26.000001907  -999.250000  -999.250000  -999.250000  -999.250000 29.787853241 183.18342590 1.6379945278 49.229949951  -999.250000 0.5699152946 1.9874018431
 443.38037109  -999.250000 -6.906199932 19.093799591 26.000001907  -999.250000  -999.250000  -999.250000  -999.250000 27.419574738 184.20982361 1.6768922806 49.360031128  -999.250000 0.5850446224 2.0235929489
 443.53277588  -999.250000 -6.906199932 19.093799591 26.000001907  -999.250000  -999.250000  -999.250000  -999.250000 28.705741882 179.98944092 1.7284896374 49.394920349  -999.250000 0.5701223612 2.0817883015
 443.68518066  -999.250000 -6.906199932 19.093799591 26.000001907  -999.250000  -999.250000  -999.250000  -999.250000 32.406158447 174.27304077 1.7741907835 49.889930725  -999.250000 0.5792621374 2.1116940975
 443.83758545  -999.250000 -6.906199932 19.093799591 26.000001907  -999.250000  -999.250000  -999.250000  -999.250000 36.023777008 169.56144714 1.8111926317 50.439998627  -999.250000 0.6018077731 2.2428736687
 443.98995972  -999.250000 -6.906199932 19.093799591 26.000001907  -999.250000  -999.250000  -999.250000  -999.250000 36.185333252 166.57000732 1.8382891417 50.405010223  -999.250000 0.5846403837 2.3984377384
 444.14236450  -999.250000 -6.906199932 19.093799591 26.000001907  -999.250000  -999.250000  -999.250000  -999.250000 37.639915466 165.05621338 1.8529942036 49.830020905  -999.250000 0.5985919237 2.5846254826
 444.29476929  -999.250000 -6.906199932 19.093799591 26.000001907  -999.250000  -999.250000  -999.250000  -999.250000 33.386150360 164.83444214 1.8588987589 49.509979248  -999.250000 0.5991263390 2.5884993076
 444.44717407  -999.250000 -6.906199932 19.093799591 26.000001907  -999.250000  -999.250000  -999.250000  -999.250000 34.566764832 169.26670837 1.8576002121 50.235000610  -999.250000 0.6040058136 2.4494278431
 444.59957886  -999.250000 -6.906199932 19.093799591 26.000001907  -999.250000  -999.250000  -999.250000  -999.250000 32.964519501 174.15451050 1.8470021486 50.099998474  -999.250000 0.6286602020 2.2324433327
 444.75198364  -999.250000 -6.906199932 19.093799591 26.000001907  -999.250000  -999.250000  -999.250000  -999.250000 36.309028625 177.82087708 1.8389016390 50.193611145  -999.250000 0.6315320730 2.0212421417
 444.90438843  -999.250000 -6.906199932 19.093799591 26.000001907  -999.250000  -999.250000  -999.250000  -999.250000 33.546852112 179.25552368 1.8321013451 50.458858490  -999.250000 0.6272116899 1.9398163557
