# LAS format log file from PETREL
# Project units are specified as depth units
#==================================================================
~Version information
VERS.   2.0:
WRAP.   NO:
#==================================================================
~Well
STRT .m      439.11318970 :
STOP .m      3157.0148926 :
STEP .m     0.00000000 :
NULL .        -999.250000 :
COMP.           : COMPANY
WELL.  16/10-1 Alpha   : WELL
FLD.            : FIELD
LOC.            : LOCATION
SRVC.           : SERVICE COMPANY
DATE.  2018-09-11 14:48:05   : Log Export Date {yyyy-MM-dd HH:mm:ss}
PROV.           : PROVINCE
UWI.   16/10-1   : UNIQUE WELL ID
API.            : API NUMBER
#==================================================================
~Curve
DEPT .m                   : DEPTH
Lithology_geolink ._      : Lithology_geolink
DCAL .in                  : DCAL
CALI .in                  : CALI
BS .in                    : BS
DRHO .g/cm3               : DRHO
NPHI .m3/m3               : NPHI
RHOB .g/cm3               : RHOB
PEF .b/e                  : PEF
GR .gAPI                  : GR
DTC .us/ft                : DTC
RDEP .ohm.m               : RDEP
SP .mV                    : SP
RSHA .ohm.m               : RSHA
RXO .ohm.m                : RXO
RMED .ohm.m               : RMED
~Parameter
#==================================================================
~Ascii
# ...
 2079.5468750  -999.250000 -0.101599701 12.398401260 12.500000000 -0.011500000 0.5289000273 2.1196000576 6.4292988777 62.479198456 138.10369873 0.4205000103 85.117736816  -999.250000  -999.250000 0.4848999977
 2079.6992188  -999.250000 -0.078100197 12.421899796 12.500000000 -0.019300001 0.4889000058 2.1552000046 5.0846791267 61.327899933 132.46780396 0.4406000078 84.719596863  -999.250000  -999.250000 0.5490999818
 2079.8515625  -999.250000 0.0625000000 12.562500000 12.500000000 -0.020400001 0.4602000117 2.1995999813 4.1975879669 58.788898468 132.34809875 0.4632000029 83.709136963  -999.250000  -999.250000 0.6130999923
 2080.0039063  -999.250000 0.0078001018 12.507800102 12.500000000 -0.025000000 0.4011999965 2.2276000977 3.7662789822 56.017200470 133.56709290 0.4893000126 82.607772827  -999.250000  -999.250000 0.6268000007
 2080.1564941  -999.250000 -0.023400312 12.476598740 12.500000000 -0.025500000 0.3666000068 2.2437000275 3.8703739643 54.918498993 132.83569336 0.5095999837 82.278053284  -999.250000  -999.250000 0.6152999997
 2080.3088379  -999.250000 -0.093799599 12.406200409 12.500000000 -0.026400000 0.3749000132 2.2539000511 4.1134557724 55.748100281 130.43249512 0.5120999813 81.937500000  -999.250000  -999.250000 0.6190999746
 2080.4611816  -999.250000 -0.171899796 12.328101158 12.500000000 -0.023000000 0.4029999971 2.2646000385 4.1877999306 51.349498749 129.96800232 0.5012999773 81.618011475  -999.250000  -999.250000 0.6459000111
 2080.6135254  -999.250000 -0.187499985 12.312499046 12.500000000 -0.020099999 0.4494000077 2.2825999260 3.9295749664 50.283798218 132.00000000 0.4884999990 80.699516296  -999.250000  -999.250000 0.6355999708
 2080.7661133  -999.250000 -0.093799599 12.406200409 12.500000000 -0.017600000 0.4241999984 2.2734000683 3.8609340191 48.564899445 134.12660217 0.4835000038 80.504806519  -999.250000  -999.250000 0.5927000046
 2080.9184570  -999.250000 -0.093799599 12.406200409 12.500000000 -0.015200000 0.3937999904 2.2606999874 3.9387431145 50.943500519 134.68620300 0.4803000093 81.187500000  -999.250000  -999.250000 0.5426999927
 2081.0708008  -999.250000 -0.093799599 12.406200409 12.500000000 -0.013700000 0.3307000101 2.2355999947 4.3581671715 53.561599731 134.09790039 0.4681000113 81.346946716  -999.250000  -999.250000 0.5304999948
 2081.2231445  -999.250000 -0.148400307 12.351599693 12.500000000 -0.012700000 0.3235999942 2.2283000946 4.7886810303 53.312999725 131.23240662 0.4532999992 81.846946716  -999.250000  -999.250000 0.5486999750
 2081.3757324  -999.250000 0.0078001018 12.507800102 12.500000000 -0.012600000 0.3465000093 2.2177999020 5.4491620064 55.844299316 132.76710510 0.4413999915 82.984779358  -999.250000  -999.250000 0.5648999810
 2081.5280762  -999.250000 0.0078001018 12.507800102 12.500000000 -0.009400000 0.3639999926 2.1786999702 7.0856871605 56.105899811 135.11689758 0.4293999970 85.168266296  -999.250000  -999.250000 0.5516999960
 2081.6804199  -999.250000 -0.132800102 12.367200851 12.500000000 -0.011200000 0.3695999980 2.0957000256 9.7756090164 62.061000824 142.48429871 0.4244000018 86.508010864  -999.250000  -999.250000 0.5123000145
 2081.8327637  -999.250000 -0.039099690 12.460900307 12.500000000 -0.014600000 0.3697000146 2.0141999722 13.848859787 56.229698181 147.99020386 0.4341000021 87.586860657  -999.250000  -999.250000 0.4851000011
 2081.9851074  -999.250000 0.4843997955 12.984398842 12.500000000 -0.015500000 0.4366999865 1.9832999706 15.237680435 59.489498138 152.14430237 0.4431000054 88.586242676  -999.250000  -999.250000 0.4815999866
 2082.1376953  -999.250000 0.6171998382 13.117199898 12.500000000 -0.010100000 0.4483000040 1.9901000261 14.198240280 60.059101105 151.82910156 0.4390000105 89.223556519  -999.250000  -999.250000 0.4851000011
 2082.2900391  -999.250000 1.3047000170 13.804699898 12.500000000 -0.012700000 0.4950999916 1.9955999851 12.273790359 69.688201904 153.27290344 0.4356999993 89.916206360  -999.250000  -999.250000 0.4817000031
 2082.4423828  -999.250000 0.6406002641 13.140601158 12.500000000 -0.006600000 0.4602000117 2.0116000175 11.113980293 65.792800903 150.15350342 0.4354000092 89.937500000  -999.250000  -999.250000 0.4740000069
 2082.5947266  -999.250000 0.0625000000 12.562500000 12.500000000 -0.011600000 0.5008000135 2.0276000500 10.922929764 58.852100372 145.49130249 0.4325999916 89.927543640  -999.250000  -999.250000 0.4796999991
 2082.7473145  -999.250000 0.6640997529 13.164099693 12.500000000 -0.010100000 0.5188000202 2.0473999977 11.282050133 52.224899292 143.87649536 0.4361000061 89.427886963  -999.250000  -999.250000 0.4893000126
 2082.8996582  -999.250000 1.0858999491 13.585900307 12.500000000 -0.010700000 0.5317000151 2.0724000931 11.572520256 54.622600555 141.24630737 0.4460000098 88.566513062  -999.250000  -999.250000 0.4939999878
 2083.0520020  -999.250000 0.3906002343 12.890600204 12.500000000 -0.000300000 0.4833000004 2.0794999599 11.720769882 55.982700348 141.42750549 0.4481999874 88.906250000  -999.250000  -999.250000 0.4970000088
 2083.2043457  -999.250000 1.1405999660 13.640600204 12.500000000 0.0115999999 0.4251999855 2.0961000919 10.829250336 56.725200653 143.79069519 0.4557000101 88.906250000  -999.250000  -999.250000 0.5034000278
 2083.3569336  -999.250000 1.5625000000 14.062500000 12.500000000 0.0125000002 0.4386999905 2.0813000202 9.8522386551 55.017299652 146.64840698 0.4740999937 88.836837769  -999.250000  -999.250000 0.4984000027
 2083.5092773  -999.250000 2.0936999321 14.593701363 12.500000000 0.0102000004 0.4530999959 2.0940999985 9.5028171539 56.813098907 148.33770752 0.4871000051 88.607772827  -999.250000  -999.250000 0.4814999998
 2083.6616211  -999.250000 2.0859000683 14.585900307 12.500000000 0.0031000001 0.4731999934 2.0950000286 10.760589600 56.688400269 148.25000000 0.4875000119 88.357772827  -999.250000  -999.250000 0.4650000036
 2083.8139648  -999.250000 2.2890999317 14.789099693 12.500000000 0.0029000000 0.4129999876 2.1064000130 11.237629890 55.897499084 148.07460022 0.4844999909 88.187500000  -999.250000  -999.250000 0.4578000009
 2083.9663086  -999.250000 0.8125000596 13.312501907 12.500000000 0.0030000000 0.4138000011 2.1073000431 10.519940376 57.032398224 148.48989868 0.4930000007 88.586143494  -999.250000  -999.250000 0.4699000120
 2084.1188965  -999.250000 0.6328001022 13.132800102 12.500000000 0.0033000000 0.4093999863 2.1057999134 9.6503782272 53.494899750 145.98289490 0.4932000041 89.437500000  -999.250000  -999.250000 0.4681000113
 2084.2712402  -999.250000 0.0781001970 12.578100204 12.500000000 0.0011000000 0.4636999965 2.1101999283 10.618390083 51.609199524 146.39109802 0.4797999859 89.197113037  -999.250000  -999.250000 0.4763000011
 2084.4235840  -999.250000 -0.171899796 12.328101158 12.500000000 -0.005900000 0.4345999956 2.1296000481 13.638150215 49.036098480 145.34979248 0.4704000056 88.847236633  -999.250000  -999.250000 0.4898999929
 2084.5759277  -999.250000 0.3515997231 12.851598740 12.500000000 -0.003800000 0.4402999878 2.1642999649 15.050259590 55.393001556 146.14779663 0.4657999873 89.187500000  -999.250000  -999.250000 0.5261999965
 2084.7285156  -999.250000 0.0781001970 12.578100204 12.500000000 0.0031000001 0.4029999971 2.2053000927 11.493240356 59.897899628 144.05850220 0.4595000148 89.197418213  -999.250000  -999.250000 0.5144000053
 2084.8808594  -999.250000 0.0312995911 12.531299591 12.500000000 -0.003400000 0.4693999887 2.1621000767 9.8929538727 63.879199982 144.74519348 0.4571000040 89.218750000  -999.250000  -999.250000 0.4911000133
 2085.0332031  -999.250000 0.4765996635 12.976599693 12.500000000 -0.007700000 0.4677999914 2.1229999065 10.188909531 62.225700378 144.50700378 0.4618000090 89.059303284  -999.250000  -999.250000 0.4408999979
 2085.1855469  -999.250000 0.2578001022 12.757800102 12.500000000 -0.002300000 0.4715999961 2.0792996883 12.573760033 64.442100525 145.00000000 0.4550000131 88.479568481  -999.250000  -999.250000 0.4377999902
 2085.3381348  -999.250000 0.1562996209 12.656300545 12.500000000 0.0104000000 0.4523999989 2.0778999329 13.998270035 62.048000336 145.43409729 0.4454999864 87.729568481  -999.250000  -999.250000 0.4487000108
