# LAS format log file from PETREL
# Project units are specified as depth units
#==================================================================
~Version information
VERS.   2.0:
WRAP.   NO:
#==================================================================
~Well
STRT .m      415.13760376 :
STOP .m      2850.0324707 :
STEP .m     0.00000000 :
NULL .        -999.250000 :
COMP.           : COMPANY
WELL.  16/10-3 Tyr Central   : WELL
FLD.            : FIELD
LOC.            : LOCATION
SRVC.           : SERVICE COMPANY
DATE.  2018-09-11 14:48:06   : Log Export Date {yyyy-MM-dd HH:mm:ss}
PROV.           : PROVINCE
UWI.   16/10-3   : UNIQUE WELL ID
API.            : API NUMBER
#==================================================================
~Curve
DEPT .m                   : DEPTH
Lithology_geolink ._      : Lithology_geolink
DCAL .in                  : DCAL
CALI .in                  : CALI
BS .in                    : BS
DRHO .g/cm3               : DRHO
THOR .ppm                 : THOR
NPHI .m3/m3               : NPHI
RHOB .g/cm3               : RHOB
PEF .b/e                  : PEF
GR .gAPI                  : GR
URAN .ppm                 : URAN
DTC .us/ft                : DTC
DTS .us/ft                : DTS
RDEP .ohm.m               : RDEP
SP .mV                    : SP
RSHA .ohm.m               : RSHA
RMED .ohm.m               : RMED
~Parameter
#==================================================================
~Ascii
# ...
 2682.0876465 7.0000000000 0.0785741806 8.5785741806 8.5000000000 -0.001021041 13.513336182 0.2442796975 2.5119230747 3.0320739746 125.05339813 2.9681756496 88.231262207 164.82299805 1.7552299500  -999.250000 1.4474630356 1.4505499601
 2682.2399902 7.0000000000 0.0790004730 8.5790004730 8.5000000000 -0.000376555 13.567155838 0.2554607093 2.5158460140 3.4238729477 123.66329956 2.8944792747 88.195007324 164.96121216 1.8087780476  -999.250000 1.4748760462 1.4669128656
 2682.3923340 7.0000000000 0.0655536726 8.5655536652 8.5000000000 -0.012369000 13.695535660 0.2360378951 2.5111980438 4.0988640785 124.29850006 2.8404111862 88.158996582 165.11340332 1.8052370548  -999.250000 1.4884829521 1.4850294590
 2682.5449219 7.0000000000 0.0659608766 8.5659608841 8.5000000000 0.0209879298 13.837102890 0.2717568874 2.5436649323 3.5938920975 128.36279297 2.8101503849 88.064743042 165.19810486 1.8290120363  -999.250000 1.4832350016 1.4849454165
 2682.6972656 7.0000000000 0.0592718087 8.5592718124 8.5000000000 0.0138134500 14.081574440 0.3060429990 2.5440390110 3.7350850105 130.50770569 2.6861665249 87.916839600 165.07048035 1.8521000147  -999.250000 1.5185439587 1.5078200102
 2682.8496094 7.0000000000 0.0570774116 8.5570774078 8.5000000000 -0.009302556 14.446321487 0.2697185874 2.5170791149 3.5334279537 124.92140198 2.4429755211 87.732383728 164.71720886 1.8683810234  -999.250000 1.5315359831 1.5279257298
 2683.0019531 7.0000000000 0.0608415566 8.5608415604 8.5000000000 0.0008333054 14.796560287 0.2499929965 2.4996750355 3.3560659885 122.95529938 2.1257650852 87.528846741 164.35311890 1.9246640205  -999.250000 1.5713520050 1.5597590208
 2683.1542969 7.0000000000 0.0408268012 8.5408267975 8.5000000000 0.0055248360 15.014860153 0.2448883951 2.5028419495 3.5916039944 132.73599243 1.8645052910 87.296821594 163.98291016 1.9673290253  -999.250000 1.5893269777 1.5843154192
 2683.3068848 7.0000000000 0.0457658842 8.5457658768 8.5000000000 0.0094752023 15.112743378 0.2545312047 2.5202980042 2.6744050980 133.91979980 1.7012351751 87.010688782 163.67680359 1.9622730017  -999.250000 1.6053730249 1.6006480455
 2683.4592285 7.0000000000 0.0469608270 8.5469608307 8.5000000000 0.0041816612 14.585637093 0.2382120937 2.5190770626 3.6674969196 126.02130127 1.6165000200 86.746490479 163.36872864 1.9946750402  -999.250000 1.5973470211 1.5994807482
 2683.6115723 7.0000000000 0.0460395813 8.5460395813 8.5000000000 0.0135414200 13.542360306 0.2542183101 2.5141990185 3.0318450928 129.11000061 1.5734287500 86.609413147 163.17517090 2.0622069836  -999.250000 1.6536099911 1.6367256641
 2683.7639160 7.0000000000 0.0517625771 8.5517625809 8.5000000000 0.0073379879 12.944950104 0.2675692141 2.5024740696 2.9747259617 123.80229950 1.5383877754 86.593460083 163.26809692 2.1897110939  -999.250000 1.7663079500 1.7337729931
 2683.9165039 7.0000000000 0.0491170920 8.5491170883 8.5000000000 0.0265413802 12.996680260 0.2119375020 2.5087258816 3.1942849159 112.15529633 1.5289551020 86.613357544 163.55169678 2.2919600010  -999.250000 1.8218959570 1.8067079782
 2684.0688477 6.0000000000 0.0413103066 8.5413103104 8.5000000000 0.0254527591 13.543067932 0.2348822057 2.5166900158 3.1655449867 111.71800232 1.5567843914 86.669563293 163.84370422 2.3363571167  -999.250000 1.8797169924 1.8631782532
 2684.2211914 6.0000000000 0.0554237403 8.5554237366 8.5000000000 0.0020076830 14.271526337 0.2263032943 2.5141150951 3.3271710873 113.43840027 1.6032582521 86.756111145 163.89059448 2.3245360851  -999.250000 1.8569920063 1.8644051552
 2684.3735352 6.0000000000 0.0665655136 8.5665664673 8.5000000000 0.0067146169 14.742943764 0.2172762007 2.5043959618 3.4813890457 125.73090363 1.6952885389 86.811363220 163.77430725 2.3163158894  -999.250000 1.8492759466 1.8511717319
 2684.5261230 6.0000000000 0.0554714203 8.5554714203 8.5000000000 0.0049316832 15.032184601 0.2229630053 2.5039999485 3.7222199440 124.50360107 1.9033447504 86.816490173 163.74699402 2.1678500175  -999.250000 1.7749619484 1.7967647314
 2684.6784668 7.0000000000 0.0425052606 8.5425052643 8.5000000000 -0.006696338 15.176524162 0.2459976971 2.4847779274 3.7250730991 123.49150085 2.1580500603 86.829376221 163.87971497 2.1619999409  -999.250000 1.7296910286 1.7420719862
 2684.8308105 7.0000000000 0.0439224131 8.5439224243 8.5000000000 -0.019514350 15.022581100 0.2792446017 2.4686160088 4.1890110970 127.26149750 2.3506209850 86.903030396 163.85368347 2.2676599026  -999.250000 1.7894910574 1.7716948986
 2684.9831543 7.0000000000 0.0488014184 8.5488014221 8.5000000000 -0.016794359 14.623631477 0.2601431906 2.4679999352 2.9352030754 128.29249573 2.4303433895 86.931945801 163.32299805 2.2787220478  -999.250000 1.7968009710 1.7957974672
 2685.1354980 7.0000000000 0.0538024902 8.5538015366 8.5000000000 0.0090364553 14.043955803 0.2337287068 2.4910550117 3.5117099285 123.91380310 2.3669569492 86.737449646 162.68699646 2.2818820477  -999.250000 1.8056449890 1.8035153151
 2685.2880859 7.0000000000 0.0789851993 8.5789852142 8.5000000000 0.0170718599 13.378530502 0.2221861929 2.5121810436 3.0375220776 116.58499908 2.2538118362 86.359107971 162.17498779 2.2637391090  -999.250000 1.8079220057 1.8074198961
 2685.4404297 6.0000000000 0.0675029829 8.5675029755 8.5000000000 0.0002544581 12.717470169 0.2369588017 2.5014638901 4.0700969696 113.88529968 2.1390023232 85.997253418 161.75541687 2.2658839226  -999.250000 1.8128060102 1.8115692139
 2685.5927734 6.0000000000 0.0420360602 8.5420360565 8.5000000000 0.0284873508 12.131755829 0.2295909971 2.5298049450 3.2501459122 110.39350128 2.0432002544 85.731658936 161.37600708 2.2650399208  -999.250000 1.8062779903 1.8083397150
 2685.7451172 6.0000000000 0.0419607237 8.5419607162 8.5000000000 -0.001918395 11.854795456 0.2063142061 2.5194740295 3.3299469948 113.37319946 2.0710532665 85.559791565 161.06289673 2.2601969242  -999.250000 1.7800589800 1.7874499559
 2685.8977051 6.0000000000 0.0525693931 8.5525693893 8.5000000000 -0.011689310 11.940377235 0.2454662025 2.4844100475 4.3595829010 117.13619995 2.2241339684 85.513153076 161.14349365 2.2465469837  -999.250000 1.7713129520 1.7738039494
 2686.0500488 6.0000000000 0.0616512299 8.5616512299 8.5000000000 0.0009094781 12.308588982 0.2285484970 2.4954960346 3.5642569065 115.14790344 2.4622697830 85.679580688 161.66958618 2.2065761089  -999.250000 1.7642710209 1.7665396929
 2686.2023926 7.0000000000 0.0466136895 8.5466136932 8.5000000000 0.0047005559 13.319788933 0.2237420976 2.5065770149 3.5765299797 117.52980042 2.9538452625 86.004753113 162.36619568 2.2136540413  -999.250000 1.7466880083 1.7519692183
 2686.3547363 7.0000000000 0.0575246774 8.5575246811 8.5000000000 0.0300124697 14.734570503 0.2429707944 2.5204460621 2.6540529728 125.48600006 3.4738976955 86.366142273 163.09811401 2.2447249889  -999.250000 1.7565629482 1.7535383701
 2686.5073242 7.0000000000 0.0647249222 8.5647249222 8.5000000000 0.0341062583 15.651245117 0.2555004060 2.5421359539 3.7114520073 138.19850159 3.6762552261 86.665664673 163.67340088 2.2479209900  -999.250000 1.7858120203 1.7777400017
 2686.6596680 7.0000000000 0.0476999208 8.5476999283 8.5000000000 0.0213152897 15.892577171 0.2354511023 2.5266609192 3.3468658924 142.29809570 3.6968238354 86.923789978 164.10569763 2.1893420219  -999.250000 1.7571959496 1.7658922672
 2686.8120117 7.0000000000 0.0566148795 8.5566148758 8.5000000000 0.0303171594 15.854121208 0.2403119057 2.5394599438 3.6206059456 135.11390686 3.6323428154 87.192596436 164.45390320 2.0859520435  -999.250000 1.6674549580 1.6931191683
 2686.9643555 7.0000000000 0.0579595603 8.5579595566 8.5000000000 -0.003268874 15.779415131 0.2431039959 2.5111908913 3.7215819359 134.80729675 3.5173408985 87.414421082 164.65489197 1.9849159718  -999.250000 1.5986460447 1.6177345514
 2687.1166992 7.0000000000 0.0445509031 8.5445508957 8.5000000000 0.0093151825 15.538777351 0.2734687924 2.5253698826 3.3575859070 128.34759521 3.3978552818 87.576507568 164.73530579 1.8886929750  -999.250000 1.5171500444 1.5405179262
 2687.2692871 7.0000000000 0.0526495017 8.5526485443 8.5000000000 0.0193137396 14.993353844 0.2569706142 2.5327270031 3.4122889042 127.63390350 3.1925475597 87.695106506 164.74319458 1.8888440132  -999.250000 1.5312930346 1.5265400410
