# LAS format log file from PETREL
# Project units are specified as depth units
#==================================================================
~Version information
VERS.   2.0:
WRAP.   NO:
#==================================================================
~Well
STRT .m      415.13760376 :
STOP .m      2850.0324707 :
STEP .m     0.00000000 :
NULL .        -999.250000 :
COMP.           : COMPANY
WELL.  16/10-3 Tyr Central   : WELL
FLD.            : FIELD
LOC.            : LOCATION
SRVC.           : SERVICE COMPANY
DATE.  2018-09-11 14:48:06   : Log Export Date {yyyy-MM-dd HH:mm:ss}
PROV.           : PROVINCE
UWI.   16/10-3   : UNIQUE WELL ID
API.            : API NUMBER
#==================================================================
~Curve
DEPT .m                   : DEPTH
Lithology_geolink ._      : Lithology_geolink
DCAL .in                  : DCAL
CALI .in                  : CALI
BS .in                    : BS
DRHO .g/cm3               : DRHO
THOR .ppm                 : THOR
NPHI .m3/m3               : NPHI
RHOB .g/cm3               : RHOB
PEF .b/e                  : PEF
GR .gAPI                  : GR
URAN .ppm                 : URAN
DTC .us/ft                : DTC
DTS .us/ft                : DTS
RDEP .ohm.m               : RDEP
SP .mV                    : SP
RSHA .ohm.m               : RSHA
RMED .ohm.m               : RMED
~Parameter
#==================================================================
~Ascii
# ...
 2207.3618164 9.0000000000 0.3918342888 8.8918342590 8.5000000000 0.0062515629 3.8070187569 0.1753336042 2.4391660690 5.2758250237 42.424671173 0.7385141253 77.284439087 145.65653992 1.6999469995  -999.250000 1.1022909880 1.0976190567
 2207.5141602 9.0000000000 0.3987121880 8.8987121582 8.5000000000 -0.011295930 3.9958679676 0.1866661012 2.4140689373 4.5639581680 46.895919800 0.6728860736 77.371589661 145.11904907 1.4073200226  -999.250000 0.9332494140 0.9831119776
 2207.6665039 9.0000000000 0.3903675377 8.8903684616 8.5000000000 0.0001677993 4.1391768456 0.1807038039 2.3631188869 5.1688899994 46.204208374 0.6283980012 77.072891235 144.02680969 1.0884449482  -999.250000 0.7555447817 0.8059231043
 2207.8188477 9.0000000000 0.3880806267 8.8880805969 8.5000000000 -0.008996589 4.1796741486 0.2086717039 2.3130190372 4.6001009941 47.739151001 0.6307771206 76.535209656 142.90950012 0.9148833752  -999.250000 0.6228775978 0.6600551009
 2207.9711914 10.000000000 0.3889599144 8.8889598846 8.5000000000 0.0117206099 4.1218528748 0.2132872045 2.3129200935 5.7102618217 44.013710022 0.7005813122 76.064987183 142.14169312 0.9059599042  -999.250000 0.6113175750 0.6132756472
 2208.1237793 10.000000000 0.3774938881 8.8774938583 8.5000000000 0.0260352008 3.9238643646 0.2145038992 2.3657350540 4.2779278755 44.278160095 0.8482467532 75.745582581 141.53305054 1.0788710117  -999.250000 0.6726369262 0.6547920108
 2208.2761230 10.000000000 0.3923453987 8.8923454285 8.5000000000 0.0042367638 3.6489264965 0.1958373934 2.4025290012 4.6705079079 49.923709869 1.0055086613 75.511032104 140.87387085 1.5267380476  -999.250000 0.9141891003 0.8457474709
 2208.4284668 10.000000000 0.4035548568 8.9035549164 8.5000000000 0.0224227104 3.3941209316 0.1795344949 2.4500560760 5.2853698730 41.558601379 1.1363810301 75.264236450 140.29280090 2.2152900696  -999.250000 1.3011850119 1.1940218210
 2208.5808105 10.000000000 0.3972815573 8.8972816467 8.5000000000 0.0151432501 3.1837799549 0.1495465040 2.4894349575 4.3875699043 40.529750824 1.2509429455 75.192382813 140.00469971 3.1436700821  -999.250000 1.7872120142 1.6529409885
 2208.7333984 10.000000000 0.3720740676 8.8720741272 8.5000000000 -0.010220510 3.0495796204 0.1497485042 2.4909999371 4.5409340858 37.497261047 1.2936992645 75.313865662 139.92385864 3.6315619946  -999.250000 2.1233439445 2.0331120491
 2208.8857422 10.000000000 0.3681231439 8.8681230545 8.5000000000 -0.009985358 3.0969486237 0.1454561055 2.4881229401 4.5889711380 36.106788635 1.2757356167 75.403656006 139.95916748 2.6374421120  -999.250000 1.5268189907 1.7082884312
 2209.0380859 10.000000000 0.3785524070 8.8785524368 8.5000000000 0.0146570103 3.3182327747 0.1476109028 2.5004720688 4.0448942184 45.393810272 1.2523714304 75.373352051 140.13446045 1.8251750469  -999.250000 1.0508639812 1.1857333183
 2209.1904297 10.000000000 0.3770799935 8.8770799637 8.5000000000 -0.013496340 3.5927450657 0.1708302051 2.4338181019 4.4339461327 46.562480927 1.2158839703 75.424430847 140.54040527 1.4170819521  -999.250000 0.8128157258 0.8784140944
 2209.3430176 9.0000000000 0.3846684098 8.8846683502 8.5000000000 0.0227369796 3.8865838051 0.1892077029 2.4032011032 4.0945920944 45.377788544 1.1377242804 75.666809082 141.43492126 1.2579200268  -999.250000 0.7362595797 0.7561063766
 2209.4953613 9.0000000000 0.3917121887 8.8917121887 8.5000000000 0.0268898606 4.1369662285 0.1939585060 2.3991229534 5.8322901726 42.713500977 1.0169081688 75.975700378 142.76164246 1.3658900261  -999.250000 0.7789273262 0.7656999826
 2209.6477051 9.0000000000 0.3814477921 8.8814477921 8.5000000000 0.0296048597 4.2275905609 0.2009886056 2.4268178940 4.0129961967 44.535049438 0.9135290384 76.343276978 144.60093689 1.6547240019  -999.250000 0.9470695257 0.8991307616
 2209.8000488 9.0000000000 0.3771609962 8.8771610260 8.5000000000 0.0226810798 4.1950049400 0.2121140957 2.4471919537 4.6344118118 42.978519440 0.8725126982 76.886543274 146.74429321 2.0291919708  -999.250000 1.1613899469 1.1019411087
 2209.9523926 9.0000000000 0.3856391907 8.8856391907 8.5000000000 0.0047132298 4.1344428062 0.1918247044 2.4623999596 5.0912909508 45.245380402 0.8742011189 77.627677917 148.75929260 2.0152709484  -999.250000 1.1949889660 1.1883552074
 2210.1049805 9.0000000000 0.3879174888 8.8879184723 8.5000000000 0.0037678820 4.0622158051 0.1785816997 2.4562880993 4.4564208984 43.055110931 0.9340739250 78.518829346 150.54290771 1.6645679474  -999.250000 0.9950283766 1.0541440248
 2210.2573242 9.0000000000 0.3803271949 8.8803272247 8.5000000000 -0.009374168 4.0779833794 0.1833730936 2.4185938835 4.6717672348 46.509368896 1.0649125576 79.739265442 152.10746765 1.2807860374  -999.250000 0.8040663004 0.8580294847
 2210.4096680 9.0000000000 0.3867168128 8.8867168427 8.5000000000 -0.005240109 4.2897868156 0.2080669999 2.3910939693 4.6640529633 47.167648315 1.1731970310 81.138618469 153.82029724 1.0260959864  -999.250000 0.6391903162 0.6858000159
 2210.5620117 9.0000000000 0.4013987184 8.9013986588 8.5000000000 0.0024917230 4.6362681389 0.2282011956 2.3708031178 3.5993039608 47.882980347 1.1831370592 82.418586731 155.95730591 0.9150937796  -999.250000 0.5703703761 0.5888615251
 2210.7145996 9.0000000000 0.3885774910 8.8885774612 8.5000000000 0.0078994930 4.8500127792 0.2246666998 2.3498671055 3.9469439983 44.787750244 1.1648621559 83.396804810 158.02601624 0.8726366758  -999.250000 0.5604873896 0.5626639724
 2210.8669434 9.0000000000 0.3832053840 8.8832054138 8.5000000000 0.0215023700 4.8335361481 0.2272419035 2.3509180546 4.2038159370 43.086578369 1.1368815899 83.989761353 159.84048462 0.8809316158  -999.250000 0.5749695897 0.5706641078
 2211.0192871 9.0000000000 0.3772440255 8.8772439957 8.5000000000 0.0280163102 4.7016301155 0.2510466874 2.3586750031 4.1589670181 44.793998718 1.0974792242 84.302696228 161.08003235 0.8505306840  -999.250000 0.5469663143 0.5553512573
 2211.1716309 9.0000000000 0.3693228364 8.8693227768 8.5000000000 0.0216471702 4.3238959312 0.2272312939 2.3436439037 4.0208759308 49.798320770 1.1600240469 84.417488098 161.40541077 0.8050963879  -999.250000 0.5232459903 0.5298320651
 2211.3242188 9.0000000000 0.3785857856 8.8785858154 8.5000000000 -0.006942918 3.6545913219 0.2317112982 2.2960300446 3.9028921127 50.331809998 1.3476163149 84.391677856 160.96884155 0.7312675118  -999.250000 0.5111140013 0.5143312216
 2211.4765625 9.0000000000 0.3895483017 8.8895483017 8.5000000000 0.0134605998 3.1630635262 0.2707458138 2.2939999104 3.6394410133 46.707901001 1.5061062574 84.274452209 159.81900024 0.6706473827  -999.250000 0.5133637190 0.5125719905
 2211.6289063 9.0000000000 0.3861627877 8.8861627579 8.5000000000 -0.005655910 3.0571057796 0.2286399007 2.2613859177 4.8061261177 47.841308594 1.5729830265 84.124221802 158.69424438 0.6586011052  -999.250000 0.5023956895 0.5056179762
 2211.7812500 9.0000000000 0.3936767876 8.8936767578 8.5000000000 0.0234069508 3.2154300213 0.2371917963 2.2859089375 4.0993208885 43.946098328 1.5910960436 83.998283386 158.09509277 0.7088912725  -999.250000 0.5037050843 0.5031909943
 2211.9335938 9.0000000000 0.4083996117 8.9083995819 8.5000000000 0.0287910681 3.5166718960 0.2472970039 2.3263590336 4.1369118690 44.510818481 1.5584959984 83.879440308 157.77769470 0.8555163145  -999.250000 0.5542904735 0.5396089554
 2212.0861816 9.0000000000 0.4061240852 8.9061241150 8.5000000000 0.0401422493 3.9941985607 0.2365299016 2.3740229607 4.3635058403 46.132579803 1.4412727356 83.746688843 157.54080200 1.0462629795  -999.250000 0.6521266103 0.6245679855
 2212.2385254 9.0000000000 0.3868170083 8.8868169785 8.5000000000 -0.020822220 4.6786804199 0.2288566977 2.3673679829 4.4336018562 43.944549561 1.2327493429 83.555557251 157.17321777 1.1727000475  -999.250000 0.7424610853 0.7176179290
 2212.3908691 9.0000000000 0.3754453957 8.8754453659 8.5000000000 0.0060732062 5.1898279190 0.2237333953 2.3765950203 5.0627779961 42.710468292 1.0432800055 83.503517151 156.93980408 1.2182699442  -999.250000 0.7881249189 0.7759577036
 2212.5432129 9.0000000000 0.3740396202 8.8740396500 8.5000000000 -0.029570350 5.2700300217 0.2457025945 2.3414859772 4.2528700829 47.634101868 0.9036390185 83.692718506 156.69990540 1.0064250231  -999.250000 0.6445553899 0.6874333620
