# LAS format log file from PETREL
# Project units are specified as depth units
#==================================================================
~Version information
VERS.   2.0:
WRAP.   NO:
#==================================================================
~Well
STRT .m      439.11318970 :
STOP .m      3157.0148926 :
STEP .m     0.00000000 :
NULL .        -999.250000 :
COMP.           : COMPANY
WELL.  16/10-1 Alpha   : WELL
FLD.            : FIELD
LOC.            : LOCATION
SRVC.           : SERVICE COMPANY
DATE.  2018-09-11 14:48:05   : Log Export Date {yyyy-MM-dd HH:mm:ss}
PROV.           : PROVINCE
UWI.   16/10-1   : UNIQUE WELL ID
API.            : API NUMBER
#==================================================================
~Curve
DEPT .m                   : DEPTH
Lithology_geolink ._      : Lithology_geolink
DCAL .in                  : DCAL
CALI .in                  : CALI
BS .in                    : BS
DRHO .g/cm3               : DRHO
NPHI .m3/m3               : NPHI
RHOB .g/cm3               : RHOB
PEF .b/e                  : PEF
GR .gAPI                  : GR
DTC .us/ft                : DTC
RDEP .ohm.m               : RDEP
SP .mV                    : SP
RSHA .ohm.m               : RSHA
RXO .ohm.m                : RXO
RMED .ohm.m               : RMED
~Parameter
#==================================================================
~Ascii
# ...
 1544.6228027  -999.250000 0.0546999015 12.554699898 12.500000000 0.0119000003 0.4510000050 1.9948015213 9.6445245743 89.167098999 149.69059753 0.6984000206 92.889221191  -999.250000  -999.250000 0.7260000110
 1544.7751465  -999.250000 0.0468997993 12.546899796 12.500000000 0.0034000000 0.4458999932 2.0083889961 7.3412771225 85.048698425 149.74090576 0.6908000112 92.559303284  -999.250000  -999.250000 0.7146999836
 1544.9276123  -999.250000 0.5703001022 13.070300102 12.500000000 -0.006700000 0.4528000057 2.0367772579 5.8598465919 77.418701172 149.48789978 0.6934000254 92.298347473  -999.250000  -999.250000 0.7135000229
 1545.0799561  -999.250000 0.6796998978 13.179700851 12.500000000 -0.012200000 0.4264000058 2.0524873734 5.2829914093 76.280899048 148.76260376 0.6991999745 92.309692383  -999.250000  -999.250000 0.7159000039
 1545.2324219  -999.250000 -0.234399796 12.265600204 12.500000000 -0.013600000 0.4097000062 2.0450060368 5.0704507828 78.285896301 149.24879456 0.7050999999 91.968750000  -999.250000  -999.250000 0.7246000171
 1545.3847656  -999.250000 -0.328100204 12.171899796 12.500000000 -0.005600000 0.3921999931 2.0472981930 5.6202969551 74.887603760 149.39390564 0.7203000188 91.729568481  -999.250000  -999.250000 0.7368000150
 1545.5372314  -999.250000 -0.164099693 12.335900307 12.500000000 -0.006500000 0.4262999892 2.0737788677 6.6135745049 77.852798462 144.55729675 0.7372999787 91.059547424  -999.250000  -999.250000 0.7483999729
 1545.6895752  -999.250000 0.0390996896 12.539099693 12.500000000 0.0027999999 0.4492999911 2.1441435814 7.8499741554 76.808197021 141.37190247 0.7393000126 91.036857605  -999.250000  -999.250000 0.7994999886
 1545.8420410  -999.250000 0.1796998978 12.679700851 12.500000000 0.0086000003 0.4539000094 2.2064502239 8.4033346176 76.391296387 140.88479614 0.7408000231 91.480171204  -999.250000  -999.250000 0.8532000184
 1545.9943848  -999.250000 0.8203001022 13.320300102 12.500000000 0.0111999996 0.4436999857 2.1918118000 8.1245107651 69.521202087 142.95140076 0.7365000248 91.048477173  -999.250000  -999.250000 0.8650000095
 1546.1467285  -999.250000 0.4375000000 12.937499046 12.500000000 0.0052000000 0.4113999903 2.1231100559 7.2742691040 69.400596619 147.96490479 0.7347000241 90.899841309  -999.250000  -999.250000 0.8016999960
 1546.2991943  -999.250000 -0.054699901 12.445300102 12.500000000 -0.009500000 0.3876000047 2.0537555218 5.8468465805 78.266403198 152.46890259 0.7290999889 89.900352478  -999.250000  -999.250000 0.7362999916
 1546.4515381  -999.250000 -0.125000000 12.375000954 12.500000000 -0.021000000 0.3763000071 2.0200538635 5.0579266548 84.135299683 153.61210632 0.7070999742 89.129280090  -999.250000  -999.250000 0.7200000286
 1546.6040039  -999.250000 -0.250000000 12.250000954 12.500000000 -0.022000000 0.3950999975 2.0161030293 5.0181040764 85.256103516 152.97991943 0.6809999943 89.494186401  -999.250000  -999.250000 0.7117000222
 1546.7563477  -999.250000 -0.187499985 12.312499046 12.500000000 -0.017500000 0.4616999924 2.0188953876 5.7556481361 81.396400452 152.18420410 0.6693000197 91.175827026  -999.250000  -999.250000 0.7117000222
 1546.9088135  -999.250000 -0.195300117 12.304699898 12.500000000 -0.012300000 0.5091999769 2.0158023834 6.5487937927 88.482398987 153.02600098 0.6683999896 91.979949951  -999.250000  -999.250000 0.7096999884
 1547.0611572  -999.250000 -0.265600204 12.234399796 12.500000000 -0.013000000 0.4939999878 2.0134019852 6.3396921158 93.995597839 151.82929993 0.6776000261 91.468750000  -999.250000  -999.250000 0.7056999803
 1547.2136230  -999.250000 -0.164099693 12.335900307 12.500000000 -0.016899999 0.4765999913 2.0099029541 5.7434358597 92.280197144 151.25012207 0.6909999847 91.786857605  -999.250000  -999.250000 0.7123000026
 1547.3659668  -999.250000 -0.007800102 12.492199898 12.500000000 -0.018600000 0.4582000077 2.0281851292 5.3269586563 86.294898987 150.73249817 0.7052999735 91.910659790  -999.250000  -999.250000 0.7135000229
 1547.5184326  -999.250000 0.0234003123 12.523400307 12.500000000 -0.020300001 0.4941000044 2.0358939171 5.6684832573 83.298103333 150.03179932 0.7150999904 90.559547424  -999.250000  -999.250000 0.7214999795
 1547.6707764  -999.250000 -0.234399796 12.265600204 12.500000000 -0.013000000 0.5954999924 2.0518870354 5.9831805229 87.046096802 149.76379395 0.7141000032 89.980171204  -999.250000  -999.250000 0.7282000184
 1547.8232422  -999.250000 -0.265600204 12.234399796 12.500000000 -0.009800000 0.6043999791 2.0551974773 6.4160413742 88.706901550 149.75000000 0.7082999945 89.309692383  -999.250000  -999.250000 0.7376000285
 1547.9755859  -999.250000 -0.054699901 12.445300102 12.500000000 0.0009000000 0.5715000033 2.0675899982 6.3934473991 84.488197327 149.82029724 0.7077999711 89.287658691  -999.250000  -999.250000 0.7534000278
 1548.1279297  -999.250000 -0.390600234 12.109398842 12.500000000 -0.003300000 0.4268000126 2.0608110428 6.5518517494 81.212600708 151.70138550 0.7161999941 89.719596863  -999.250000  -999.250000 0.7562999725
 1548.2803955  -999.250000 -0.328100204 12.171899796 12.500000000 -0.003900000 0.4083000124 2.0643970966 6.3953328133 73.653800964 151.49800110 0.7196999788 89.107902527  -999.250000  -999.250000 0.7542999983
 1548.4327393  -999.250000 -0.273400307 12.226599693 12.500000000 -0.010200000 0.4018000066 2.0567123890 6.6329784393 77.491699219 150.99609375 0.7168999910 88.788383484  -999.250000  -999.250000 0.7393000126
 1548.5852051  -999.250000 -0.304699898 12.195300102 12.500000000 -0.006800000 0.3885000050 2.0561003685 7.1702232361 80.389801025 150.02697754 0.7232999802 88.468750000  -999.250000  -999.250000 0.7232999802
 1548.7375488  -999.250000 -0.437500000 12.062500954 12.500000000 -0.003700000 0.4505999982 2.0338356495 8.6102533340 83.857696533 150.25000000 0.7344999909 88.787658691  -999.250000  -999.250000 0.7139999866
 1548.8900146  -999.250000 -0.304699898 12.195300102 12.500000000 -0.007300000 0.4722000062 2.0267057419 8.8609037399 84.940498352 150.38510132 0.7357000113 89.468750000  -999.250000  -999.250000 0.7207999825
 1549.0423584  -999.250000 -0.218799606 12.281201363 12.500000000 -0.009500000 0.4979999959 2.0094137192 9.0404338837 81.355400085 148.41740417 0.7235000134 89.707328796  -999.250000  -999.250000 0.7211999893
 1549.1948242  -999.250000 -0.265600204 12.234399796 12.500000000 -0.007800000 0.4383000135 2.0160946846 8.7132034302 81.849098206 148.90440369 0.7006999850 90.139221191  -999.250000  -999.250000 0.7225999832
 1549.3471680  -999.250000 0.0859003067 12.585899353 12.500000000 -0.005100000 0.4731000066 2.0044000149 10.274399757 78.387298584 148.33799744 0.6643999815 89.889022827  -999.250000  -999.250000 0.7297000289
 1549.4996338  -999.250000 0.2421998978 12.742199898 12.500000000 -0.005400000 0.4688000083 1.9940999746 11.905349731 79.444503784 148.80659485 0.6280000210 90.355552673  -999.250000  -999.250000 0.7324000001
 1549.6519775  -999.250000 0.8515996933 13.351601601 12.500000000 -0.006100000 0.4749999940 1.9507999420 14.568699837 81.918197632 150.07989502 0.6212000251 91.957328796  -999.250000  -999.250000 0.7214999795
 1549.8044434  -999.250000 1.5077999830 14.007800102 12.500000000 -0.009400000 0.4681999981 1.9020999670 17.777379990 79.477996826 152.16889954 0.6333000064 92.319633484  -999.250000  -999.250000 0.6927000284
 1549.9567871  -999.250000 2.5234000683 15.023400307 12.500000000 -0.010100000 0.5288000107 1.8724999428 21.004129410 74.621902466 153.52061462 0.6463999748 91.760818481  -999.250000  -999.250000 0.6672000289
 1550.1091309  -999.250000 1.9141000509 14.414099693 12.500000000 -0.013000000 0.5446000099 1.8626999855 19.280759811 72.242797852 154.73680115 0.6564999819 91.250000000  -999.250000  -999.250000 0.6643000245
 1550.2615967  -999.250000 2.2969000340 14.796899796 12.500000000 -0.009900000 0.5256000161 1.8890999556 12.647780418 77.878501892 153.28919983 0.6424999833 91.329803467  -999.250000  -999.250000 0.6672000289
 1550.4139404  -999.250000 0.5546998978 13.054699898 12.500000000 -0.011900000 0.4887999892 1.9262000322 7.9371709824 78.911102295 152.14959717 0.6169999838 91.181892395  -999.250000  -999.250000 0.6829000115
