# LAS format log file from PETREL
# Project units are specified as depth units
#==================================================================
~Version information
VERS.   2.0:
WRAP.   NO:
#==================================================================
~Well
STRT .m      2766.8217773 :
STOP .m      3149.9555664 :
STEP .m     0.00000000 :
NULL .        -999.250000 :
COMP.           : COMPANY
WELL.  16/10-2 Delta   : WELL
FLD.            : FIELD
LOC.            : LOCATION
SRVC.           : SERVICE COMPANY
DATE.  2018-09-11 14:48:06   : Log Export Date {yyyy-MM-dd HH:mm:ss}
PROV.           : PROVINCE
UWI.   16/10-2   : UNIQUE WELL ID
API.            : API NUMBER
#==================================================================
~Curve
DEPT .m                   : DEPTH
Lithology_geolink ._      : Lithology_geolink
DCAL .in                  : DCAL
CALI .in                  : CALI
BS .in                    : BS
DRHO .g/cm3               : DRHO
THOR .ppm                 : THOR
NPHI .m3/m3               : NPHI
RHOB .g/cm3               : RHOB
PEF .b/e                  : PEF
GR .gAPI                  : GR
URAN .ppm                 : URAN
DTC .us/ft                : DTC
RDEP .ohm.m               : RDEP
SP .mV                    : SP
RMED .ohm.m               : RMED
~Parameter
#==================================================================
~Ascii
# ...
 2939.1862793 2.0000000000 -0.062500000 8.4375000000 8.5000000000 -0.004339379 4.8033599854 0.2601767778 2.2969660759 5.0508918762 48.095169067 0.5677433014 87.899040222 0.4360434115 55.549690247 1.4532120228
 2939.3386230 2.0000000000 -0.062500000 8.4375000000 8.5000000000 -0.003123641 5.0294098854 0.2609388828 2.2593989372 5.0976362228 49.936691284 0.6517859101 91.686157227 0.4345709980 54.800331116 1.3184189796
 2939.4912109 4.0000000000 -0.062500000 8.4375000000 8.5000000000 0.0020558690 5.0885000229 0.2560524940 2.2462000847 5.1132798195 48.593849182 0.6486607790 92.199165344 0.4399409890 53.925060272 1.2412159443
 2939.6435547 4.0000000000 -0.062500000 8.4375000000 8.5000000000 0.0059535592 5.2945661545 0.2436800897 2.2543649673 5.0859169960 50.469139099 0.6868926287 91.700202942 0.4516656995 53.300178528 1.2334179878
 2939.7958984 2.0000000000 -0.062500000 8.4375000000 8.5000000000 0.0067840731 5.6303949356 0.2286998928 2.2792539597 5.0155467987 51.781879425 0.7783619165 89.701477051 0.4707199037 53.925991058 1.2979509830
 2939.9482422 2.0000000000 -0.062500000 8.4375000000 8.5000000000 0.0084712254 5.7857651711 0.2077199966 2.3142249584 4.8985671997 52.720989227 0.8373137116 87.104896545 0.4966138899 55.427200317 1.4475150108
 2940.1008301 2.0000000000 -0.062500000 8.4375000000 8.5000000000 0.0108640902 6.0473899841 0.2124736905 2.3561429977 5.0236630440 54.882240295 0.9189872146 83.803756714 0.5283700824 57.554389954 1.6877019405
 2940.2531738 2.0000000000 -0.062500000 8.4375000000 8.5000000000 0.0131207798 7.8619384766 0.2203395963 2.4031369686 5.1840581894 60.044498444 1.4258110523 82.698219299 0.5650010705 60.681648254 1.8309299946
 2940.4055176 2.0000000000 -0.062500000 8.4375000000 8.5000000000 0.0142759597 7.7125477791 0.2327610999 2.4384512901 5.4444689751 67.504013062 1.3318500519 80.701927185 0.5996615291 64.431396484 1.7605400085
 2940.5578613 1.0000000000 -0.062500000 8.4375000000 8.5000000000 0.0189474691 5.3659391403 0.2222303897 2.4513480663 5.0510540009 69.373703003 1.0201979876 80.101364136 0.6244941950 67.422920227 1.6660809517
 2940.7104492 1.0000000000 -0.062500000 8.4375000000 8.5000000000 0.0133423498 4.8564791679 0.2095708102 2.4281129837 4.5353231430 64.189178467 0.9942149520 80.998268127 0.6391553879 67.924827576 1.7899990082
 2940.8627930 1.0000000000 -0.062500000 8.4375000000 8.5000000000 0.0088078734 4.4610819817 0.2014842033 2.3973340988 4.2070341110 55.374809265 0.7877470255 82.996841431 0.6474614143 64.174743652 1.9121069908
 2941.0151367 1.0000000000 -0.062500000 8.4375000000 8.5000000000 0.0044168588 4.8279910088 0.2112800926 2.3749899864 4.2657499313 51.217441559 0.9720572233 83.998519897 0.6562535763 58.798130035 1.8622269630
 2941.1674805 1.0000000000 -0.062500000 8.4375000000 8.5000000000 0.0055031399 4.5706629753 0.2051867992 2.3643989563 4.5664520264 48.060489655 0.8925536871 84.296546936 0.6650394797 54.297050476 1.6757470369
 2941.3198242 1.0000000000 -0.062500000 8.4375000000 8.5000000000 0.0013580390 4.2714872360 0.1803105921 2.3680319786 4.6249499321 45.495849609 0.8028653264 80.508140564 0.6655107737 50.546680450 1.6322469711
 2941.4724121 1.0000000000 -0.062500000 8.4375000000 8.5000000000 0.0029181840 4.0553431511 0.1461645961 2.4063539505 4.5818052292 41.901538849 0.7147461772 77.000885010 0.6513199806 47.671951294 1.9897389412
 2941.6247559 16.000000000 -0.062500000 8.4375000000 8.5000000000 0.0071430989 3.0599880219 0.1424725950 2.4552121162 4.4329681396 38.806838989 0.6966425180 73.905708313 0.6210067868 45.672641754 2.9471290112
 2941.7770996 16.000000000 -0.062500000 8.4375000000 8.5000000000 0.0096425684 2.8557438850 0.1575886011 2.4675989151 4.1018748283 35.815319061 0.4434671104 74.298965454 0.5767003894 44.426170349 3.9072968960
 2941.9294434 16.000000000 -0.062500000 8.4375000000 8.5000000000 0.0038406830 2.9850900173 0.1821017116 2.4165596962 4.0976591110 32.314510345 0.4927305281 79.580009460 0.5356671810 42.925861359 3.3557860851
 2942.0820313 16.000000000 -0.062500000 8.4375000000 8.5000000000 0.0057359608 3.1500608921 0.2135098130 2.3572080135 3.9472959042 29.031919479 0.4982886612 83.492950439 0.5034242868 41.675251007 1.9280270338
 2942.2343750 16.000000000 -0.062499050 8.4375009537 8.5000000000 0.0058531282 3.1909000874 0.2361264974 2.3128459454 4.0195021629 26.781509399 0.4457055032 88.692031860 0.4780238867 40.799949646 1.0165539980
 2942.3867188 2.0000000000 -0.054678921 8.4453210831 8.5000000000 0.0030151040 4.0622401237 0.2420359999 2.2816979885 3.8398590088 28.376079559 -0.119820893 90.797172546 0.4575121105 40.549930573 0.7290654182
 2942.5390625 2.0000000000 -0.039069179 8.4609308243 8.5000000000 -0.001222176 3.8112649918 0.2223180979 2.2635710239 3.8693149090 30.407619476 -0.240081102 91.795181274 0.4438458979 40.426460266 0.8443679214
 2942.6916504 2.0000000000 -0.046765331 8.4532346725 8.5000000000 -0.000347655 3.9822740555 0.1957710087 2.2667720318 4.0629072189 31.921020508 -0.173428804 89.996932983 0.4419111013 42.052700043 0.9877731204
 2942.8439941 2.0000000000 0.0391397513 8.5391397476 8.5000000000 -0.001822737 3.7383830547 0.1615708023 2.3021070957 4.3825950623 31.254510880 -0.302430511 85.299804688 0.4551359117 44.181968689 0.9722744823
 2942.9963379 2.0000000000 0.0860309601 8.5860309601 8.5000000000 0.0028965410 4.8128380775 0.1460195035 2.3740220070 4.2494478226 34.008201599 -0.344648898 80.600120544 0.4917986989 48.436771393 1.0380860567
 2943.1486816 2.0000000000 0.1327743977 8.6327743530 8.5000000000 0.0137199201 5.1803359985 0.1596533060 2.4500119686 3.9748361111 38.090381622 -0.227290303 76.908966064 0.5439000726 54.295158386 1.5240130424
 2943.3010254 2.0000000000 0.1250037998 8.6250038147 8.5000000000 0.0259228908 6.4130868912 0.1949959993 2.5032560825 3.9882750511 43.497531891 0.0071626129 74.110252380 0.6244723201 63.670715332 2.3609459400
 2943.4536133 2.0000000000 0.0937528610 8.5937528610 8.5000000000 0.0298760794 6.1116151810 0.2238672078 2.5145180225 3.8828220367 47.624641418 -0.168479800 75.797119141 0.7363175750 73.924102783 2.1933739185
 2943.6059570 2.0000000000 0.1015691981 8.6015691757 8.5000000000 0.0397287235 6.1683230400 0.2444090992 2.5152211189 3.8944799900 52.813320160 -0.164850295 75.202247620 0.8598949909 82.176330566 1.5399689674
 2943.7583008 2.0000000000 0.1250714958 8.6250715256 8.5000000000 0.0365248397 6.6249270439 0.2468705028 2.5123438835 3.7149400711 55.721660614 -0.212695196 79.793739319 0.9800372720 86.926536560 1.2919440269
 2943.9106445 2.0000000000 0.2343750149 8.7343750000 8.5000000000 0.0243007001 6.5837359428 0.2336484939 2.5031030178 3.8633549213 60.186828613 -0.239260718 81.493850708 1.0713549852 89.302276611 1.2177599669
 2944.0632324 2.0000000000 0.2343750149 8.7343750000 8.5000000000 0.0245290101 6.4814848900 0.2218696028 2.5144329071 3.9355440140 59.534328461 -0.276221395 80.804733276 1.1377669573 91.552757263 1.2050919533
 2944.2155762 2.0000000000 0.2343750149 8.7343750000 8.5000000000 0.0157579798 6.5936717987 0.2282799929 2.4928689003 3.9341158867 61.746540070 -0.096838623 83.393211365 1.1905089617 93.554168701 1.2149310112
 2944.3679199 2.0000000000 0.2343750149 8.7343750000 8.5000000000 0.0120382197 6.7297067642 0.2340918928 2.4827599525 4.2299389839 59.782310486 0.0002143373 81.900276184 1.2364219427 95.925781250 1.2648249865
 2944.5202637 2.0000000000 0.2343750149 8.7343750000 8.5000000000 0.0118359597 6.7244310379 0.2303254008 2.4950749874 3.9806449413 60.280899048 0.0311860293 80.903900146 1.2812180519 96.299720764 1.3475979567
 2944.6728516 2.0000000000 0.2343750149 8.7343750000 8.5000000000 0.0144567601 6.1731500626 0.2106010020 2.5217111111 3.8867499828 61.718261719 -0.157286495 80.500778198 1.3310379982 96.549896240 1.4599230289
 2944.8251953 2.0000000000 0.2343759984 8.7343759537 8.5000000000 0.0163616892 6.4500041008 0.1981616020 2.5475189686 3.6582019329 63.093780518 -0.069746107 78.503128052 1.3808599710 97.550033569 1.6757899523
 2944.9775391 2.0000000000 0.2656126022 8.7656126022 8.5000000000 0.0180113725 6.6147589684 0.1970772892 2.5476620197 3.6211779118 64.061340332 0.0395243317 75.705497742 1.4170000553 98.800292969 1.9522420168
