# LAS format log file from PETREL
# Project units are specified as depth units
#==================================================================
~Version information
VERS.   2.0:
WRAP.   NO:
#==================================================================
~Well
STRT .m      2766.8217773 :
STOP .m      3149.9555664 :
STEP .m     0.00000000 :
NULL .        -999.250000 :
COMP.           : COMPANY
WELL.  16/10-2 Delta   : WELL
FLD.            : FIELD
LOC.            : LOCATION
SRVC.           : SERVICE COMPANY
DATE.  2018-09-11 14:48:06   : Log Export Date {yyyy-MM-dd HH:mm:ss}
PROV.           : PROVINCE
UWI.   16/10-2   : UNIQUE WELL ID
API.            : API NUMBER
#==================================================================
~Curve
DEPT .m                   : DEPTH
Lithology_geolink ._      : Lithology_geolink
DCAL .in                  : DCAL
CALI .in                  : CALI
BS .in                    : BS
DRHO .g/cm3               : DRHO
THOR .ppm                 : THOR
NPHI .m3/m3               : NPHI
RHOB .g/cm3               : RHOB
PEF .b/e                  : PEF
GR .gAPI                  : GR
URAN .ppm                 : URAN
DTC .us/ft                : DTC
RDEP .ohm.m               : RDEP
SP .mV                    : SP
RMED .ohm.m               : RMED
~Parameter
#==================================================================
~Ascii
# ...
 2915.4118652 1.0000000000 -0.062500000 8.4375000000 8.5000000000 0.0046495041 2.6447079182 0.2319938093 2.2897849083 6.1208758354 23.447656631 0.6159752011 84.599761963 0.3090935946 36.552410126 0.8392354846
 2915.5642090 1.0000000000 -0.062500000 8.4375000000 8.5000000000 0.0018242321 2.7670938969 0.2534230053 2.2721900940 5.9531841278 16.727022171 0.6789634228 85.795745850 0.2949267030 35.425388336 0.4688791037
 2915.7167969 1.0000000000 -0.062500000 8.4375000000 8.5000000000 0.0020631840 2.6353371143 0.2607842088 2.2480850220 5.2109308243 16.281919479 0.7180976272 86.898254395 0.2817380130 36.425018311 0.2905283868
 2915.8691406 1.0000000000 -0.062500000 8.4375000000 8.5000000000 0.0005495964 2.5887389183 0.2377858907 2.2281019688 4.8827810287 15.750601768 0.7765638828 87.898635864 0.2670842111 37.550090790 0.3433918953
 2916.0214844 1.0000000000 -0.062500000 8.4375000000 8.5000000000 -0.000261011 1.8092379570 0.2254871875 2.2228989601 4.8008141518 15.110216141 0.6102635860 88.498428345 0.2529220879 37.799140930 0.6776148081
 2916.1738281 1.0000000000 -0.062500000 8.4375000000 8.5000000000 -0.000417073 1.7285950184 0.2226354927 2.2241280079 4.8440589905 14.859810829 0.5945249200 87.699249268 0.2431606948 36.675281525 1.1628019810
 2916.3261719 1.0000000000 -0.062500000 8.4375000000 8.5000000000 0.0034694280 1.7177640200 0.2266584933 2.2391240597 5.1179890633 14.891905785 0.5733873248 85.907386780 0.2402386963 36.926300049 0.9104900956
 2916.4787598 1.0000000000 -0.062500000 8.4375000000 8.5000000000 0.0025759288 1.9324120283 0.2267960012 2.2530629635 5.6531391144 15.811723709 0.5378134251 86.994338989 0.2431730926 37.803951263 0.4816910028
 2916.6311035 1.0000000000 -0.062500000 8.4375000000 8.5000000000 0.0062726210 3.4441330433 0.2286321968 2.2740070820 6.0778732300 16.186540604 0.3798348904 84.905380249 0.2480421066 39.922939301 0.3516884148
 2916.7834473 1.0000000000 -0.062500000 8.4375000000 8.5000000000 0.0072357240 4.3209748268 0.2408697009 2.2806060314 5.9649109840 20.319007874 0.3402211964 88.392303467 0.2529267073 42.173648834 0.3266750872
 2916.9357910 1.0000000000 -0.062500000 8.4375000000 8.5000000000 0.0057153041 4.5819711685 0.2416889071 2.2631659508 5.6094570160 24.547964096 0.4016090035 90.592453003 0.2592759132 42.924819946 0.3627845943
 2917.0883789 1.0000000000 -0.062500000 8.4375000000 8.5000000000 0.0017971130 4.3843240738 0.2201565951 2.2533020973 5.5546989441 26.309583664 0.2613013089 93.095886230 0.2700218856 43.550121307 0.4594894946
 2917.2407227 1.0000000000 -0.062500000 8.4375000000 8.5000000000 0.0028935340 4.4458379745 0.2066437006 2.2719259262 5.6365270615 25.516437531 0.7501603961 92.299552917 0.2876116037 44.426269531 0.5811514258
 2917.3930664 1.0000000000 -0.062500000 8.4375000000 8.5000000000 0.0050602192 5.2652750015 0.2255505919 2.3100850582 5.2572708130 24.600547791 0.8610748053 88.899765015 0.3164404929 46.928501129 0.7716873288
 2917.5454102 1.0000000000 -0.062500000 8.4375000000 8.5000000000 0.0078060068 5.3921599388 0.2388422936 2.3664019108 4.6407809258 30.660461426 0.8721188903 82.416931152 0.3579634130 50.934188843 1.0033520460
 2917.6979980 1.0000000000 -0.062500000 8.4375000000 8.5000000000 0.0103127100 5.3297238350 0.2343438864 2.4120121002 4.7656440735 37.116031647 0.9007753134 79.304016113 0.4033941031 58.311710358 1.3422119617
 2917.8503418 1.0000000000 -0.062500000 8.4375000000 8.5000000000 0.0214723106 5.2061591148 0.2023933083 2.4648089409 4.7786569595 37.964065552 0.8467245102 78.698402405 0.4517545104 65.561119080 1.5992469788
 2918.0026855 1.0000000000 -0.062500000 8.4375000000 8.5000000000 0.0278252698 4.4536900520 0.2011377960 2.4726450443 5.4408431053 36.285377502 0.7882251740 77.403175354 0.5019081235 71.170211792 1.9089159966
 2918.1550293 1.0000000000 -0.062500000 8.4375000000 8.5000000000 0.0246059485 3.6227109432 0.2142460942 2.4327440262 5.4960680008 28.640956879 0.8430001140 80.094383240 0.5463644266 69.800651550 2.0311911106
 2918.3073730 1.0000000000 -0.062500000 8.4375000000 8.5000000000 0.0124394903 3.6660730839 0.2285387069 2.3695030212 5.9999427795 25.541511536 0.9097235799 82.292724609 0.5805624127 63.800670624 1.9101699591
 2918.4599609 1.0000000000 -0.062500000 8.4375000000 8.5000000000 0.0079763671 1.9710789919 0.2234199941 2.3105809689 5.8747749329 19.556142807 0.7784489989 85.495018005 0.6040074229 58.173389435 1.6562119722
 2918.6123047 1.0000000000 -0.062500000 8.4375000000 8.5000000000 0.0043123541 2.0120790005 0.2014921010 2.2858610153 4.9994058609 18.283617020 0.7712398767 86.100547791 0.6176813245 51.922340393 1.5077650547
 2918.7646484 1.0000000000 -0.062500000 8.4375000000 8.5000000000 0.0048161768 2.0389580727 0.1805557013 2.2974500656 4.0502429008 18.829450607 0.7360705137 88.491088867 0.6264793277 47.674251556 1.4325879812
 2918.9169922 1.0000000000 -0.062500000 8.4375000000 8.5000000000 0.0053064818 2.4386041164 0.1834026873 2.3471360207 3.5098509789 21.044033051 0.8926345110 83.412239075 0.6411458850 46.929939270 1.4034140110
 2919.0695801 1.0000000000 -0.062500000 8.4375000000 8.5000000000 0.0119497804 3.1308729649 0.2000382990 2.4152040482 3.5720589161 24.175035477 1.1560059786 80.402893066 0.6655979156 50.561481476 1.4720499516
 2919.2219238 1.0000000000 -0.062500000 8.4375000000 8.5000000000 0.0181693006 5.1574630737 0.2329414040 2.4622340202 3.4537758827 28.894811630 1.3255900145 79.303031921 0.7076355815 57.189399719 1.6860649586
 2919.3742676 1.0000000000 -0.062500000 8.4375000000 8.5000000000 0.0212760009 5.4382362366 0.2364068031 2.4648048878 3.7634449005 34.486934662 1.3640730381 79.898605347 0.7650929093 64.044960022 1.9324369431
 2919.5266113 1.0000000000 -0.062500000 8.4375000000 8.5000000000 0.0159542598 5.2481942177 0.2033258080 2.4368820190 4.0897250175 37.582710266 1.1896100044 78.305694580 0.8124821782 68.173477173 2.1835019588
 2919.6791992 1.0000000000 -0.062500000 8.4375000000 8.5000000000 0.0114898197 5.0494852066 0.1461333036 2.4177510738 5.1914048195 36.002532959 1.3645219803 78.000473022 0.8208006024 69.674972534 2.6074268818
 2919.8315430 16.000000000 -0.062500000 8.4375000000 8.5000000000 0.0136670601 5.0035281181 0.1092302054 2.4434530735 5.0077009201 31.927585602 1.3377449512 72.807289124 0.7836616039 67.047317505 3.6626338959
 2919.9838867 16.000000000 -0.062500000 8.4375000000 8.5000000000 0.0173581708 4.5294570923 0.1169727072 2.4713339806 4.7107429504 29.720132828 1.1749579906 70.005752563 0.7079352140 59.919330597 5.0621490479
 2920.1362305 16.000000000 -0.062500000 8.4375000000 8.5000000000 0.0185528398 4.3562459946 0.1483919024 2.4712882042 4.4496231079 26.832458496 0.9825922847 71.699386597 0.6166043878 52.292480469 4.5874571800
 2920.2885742 16.000000000 -0.062500000 8.4375000000 8.5000000000 0.0130644096 4.1412839890 0.1849404871 2.4085040092 4.8125290871 26.556140900 0.8707103133 73.602798462 0.5370215178 45.543510437 2.4433240891
 2920.4411621 1.0000000000 -0.062500000 8.4375000000 8.5000000000 0.0095022712 2.9592189789 0.2146703899 2.3368389606 4.8314461708 21.691156387 0.5487316847 79.595550537 0.4808639884 41.174530029 1.1024940014
 2920.5935059 1.0000000000 -0.062500000 8.4375000000 8.5000000000 0.0061841328 2.3573939800 0.2246577144 2.2863469124 4.5142798424 19.443305969 0.4788179696 82.392799377 0.4331499934 40.925239563 0.5503482223
 2920.7458496 1.0000000000 -0.062500000 8.4375000000 8.5000000000 0.0073801070 2.3267130852 0.2292107940 2.2788479328 3.9085760117 14.175759315 0.5496112704 83.198226929 0.3882097900 42.049301147 0.4458647966
 2920.8981934 1.0000000000 -0.062500000 8.4375000000 8.5000000000 0.0044491361 2.2229220867 0.2270616889 2.2821280956 3.4922900200 13.782574654 0.5928512812 82.801383972 0.3535237908 42.799808502 0.6381363273
 2921.0507813 1.0000000000 -0.062500000 8.4375000000 8.5000000000 -0.001466909 2.1295619011 0.2310950160 2.2831211090 3.4902551174 13.914007187 0.5779709816 84.996475220 0.3286114037 41.299629211 0.8447273970
 2921.2031250 1.0000000000 -0.062500000 8.4375000000 8.5000000000 -0.002268810 1.9239648581 0.2341794074 2.2740619183 3.6544818878 15.170353889 0.5377823710 84.900253296 0.3139634132 38.298759460 0.8515082002
