# LAS format log file from PETREL
# Project units are specified as depth units
#==================================================================
~Version information
VERS.   2.0:
WRAP.   NO:
#==================================================================
~Well
STRT .m      2766.8217773 :
STOP .m      3149.9555664 :
STEP .m     0.00000000 :
NULL .        -999.250000 :
COMP.           : COMPANY
WELL.  16/10-2 Delta   : WELL
FLD.            : FIELD
LOC.            : LOCATION
SRVC.           : SERVICE COMPANY
DATE.  2018-09-11 14:48:06   : Log Export Date {yyyy-MM-dd HH:mm:ss}
PROV.           : PROVINCE
UWI.   16/10-2   : UNIQUE WELL ID
API.            : API NUMBER
#==================================================================
~Curve
DEPT .m                   : DEPTH
Lithology_geolink ._      : Lithology_geolink
DCAL .in                  : DCAL
CALI .in                  : CALI
BS .in                    : BS
DRHO .g/cm3               : DRHO
THOR .ppm                 : THOR
NPHI .m3/m3               : NPHI
RHOB .g/cm3               : RHOB
PEF .b/e                  : PEF
GR .gAPI                  : GR
URAN .ppm                 : URAN
DTC .us/ft                : DTC
RDEP .ohm.m               : RDEP
SP .mV                    : SP
RMED .ohm.m               : RMED
~Parameter
#==================================================================
~Ascii
 2766.8217773 11.000000000 -3.515625000 8.7343750000 12.250000954 -0.865661025 2.3007879257 0.2631829083 2.1094110012 115.51349640 15.034204483 0.4076679051 67.806335449 4.0665311813 97.949798584 4.3104491234
 2766.9743652 11.000000000 -3.515625000 8.7343750000 12.250000954 -0.865816474 2.0359950066 0.2753926218 2.1238958836 81.952339172 12.782315254 0.3992412984 67.104225159 4.1525478363 97.826576233 5.5791797638
 2767.1267090 11.000000000 -3.515625000 8.7343750000 12.250000954 -0.843267083 2.0665349960 0.2751635015 2.1806359291 56.002811432 15.656550407 0.6116229892 68.795570374 4.2655100822 98.699096680 6.1556711197
 2767.2790527 11.000000000 -3.515625000 8.7343750000 12.250000954 -0.885725319 1.9007949829 0.2892290950 2.1519560814 71.490158081 16.950229645 0.6425138116 69.398666382 4.4334850311 99.699348450 5.3091330528
 2767.4313965 11.000000000 -3.515625000 8.7343750000 12.250000954 -0.920036495 1.4324840307 0.2890759110 2.1205079556 45.694381714 17.077688217 0.4554828107 69.200691223 4.6718101501 100.32479858 4.3869647980
 2767.5839844 11.000000000 -3.515625000 8.7343750000 12.250000954 -0.904544771 1.4956740141 0.2976956964 2.0935239792 39.876270294 17.312025070 0.4393805861 69.299720764 4.8046832085 100.44999695 4.3398962021
 2767.7363281 11.000000000 -3.515625000 8.7343750000 12.250000954 -0.934433997 2.0321168900 0.2988725007 1.9811500311 52.253269196 16.391927719 0.5753595233 68.102210999 4.7655949593 100.32489777 4.8514981270
 2767.8886719 11.000000000 -3.515625000 8.7343750000 12.250000954 -0.973406315 2.2150979042 0.3130098879 1.8632910252 125.34780121 16.015422821 0.6112949252 68.698951721 4.7031049728 100.07479858 4.7145972252
 2768.0410156 11.000000000 -3.515625000 8.7343750000 12.250000954 -0.953518987 2.3168339729 0.3064714074 1.8362879753 92.967086792 15.063877106 0.5793315172 68.599296570 4.6796541214 99.824981689 4.4218330383
 2768.1933594 11.000000000 -3.515625000 8.7343750000 12.250000954 -0.933614910 2.2571070194 0.3065575957 1.8390899897 65.799133301 14.939285278 0.5857629180 67.901443481 4.6522507668 99.825378418 4.3875517845
 2768.3459473 11.000000000 -3.515625000 8.7343750000 12.250000954 -0.935931206 2.3459990025 0.3001278937 1.8443540335 57.336830139 15.820734978 0.6862043738 67.400787354 4.5935969353 100.07379913 4.9149270058
 2768.4982910 11.000000000 -3.515625000 8.7343750000 12.250000954 -0.930244684 2.2785239220 0.3028918207 1.8504279852 53.784400940 16.763278961 0.6554347277 67.399978638 4.5156941414 99.450531006 5.3589811325
 2768.6506348 11.000000000 -3.515625000 8.7343750000 12.250000954 -0.921047688 2.2724349499 0.3035527170 1.8646850586 33.916549683 18.278032303 0.6133922935 67.898925781 4.4024019241 99.200111389 4.8986759186
 2768.8029785 11.000000000 -3.515625000 8.7343750000 12.250000954 -0.903193414 2.0377728939 0.3083316982 1.9097269773 36.312141418 20.025388718 0.4948523641 69.095985413 4.2304940224 98.950019836 4.7226819992
 2768.9555664 11.000000000 -3.515625000 8.7343750000 12.250000954 -0.896912515 2.1523389816 0.3222203851 1.9324500561 45.888790131 19.079328537 0.5305895805 69.998954773 4.0077648163 99.324981689 4.8319740295
 2769.1079102 11.000000000 -3.515625000 8.7343750000 12.250000954 -0.898327529 2.2463140488 0.3475117087 1.9167989492 108.41860199 17.580823898 0.5770779848 71.898208618 3.7987649441 99.324760437 4.5698881149
 2769.2602539 11.000000000 -3.515625000 8.7343750000 12.250000954 -0.913767278 2.1985869408 0.3529589772 1.8524019718 76.397117615 18.078866959 0.7152091265 73.999122620 3.6933679581 98.949623108 3.8489270210
 2769.4125977 11.000000000 -3.515625000 8.7343750000 12.250000954 -0.928380191 2.1101679802 0.3472205997 1.7987129688 99.389717102 19.686012268 0.7728819251 76.589172363 3.7031428814 98.574981689 3.1382229328
 2769.5651855 11.000000000 -3.515625000 8.7343750000 12.250000954 -0.939478219 1.7270489931 0.3230841160 1.7708289623 63.488750458 22.443820953 0.6663569808 74.696624756 3.7167339325 98.575408936 2.8012518883
 2769.7175293 11.000000000 -3.515625000 8.7343750000 12.250000954 -0.952232480 1.6712230444 0.3103970885 1.7468639612 75.211570740 19.576620102 0.4348058105 70.900108337 3.6796150208 98.826271057 3.0804018974
 2769.8698730 11.000000000 -3.515625000 8.7343750000 12.250000954 -0.973086894 1.6558450460 0.3043805957 1.7070649862 56.608058929 16.616394043 0.3424690068 68.006828308 3.6445579529 99.449501038 4.1827459335
 2770.0222168 11.000000000 -3.515625000 8.7343750000 12.250000954 -0.998624384 1.5577280521 0.3235269785 1.6185779572 79.428359985 13.350295067 0.3703849912 68.000000000 3.6464829445 100.44960022 5.7298498154
 2770.1748047 11.000000000 -3.515625000 8.7343750000 12.250000954 -1.040354013 2.3074069023 0.3307937980 1.5257450342 89.937179565 14.630709648 0.5040991902 70.296249390 3.7617149353 101.19999695 5.6562519073
 2770.3271484 11.000000000 -3.515625000 8.7343750000 12.250000954 -1.065037012 2.4240291119 0.3369301856 1.4727940559 108.01049805 19.056629181 0.5025504827 72.396568298 4.0313510895 101.19969940 4.2771091461
 2770.4794922 11.000000000 -3.515625000 8.7343750000 12.250000954 -1.042314053 2.1435101032 0.3083745837 1.5472760201 138.94740295 22.697008133 0.3539566994 72.199111938 4.3399071693 100.44979858 3.5841650963
 2770.6318359 11.000000000 -3.515625000 8.7343750000 12.250000954 -1.012742043 2.2446439266 0.2991681993 1.6523220539 64.774902344 22.291999817 0.2688694894 70.501106262 4.4296789169 100.19999695 3.8407359123
 2770.7841797 11.000000000 -3.515625000 8.7343750000 12.250000954 -0.985365689 2.2145259380 0.2926920056 1.7502030134 87.816337585 17.170438766 0.1919026971 69.002075195 4.4218349457 100.20030212 4.6694431305
 2770.9367676 11.000000000 -3.515625000 8.7343750000 12.250000954 -0.981017888 2.2455780506 0.3180139065 1.8027939796 47.310009003 15.604247093 0.2524366975 67.106849670 4.3945598602 100.45069885 5.6878747940
 2771.0891113 11.000000000 -3.515625000 8.7343750000 12.250000954 -0.988890290 2.4234850407 0.3205424845 1.7457810640 45.932399750 15.710655212 0.3524886072 69.194526672 4.4101409912 100.82460022 5.8943200111
 2771.2414551 11.000000000 -3.515625000 8.7343750000 12.250000954 -0.988018870 2.4293808937 0.3216466010 1.7637970448 43.595268250 16.950330734 0.4056152105 70.297531128 4.4960370064 100.70010376 5.1098861694
 2771.3937988 11.000000000 -3.515625000 8.7343750000 12.250000954 -1.036986947 2.2734930515 0.2961849868 1.7483060360 61.651149750 16.127878189 0.4257481992 69.004524231 4.4609479904 100.07520294 4.6017060280
 2771.5463867 11.000000000 -3.515625000 8.7343750000 12.250000954 -1.046484947 2.5617599487 0.3020747900 1.8253430128 85.817047119 16.015914917 0.5117635131 69.099983215 4.2304511070 99.575012207 4.8398609161
 2771.6987305 11.000000000 -3.515625000 8.7343750000 12.250000954 -1.026425958 2.7486000061 0.3063049018 1.8132840395 137.97760010 17.280080795 0.8218873143 70.598426819 4.0272750854 99.949867249 5.0388741493
 2771.8510742 11.000000000 -3.515625000 8.7343750000 12.250000954 -1.076043010 2.8146059513 0.3296830058 1.6329580545 88.799598694 19.170068741 0.8131011128 72.399253845 3.8788459301 99.699981689 4.6241679192
 2772.0034180 11.000000000 -3.515625000 8.7343750000 12.250000954 -1.106753945 3.0243470669 0.3326309919 1.5209850073 73.169723511 20.654184341 0.8877543807 74.990852356 3.8066520691 99.699981689 3.6164638996
 2772.1560059 11.000000000 -3.515625000 8.7343750000 12.250000954 -1.065405011 2.9720649719 0.3252384961 1.5134210587 58.317001343 22.902448654 0.7981153131 74.297378540 3.8164100647 99.699981689 3.0121591091
 2772.3083496 11.000000000 -3.515625000 8.7343750000 12.250000954 -1.023332953 2.9805328846 0.3087162971 1.5598909855 61.183700562 22.780492783 0.7557439208 71.899024963 3.8182609081 99.700942993 3.2948660851
 2772.4606934 11.000000000 -3.515625000 8.7343750000 12.250000954 -1.001945019 2.8178110123 0.2915509939 1.6115009785 59.220520020 22.282499313 -0.064570613 69.406257629 3.7676239014 100.19950104 4.2764577866
 2772.6130371 11.000000000 -3.515625000 8.7343750000 12.250000954 -0.972027123 2.7977840900 0.2807708085 1.6939699650 41.634380341 17.822038651 -0.075959481 68.801269531 3.7539129257 101.07450104 5.1479730606
