# LAS format log file from PETREL
# Project units are specified as depth units
#==================================================================
~Version information
VERS.   2.0:
WRAP.   NO:
#==================================================================
~Well
STRT .m      439.11318970 :
STOP .m      3157.0148926 :
STEP .m     0.00000000 :
NULL .        -999.250000 :
COMP.           : COMPANY
WELL.  16/10-1 Alpha   : WELL
FLD.            : FIELD
LOC.            : LOCATION
SRVC.           : SERVICE COMPANY
DATE.  2018-09-11 14:48:05   : Log Export Date {yyyy-MM-dd HH:mm:ss}
PROV.           : PROVINCE
UWI.   16/10-1   : UNIQUE WELL ID
API.            : API NUMBER
#==================================================================
~Curve
DEPT .m                   : DEPTH
Lithology_geolink ._      : Lithology_geolink
DCAL .in                  : DCAL
CALI .in                  : CALI
BS .in                    : BS
DRHO .g/cm3               : DRHO
NPHI .m3/m3               : NPHI
RHOB .g/cm3               : RHOB
PEF .b/e                  : PEF
GR .gAPI                  : GR
DTC .us/ft                : DTC
RDEP .ohm.m               : RDEP
SP .mV                    : SP
RSHA .ohm.m               : RSHA
RXO .ohm.m                : RXO
RMED .ohm.m               : RMED
~Parameter
#==================================================================
~Ascii
# ...
 1722.9307861  -999.250000 4.2031002045 16.703100204 12.500000000 -0.017100001 0.4203000069 2.1738998890 3.5528969765 81.119102478 140.26510620 0.6642000079 90.608322144  -999.250000  -999.250000 0.7626000047
 1723.0832520  -999.250000 4.0938000679 16.593799591 12.500000000 -0.020000000 0.4104999900 2.1698999405 3.6870570183 79.906501770 142.96719360 0.6751999855 89.180557251  -999.250000  -999.250000 0.7447999716
 1723.2355957  -999.250000 4.4531002045 16.953100204 12.500000000 -0.019200001 0.3885000050 2.1658999920 3.7605760098 81.584602356 142.50000000 0.6819000244 87.555236816  -999.250000  -999.250000 0.7470999956
 1723.3880615  -999.250000 4.3750000000 16.875000000 12.500000000 -0.005800000 0.3427000046 2.1561000347 4.1004309654 76.802803040 142.05549622 0.6779000163 87.177032471  -999.250000  -999.250000 0.7523999810
 1723.5404053  -999.250000 4.2031002045 16.703100204 12.500000000 -0.001700000 0.3546000123 2.1428999901 4.5337171555 76.291702271 142.88110352 0.6780999899 86.517921448  -999.250000  -999.250000 0.7577999830
 1723.6928711  -999.250000 4.1563000679 16.656299591 12.500000000 0.0065000001 0.3625999987 2.1349000931 4.6949620247 75.812599182 141.60000610 0.6751999855 86.235778809  -999.250000  -999.250000 0.7793999910
 1723.8452148  -999.250000 4.1718997955 16.671899796 12.500000000 0.0016000000 0.3673999906 2.1287000179 4.5178041458 78.531700134 141.78230286 0.6707999706 86.406250000  -999.250000  -999.250000 0.7742999792
 1723.9976807  -999.250000 4.1875000000 16.687500000 12.500000000 -0.003500000 0.3695999980 2.1187000275 4.2851939201 73.289100647 142.42869568 0.6714000106 86.635467529  -999.250000  -999.250000 0.7771000266
 1724.1500244  -999.250000 4.1563000679 16.656299591 12.500000000 -0.013900000 0.3921000063 2.1052000523 4.4719300270 74.300300598 142.28819275 0.6668999791 87.214782715  -999.250000  -999.250000 0.7630000114
 1724.3024902  -999.250000 3.9530999660 16.453100204 12.500000000 -0.016000001 0.3955999911 2.1108000278 4.7354140282 73.001296997 142.67970276 0.6668999791 87.396545410  -999.250000  -999.250000 0.7702999711
 1724.4548340  -999.250000 4.0313000679 16.531299591 12.500000000 -0.016799999 0.4023999870 2.1331000328 4.9567999840 78.226699829 144.50979614 0.6703000069 87.544654846  -999.250000  -999.250000 0.7645999789
 1724.6072998  -999.250000 3.9219002724 16.421899796 12.500000000 -0.019300001 0.3984999955 2.1598000526 4.8227849007 80.375503540 141.72459412 0.6686000228 87.836380005  -999.250000  -999.250000 0.7745000124
 1724.7596436  -999.250000 3.9844000340 16.484399796 12.500000000 -0.019700000 0.4287000000 2.1816999912 4.4537591934 84.474998474 140.85090637 0.6682000160 87.767753601  -999.250000  -999.250000 0.7689999938
 1724.9119873  -999.250000 3.8594002724 16.359399796 12.500000000 -0.016899999 0.4521999955 2.1828000546 4.0033841133 80.157798767 141.25000000 0.6737999916 88.167442322  -999.250000  -999.250000 0.7768999934
 1725.0644531  -999.250000 4.0156002045 16.515600204 12.500000000 -0.016100001 0.4217999876 2.1744000912 3.8989729881 74.834899902 141.58320618 0.6694999933 88.815582275  -999.250000  -999.250000 0.7874000072
 1725.2167969  -999.250000 4.0000000000 16.500000000 12.500000000 -0.010900000 0.3747999966 2.1717000008 3.9709219933 71.908302307 140.05140686 0.6608999968 89.156120300  -999.250000  -999.250000 0.8008000255
 1725.3692627  -999.250000 4.0625000000 16.562500000 12.500000000 -0.013400000 0.3330999911 2.1686000824 4.1645870209 77.711997986 139.01510620 0.6789000034 88.996597290  -999.250000  -999.250000 0.8076999784
 1725.5216064  -999.250000 4.0938000679 16.593799591 12.500000000 -0.012400000 0.3292999864 2.1730000973 4.1120448112 77.663902283 138.30250549 0.6876000166 88.736000061  -999.250000  -999.250000 0.8072000146
 1725.6740723  -999.250000 4.4688000679 16.968799591 12.500000000 -0.013900000 0.3404999971 2.1645998955 3.9793310165 81.757003784 138.39450073 0.7045000196 88.667068481  -999.250000  -999.250000 0.8000000119
 1725.8264160  -999.250000 4.2188000679 16.718799591 12.500000000 -0.009500000 0.3445999920 2.1677999496 3.8018798828 79.723503113 136.31159973 0.7202000022 87.916793823  -999.250000  -999.250000 0.8177999854
 1725.9788818  -999.250000 5.3906002045 17.890600204 12.500000000 -0.010900000 0.3598999977 2.1659998894 3.7717659473 84.055999756 135.98689270 0.7336000204 87.576377869  -999.250000  -999.250000 0.8188999891
 1726.1312256  -999.250000 5.0000000000 17.500000000 12.500000000 -0.018500000 0.3492000103 2.1640999317 3.8456969261 81.327301025 135.00300598 0.7333999872 88.017578125  -999.250000  -999.250000 0.8241999745
 1726.2836914  -999.250000 4.4843997955 16.984399796 12.500000000 -0.023800001 0.3659000099 2.1661000252 3.9341199398 84.491996765 135.26629639 0.7484999895 88.356826782  -999.250000  -999.250000 0.8320000172
 1726.4360352  -999.250000 4.3125000000 16.812500000 12.500000000 -0.020500001 0.3587000072 2.1737999916 4.0634479523 77.955398560 136.51319885 0.7578999996 88.559097290  -999.250000  -999.250000 0.8399000168
 1726.5885010  -999.250000 4.9375000000 17.437500000 12.500000000 -0.015200000 0.4126000106 2.1796998978 4.3800210953 78.530097961 129.69500732 0.7710000277 88.298240662  -999.250000  -999.250000 0.8342999816
 1726.7408447  -999.250000 4.6875000000 17.187500000 12.500000000 -0.011200000 0.4228000045 2.1854999065 4.8002061844 76.421203613 133.10290527 0.7717999816 88.148368835  -999.250000  -999.250000 0.8586999774
 1726.8931885  -999.250000 4.5625000000 17.062500000 12.500000000 -0.006700000 0.4201999903 2.1905999184 4.8185529709 88.998199463 134.29379272 0.7771000266 87.309066772  -999.250000  -999.250000 0.8718000054
 1727.0456543  -999.250000 4.9687995911 17.468799591 12.500000000 -0.007800000 0.4020000100 2.1837000847 4.5174341202 88.104896545 136.33160400 0.7796000242 87.207740784  -999.250000  -999.250000 0.8907999992
 1727.1979980  -999.250000 5.2500004768 17.750000000 12.500000000 -0.009100000 0.4084999859 2.1772999763 4.3787751198 83.490501404 141.19679260 0.7961000204 87.718933105  -999.250000  -999.250000 0.8582000136
 1727.3504639  -999.250000 5.5156006813 18.015600204 12.500000000 -0.012800000 0.4023000002 2.1677000523 4.9330058098 69.580902100 128.80690002 0.7928000093 87.948432922  -999.250000  -999.250000 0.8600999713
 1727.5028076  -999.250000 5.4375000000 17.937500000 12.500000000 -0.007600000 0.3822000027 2.1744000912 5.3238620758 69.707199097 124.02999878 0.7865999937 88.527496338  -999.250000  -999.250000 0.8737000227
 1727.6552734  -999.250000 5.0624995232 17.562500000 12.500000000 -0.004900000 0.3476999998 2.1677999496 5.0838661194 74.153800964 123.16370392 0.7850999832 88.798477173  -999.250000  -999.250000 0.8966000080
 1727.8076172  -999.250000 5.0938000679 17.593799591 12.500000000 -0.008100000 0.3425000012 2.1586999893 4.3588829041 80.139999390 124.84400940 0.7881000042 89.048614502  -999.250000  -999.250000 0.8858000040
 1727.9600830  -999.250000 4.9218997955 17.421899796 12.500000000 -0.014800000 0.3431000113 2.1556000710 4.0775690079 82.736396790 132.22669983 0.7822999954 89.219131470  -999.250000  -999.250000 0.8596000075
 1728.1124268  -999.250000 4.9063000679 17.406299591 12.500000000 -0.017400000 0.3535000086 2.1670999527 4.3868718147 80.152397156 134.67239380 0.7851999998 89.458496094  -999.250000  -999.250000 0.8604000211
 1728.2648926  -999.250000 4.9687995911 17.468799591 12.500000000 -0.013000000 0.3729999959 2.1888000965 4.6170091629 81.965400696 135.67700195 0.7786999941 89.888565063  -999.250000  -999.250000 0.8690999746
 1728.4172363  -999.250000 5.1093993187 17.609399796 12.500000000 -0.011500000 0.3675000072 2.1817998886 4.5191121101 82.589401245 135.86770630 0.7710000277 89.479095459  -999.250000  -999.250000 0.8697999716
 1728.5697021  -999.250000 5.4063000679 17.906299591 12.500000000 -0.013900000 0.3353999853 2.1742999554 4.2830028534 85.401802063 137.33580017 0.7705000043 88.888496399  -999.250000  -999.250000 0.8478999734
 1728.7220459  -999.250000 4.7343997955 17.234399796 12.500000000 -0.013300000 0.3364000022 2.1742000580 4.3390250206 82.365402222 136.51280212 0.7760000229 88.558746338  -999.250000  -999.250000 0.8421000242
