# LAS format log file from PETREL
# Project units are specified as depth units
#==================================================================
~Version information
VERS.   2.0:
WRAP.   NO:
#==================================================================
~Well
STRT .m      439.11318970 :
STOP .m      3157.0148926 :
STEP .m     0.00000000 :
NULL .        -999.250000 :
COMP.           : COMPANY
WELL.  16/10-1 Alpha   : WELL
FLD.            : FIELD
LOC.            : LOCATION
SRVC.           : SERVICE COMPANY
DATE.  2018-09-11 14:48:05   : Log Export Date {yyyy-MM-dd HH:mm:ss}
PROV.           : PROVINCE
UWI.   16/10-1   : UNIQUE WELL ID
API.            : API NUMBER
#==================================================================
~Curve
DEPT .m                   : DEPTH
Lithology_geolink ._      : Lithology_geolink
DCAL .in                  : DCAL
CALI .in                  : CALI
BS .in                    : BS
DRHO .g/cm3               : DRHO
NPHI .m3/m3               : NPHI
RHOB .g/cm3               : RHOB
PEF .b/e                  : PEF
GR .gAPI                  : GR
DTC .us/ft                : DTC
RDEP .ohm.m               : RDEP
SP .mV                    : SP
RSHA .ohm.m               : RSHA
RXO .ohm.m                : RXO
RMED .ohm.m               : RMED
~Parameter
#==================================================================
~Ascii
# ...
 997.81158447  -999.250000 0.3281002045 17.828100204 17.500000000  -999.250000  -999.250000  -999.250000  -999.250000 95.174896240  -999.250000 1.4543999434 67.981819153 0.6847667694 0.6398986578 1.4453999996
 997.96398926  -999.250000 0.3281002045 17.828100204 17.500000000  -999.250000  -999.250000  -999.250000  -999.250000 94.072998047  -999.250000 1.4464999437 68.442878723 0.6017333269 0.6188502312 1.4718999863
 998.11639404  -999.250000 0.4062995613 17.906299591 17.500000000  -999.250000  -999.250000  -999.250000  -999.250000 93.875000000  -999.250000 1.4680000544 68.134658813 0.6463820934 0.6855109930 1.5003999472
 998.26879883  -999.250000 0.8437996507 18.343799591 17.500000000  -999.250000  -999.250000  -999.250000  -999.250000 90.323097229  -999.250000 1.5460000038 68.395141602 0.7173715830 0.7327268720 1.5089999437
 998.42120361  -999.250000 0.8750000000 18.375000000 17.500000000  -999.250000  -999.250000  -999.250000  -999.250000 92.468803406  -999.250000 1.6710000038 68.264923096 0.7394911647 0.7195462584 1.5080000162
 998.57360840  -999.250000 0.6562995911 18.156299591 17.500000000  -999.250000  -999.250000  -999.250000  -999.250000 104.31330109  -999.250000 1.8167999983 68.988616943 0.7007155418 0.6995332241 1.5446000099
 998.72601318  -999.250000 0.7499999404 18.250000000 17.500000000  -999.250000  -999.250000  -999.250000  -999.250000 106.54699707  -999.250000 1.9703999758 70.070480347 0.7036988139 0.7650796771 1.6605000496
 998.87841797  -999.250000 0.7499999404 18.250000000 17.500000000  -999.250000  -999.250000  -999.250000  -999.250000 109.33090210  -999.250000 2.0875000954 69.993888855 0.8219526410 0.8924140930 1.8743000031
 999.03082275  -999.250000 0.6406002641 18.140600204 17.500000000  -999.250000  -999.250000  -999.250000  -999.250000 97.981697083  -999.250000 2.1839001179 71.459396362 0.9532474279 0.9433311820 2.1500000954
 999.18322754  -999.250000 0.5625000000 18.062500000 17.500000000  -999.250000  -999.250000  -999.250000  -999.250000 94.872497559  -999.250000 2.3299000263 72.145179749 0.9340077639 0.9201305509 2.3496999741
 999.33563232  -999.250000 0.4531002045 17.953100204 17.500000000  -999.250000  -999.250000  -999.250000  -999.250000 91.638900757  -999.250000 2.4583001137 72.174667358 0.9144078493 1.0333584547 2.3575000763
 999.48797607  -999.250000 0.5312995911 18.031299591 17.500000000  -999.250000  -999.250000  -999.250000  -999.250000 91.366500854  -999.250000 2.5604999065 72.440353394 1.1256307364 1.0241321325 2.1338999271
 999.64038086  -999.250000 0.4531002045 17.953100204 17.500000000  -999.250000  -999.250000  -999.250000  -999.250000 89.574096680  -999.250000 2.6561000347 72.060066223 0.9305565357 0.9141365886 1.8859000206
 999.79278564  -999.250000 0.4843997955 17.984399796 17.500000000  -999.250000  -999.250000  -999.250000  -999.250000 91.307098389  -999.250000 2.6298999786 71.855262756 0.9090171456 0.9015374184 1.7228000164
 999.94519043  -999.250000 0.7968997955 18.296899796 17.500000000  -999.250000  -999.250000  -999.250000  -999.250000 90.469398499  -999.250000 2.4937999249 71.280548096 0.8957052827 0.8965991139 1.6942000389
 1000.0975952  -999.250000 0.8437996507 18.343799591 17.500000000  -999.250000  -999.250000  -999.250000  -999.250000 91.656600952  -999.250000 2.3766999245 70.879402161 0.9010978341 0.9203876853 1.7756999731
 1000.2500000  -999.250000 0.7968997955 18.296899796 17.500000000  -999.250000  -999.250000  -999.250000  -999.250000 85.253097534  -999.250000 2.3032999039 71.594802856 0.9221915603 0.8381894231 1.8521000147
 1000.4024048  -999.250000 0.7187995911 18.218799591 17.500000000  -999.250000  -999.250000  -999.250000  -999.250000 86.778999329  -999.250000 2.2179999352 71.969749451 0.7677618861 0.7724537253 1.8632999659
 1000.5548096  -999.250000 0.7343997955 18.234399796 17.500000000  -999.250000  -999.250000  -999.250000  -999.250000 85.521896362  -999.250000 2.1194000244 72.464790344 0.7943893075 0.8233832717 1.8028999567
 1000.7072144  -999.250000 0.7187995911 18.218799591 17.500000000  -999.250000  -999.250000  -999.250000  -999.250000 90.617897034  -999.250000 1.9802000523 72.775337219 0.8244879842 0.7166867256 1.6878000498
 1000.8596191  -999.250000 0.0000000000 17.500000000 17.500000000  -999.250000  -999.250000  -999.250000  -999.250000 91.396499634  -999.250000 1.8178999424 72.190353394 0.6174829006 0.5834633708 1.5627000332
 1001.0120239  -999.250000 -0.062500000 17.437500000 17.500000000  -999.250000  -999.250000  -999.250000  -999.250000 93.597801208  -999.250000 1.6908999681 71.889938354 0.5785155296 0.6159427166 1.4529000521
 1001.1644287  -999.250000 0.3906002343 17.890600204 17.500000000  -999.250000  -999.250000  -999.250000  -999.250000 100.00939941  -999.250000 1.5823999643 71.855262756 0.6369765997 0.5615141988 1.3846999407
 1001.3168335  -999.250000 0.2656002045 17.765600204 17.500000000  -999.250000  -999.250000  -999.250000  -999.250000 102.72769928  -999.250000 1.4699000120 71.719802856 0.4905586839 0.4833343923 1.3305000067
 1001.4692383  -999.250000 0.1406002045 17.640600204 17.500000000  -999.250000  -999.250000  -999.250000  -999.250000 106.01959991 146.92550659 1.3725999594 71.615783691 0.4872013032 0.4880000055 1.2829999924
 1001.6215820  -999.250000 -0.171899796 17.328100204 17.500000000  -999.250000  -999.250000  -999.250000  -999.250000 104.47989655 146.94650269 1.2996000051 70.590446472 0.4854014218 0.4629471600 1.2472000122
 1001.7739868  -999.250000 0.0000000000 17.500000000 17.500000000  -999.250000  -999.250000  -999.250000  -999.250000 105.37689972 146.96749878 1.2426999807 70.556388855 0.4506278634 0.5326828361 1.2151999474
 1001.9263916  -999.250000 0.5000000000 18.000000000 17.500000000  -999.250000  -999.250000  -999.250000  -999.250000 104.97440338 146.98849487 1.2189999819 71.442878723 0.6104718447 0.6577753425 1.1917999983
 1002.0787964  -999.250000 0.2500000000 17.750000000 17.500000000  -999.250000  -999.250000  -999.250000  -999.250000 99.974998474 148.36219788 1.2064000368 70.975013733 0.6955659389 0.6900705099 1.1796000004
 1002.2312012  -999.250000 0.7031002045 18.203100204 17.500000000  -999.250000  -999.250000  -999.250000  -999.250000 100.37590027 150.46157837 1.2129000425 71.154701233 0.6835048199 0.6525506973 1.1601999998
 1002.3836060  -999.250000 0.7656002045 18.265600204 17.500000000  -999.250000  -999.250000  -999.250000  -999.250000 101.27940369 153.90170288 1.2275999784 71.497589111 0.6256231666 0.6180704832 1.1571999788
 1002.5360107  -999.250000 0.3749999702 17.875000000 17.500000000  -999.250000  -999.250000  -999.250000  -999.250000 104.31259918 150.52630615 1.2467000484 71.692253113 0.6138046980 0.6445153952 1.1547000408
 1002.6884155  -999.250000 0.0625000000 17.562500000 17.500000000  -999.250000  -999.250000  -999.250000  -999.250000 102.90619659 148.06719971 1.2504999638 72.207542419 0.6767747998 0.7545877099 1.1684000492
 1002.8408203  -999.250000 0.0625000000 17.562500000 17.500000000  -999.250000  -999.250000  -999.250000  -999.250000 101.74469757 147.33590698 1.2421000004 72.237083435 0.8189430833 0.8350684643 1.1935000420
 1002.9932251  -999.250000 -0.093700409 17.406299591 17.500000000  -999.250000  -999.250000  -999.250000  -999.250000 94.158203125 148.13310242 1.2489000559 72.662513733 0.8383922577 0.8115270138 1.2203999758
 1003.1456299  -999.250000 -0.109399803 17.390600204 17.500000000  -999.250000  -999.250000  -999.250000  -999.250000 94.728996277 147.26649475 1.2538000345 72.502853394 0.7750253677 0.6783788800 1.2273999453
 1003.2980347  -999.250000 0.7031002045 18.203100204 17.500000000  -999.250000  -999.250000  -999.250000  -999.250000 102.14790344 146.62669373 1.2453000546 72.242370605 0.6125651002 0.6756179333 1.2173000574
 1003.4504395  -999.250000 0.3749999702 17.875000000 17.500000000  -999.250000  -999.250000  -999.250000  -999.250000 109.51899719 147.46159363 1.2489000559 71.993408203 0.7311000228 0.6851862073 1.2020000219
 1003.6027832  -999.250000 1.1875000000 18.687500000 17.500000000  -999.250000  -999.250000  -999.250000  -999.250000 108.06199646 148.10029602 1.2489000559 71.100013733 0.6330000162 0.6095418334 1.1941000223
