# LAS format log file from PETREL
# Project units are specified as depth units
#==================================================================
~Version information
VERS.   2.0:
WRAP.   NO:
#==================================================================
~Well
STRT .m      2766.8217773 :
STOP .m      3149.9555664 :
STEP .m     0.00000000 :
NULL .        -999.250000 :
COMP.           : COMPANY
WELL.  16/10-2 Delta   : WELL
FLD.            : FIELD
LOC.            : LOCATION
SRVC.           : SERVICE COMPANY
DATE.  2018-09-11 14:48:06   : Log Export Date {yyyy-MM-dd HH:mm:ss}
PROV.           : PROVINCE
UWI.   16/10-2   : UNIQUE WELL ID
API.            : API NUMBER
#==================================================================
~Curve
DEPT .m                   : DEPTH
Lithology_geolink ._      : Lithology_geolink
DCAL .in                  : DCAL
CALI .in                  : CALI
BS .in                    : BS
DRHO .g/cm3               : DRHO
THOR .ppm                 : THOR
NPHI .m3/m3               : NPHI
RHOB .g/cm3               : RHOB
PEF .b/e                  : PEF
GR .gAPI                  : GR
URAN .ppm                 : URAN
DTC .us/ft                : DTC
RDEP .ohm.m               : RDEP
SP .mV                    : SP
RMED .ohm.m               : RMED
~Parameter
#==================================================================
~Ascii
# ...
 3141.2687988  -999.250000 -0.203125015 8.2968750000 8.5000000000 0.0091629447 8.6819877625 0.2418460995 2.3722300529 6.1276350021  -999.250000 2.5311439037  -999.250000 0.6523662806 93.925987244 1.2420209646
 3141.4211426  -999.250000 -0.203125015 8.2968750000 8.5000000000 0.0111412499 8.6859798431 0.2378191054 2.3854699135 5.3398671150  -999.250000 2.5222361088  -999.250000 0.6665154099 94.553192139 1.1385929585
 3141.5737305  -999.250000 -0.203125015 8.2968750000 8.5000000000 0.0267170202 9.0136585236 0.2451357991 2.4354059696 5.3515520096  -999.250000 2.7867469788  -999.250000 0.6723582149 96.173599243 1.0986670256
 3141.7260742  -999.250000 -0.203125015 8.2968750000 8.5000000000 0.0418542996 9.2111749649 0.2525402904 2.4814219475 6.3159360886  -999.250000 2.8907001019  -999.250000 0.6674827933 97.924133301 1.1220589876
 3141.8784180  -999.250000 -0.210936502 8.2890634537 8.5000000000 0.0322470404 8.4441442490 0.2458021045 2.4371950626 7.4178390503  -999.250000 2.6470730305  -999.250000 0.6606453061 100.42469788 1.1747980118
 3142.0307617  -999.250000 -0.195310578 8.3046894073 8.5000000000 0.0215797704 5.3728899956 0.2480216026 2.3558170795 9.0547342300  -999.250000 2.4870290756  -999.250000 0.6601588726 102.54959869 1.1532930136
 3142.1833496  -999.250000 -0.187514290 8.3124856949 8.5000000000 0.0156791806 5.0734481812 0.2510660887 2.3420169353 9.2415523529  -999.250000 2.2375369072  -999.250000 0.6709085703 101.04709625 1.0439089537
 3142.3356934  -999.250000 -0.210922197 8.2890777588 8.5000000000 0.0265612099 4.7929339409 0.2518697083 2.4015400410 8.2177953720  -999.250000 2.0774009228  -999.250000 0.6875156760 96.421279907 0.9854549766
 3142.4880371  -999.250000 -0.195312500 8.3046884537 8.5000000000 0.0371467099 4.8830590248 0.2360203862 2.4807100296 7.2524890900  -999.250000 2.0981509686  -999.250000 0.7036324143 92.677368164 1.0901299715
 3142.6403809  -999.250000 -0.195325911 8.3046741486 8.5000000000 0.0391277410 4.6267237663 0.2213055044 2.5097010136 6.2110252380  -999.250000 2.0022881031  -999.250000 0.7178059220 94.431472778 1.3010629416
 3142.7927246  -999.250000 -0.203141183 8.2968587875 8.5000000000 0.0366919786 5.2260990143 0.2230076939 2.5152890682 6.2622661591  -999.250000 2.5877640247  -999.250000 0.7368596792 98.181259155 1.4638860226
 3142.9453125  -999.250000 -0.210931778 8.2890682220 8.5000000000 0.0401915312 5.5095930099 0.2315453887 2.5172269344 6.5232448578  -999.250000 2.6883509159  -999.250000 0.7577968240 101.17279816 1.4726500511
 3143.0976563  -999.250000 -0.210937500 8.2890634537 8.5000000000 0.0275110789 5.6092400551 0.2276213020 2.4658470154 7.3629708290  -999.250000 2.6850960255  -999.250000 0.7709912062 102.04969788 1.3721079826
 3143.2500000  -999.250000 -0.210937500 8.2890634537 8.5000000000 0.0259458795 5.6058177948 0.2275661081 2.4070570469 7.3359379768  -999.250000 2.6383500099  -999.250000 0.7753906250 101.80000305 1.3222659826
 3143.4023438  -999.250000 -0.210937500 8.2890634537 8.5000000000 0.0324031897 6.0044808388 0.2472380996 2.3879981041 6.4100451469  -999.250000 2.7529730797  -999.250000 0.7661030293 100.42379761 1.2861210108
 3143.5549316  -999.250000 -0.210937500 8.2890634537 8.5000000000 0.0340645276 5.2075681686 0.2693475783 2.3806269169 6.1098279953  -999.250000 2.3532819748  -999.250000 0.7387433052 97.171943665 1.2538499832
 3143.7072754  -999.250000 -0.210937500 8.2890634537 8.5000000000 0.0292811897 5.7981891632 0.2802079916 2.3751280308 6.7238678932  -999.250000 2.7477159500  -999.250000 0.7040565014 93.045562744 1.1776399612
 3143.8596191  -999.250000 -0.210937500 8.2890634537 8.5000000000 0.0228486098 5.8805308342 0.2761535943 2.3563179970 7.8170700073  -999.250000 2.7754878998  -999.250000 0.6644905806 89.045372009 1.0927059650
 3144.0119629  -999.250000 -0.210937500 8.2890634537 8.5000000000 0.0143264299 5.7797169685 0.2677409053 2.3322329521 8.2651128769  -999.250000 2.6750938892  -999.250000 0.6249343753 85.920158386 1.0468300581
 3144.1645508  -999.250000 -0.210937500 8.2890634537 8.5000000000 0.0096065318 6.0904688835 0.2578815222 2.3089981079 7.9887042046  -999.250000 2.7752161026  -999.250000 0.5903652906 83.302566528 1.0224850178
 3144.3168945  -999.250000 -0.210937500 8.2890634537 8.5000000000 0.0082569150 6.1036472321 0.2412590981 2.2901639938 8.1795692444  -999.250000 2.7452750206  -999.250000 0.5586128831 80.926460266 1.0195330381
 3144.4692383  -999.250000 -0.210937500 8.2890634537 8.5000000000 0.0097232349 6.1183781624 0.2440707982 2.2820589542 8.8201513290  -999.250000 2.7085609436  -999.250000 0.5327212214 79.300399780 1.0000050068
 3144.6215820  -999.250000 -0.203125998 8.2968740463 8.5000000000 0.0093473401 6.2884731293 0.2575902939 2.2755887508 9.2030668259  -999.250000 2.7616989613  -999.250000 0.5166004896 78.174880981 1.0087920427
 3144.7739258  -999.250000 -0.210937500 8.2890634537 8.5000000000 0.0044667139 6.2000041008 0.2609973848 2.2499070168 8.7106981277  -999.250000 2.6718459129  -999.250000 0.5078104138 77.299377441 1.0332020521
 3144.9265137  -999.250000 -0.210937500 8.2890634537 8.5000000000 0.0064266450 6.4743862152 0.2570606172 2.2333610058 8.2189302444  -999.250000 2.7355000973  -999.250000 0.5034167171 76.048492432 1.0302350521
 3145.0788574  -999.250000 -0.210937500 8.2890634537 8.5000000000 0.0063067400 6.5110278130 0.2449247986 2.2315380573 8.4305686951  -999.250000 2.7195479870  -999.250000 0.5019512773 74.298301697 0.9848452806
 3145.2312012  -999.250000 -0.210937500 8.2890634537 8.5000000000 0.0100367600 6.2850289345 0.2408351004 2.2699530125 9.1491851807  -999.250000 2.5096418858  -999.250000 0.5004827976 72.924789429 0.9704164863
 3145.3835449  -999.250000 -0.210937500 8.2890634537 8.5000000000 0.0177729297 7.3906960487 0.2403153032 2.3157789707 9.6170501709  -999.250000 2.8001160622  -999.250000 0.4970627129 72.800956726 1.0971399546
 3145.5361328  -999.250000 -0.210937500 8.2890634537 8.5000000000 0.0272006001 7.6164751053 0.2491513044 2.3336749077 9.5469360352  -999.250000 2.9482979774  -999.250000 0.4931674898 73.299552917 1.3318270445
 3145.6884766  -999.250000 -0.210937500 8.2890634537 8.5000000000 0.0132204304 7.6032562256 0.2538182139 2.3019020557 8.7347831726  -999.250000 2.9631679058  -999.250000 0.4941400886 72.925178528 1.3700979948
 3145.8408203  -999.250000 -0.210937500 8.2890634537 8.5000000000 0.0121447695 7.0180788040 0.2484705895 2.3022069931 7.2775378227  -999.250000 2.6949479580  -999.250000 0.5029284954 72.300071716 1.1865479946
 3145.9931641  -999.250000 -0.210937500 8.2890634537 8.5000000000 0.0128520504 7.2208528519 0.2426697016 2.3433721066 7.2187891006  -999.250000 2.7056241035  -999.250000 0.5092756152 73.050750732 0.9706962109
 3146.1457520  -999.250000 -0.210937500 8.2890634537 8.5000000000 0.0107457796 7.2062468529 0.2418404073 2.3682041168 7.3831720352  -999.250000 2.6108160019  -999.250000 0.5019431710 76.302482605 0.9414801002
 3146.2980957  -999.250000 -0.210937500 8.2890634537 8.5000000000 0.0042675501 7.1904339790 0.2420945019 2.3407690525 7.9766387939  -999.250000 2.5386240482  -999.250000 0.4858263135 80.426689148 1.0635850430
 3146.4504395  -999.250000 -0.210937500 8.2890634537 8.5000000000 -0.003456681 7.1290521622 0.2351320088 2.2777259350 8.0555486679  -999.250000 2.4458439350  -999.250000 0.4721580148 82.171630859 1.1747210026
 3146.6027832  -999.250000 -0.210937500 8.2890634537 8.5000000000 -0.003427664 7.3127889633 0.2410516888 2.2474598885 8.6959276199  -999.250000 2.4876461029  -999.250000 0.4648370147 79.664070129 1.1120369434
 3146.7551270  -999.250000 -0.210937500 8.2890634537 8.5000000000 -0.000070400 7.2696847916 0.2588225901 2.2454450130 9.0552711487  -999.250000 2.3929738998  -999.250000 0.4609242976 73.288833618 0.9558733106
 3146.9077148  -999.250000 -0.210937500 8.2890634537 8.5000000000 0.0048096362 7.1919069290 0.2710435987 2.2494890690 9.3357257843  -999.250000 2.2031180859  -999.250000 0.4545946121 67.929023743 0.8687180281
 3147.0600586  -999.250000 -0.210937500 8.2890634537 8.5000000000 0.0071048862 7.7024450302 0.2702844143 2.2584290504 9.1328907013  -999.250000 2.2195720673  -999.250000 0.4467802942 65.425949097 0.8530334234
