# LAS format log file from PETREL
# Project units are specified as depth units
#==================================================================
~Version information
VERS.   2.0:
WRAP.   NO:
#==================================================================
~Well
STRT .m      2766.8217773 :
STOP .m      3149.9555664 :
STEP .m     0.00000000 :
NULL .        -999.250000 :
COMP.           : COMPANY
WELL.  16/10-2 Delta   : WELL
FLD.            : FIELD
LOC.            : LOCATION
SRVC.           : SERVICE COMPANY
DATE.  2018-09-11 14:48:06   : Log Export Date {yyyy-MM-dd HH:mm:ss}
PROV.           : PROVINCE
UWI.   16/10-2   : UNIQUE WELL ID
API.            : API NUMBER
#==================================================================
~Curve
DEPT .m                   : DEPTH
Lithology_geolink ._      : Lithology_geolink
DCAL .in                  : DCAL
CALI .in                  : CALI
BS .in                    : BS
DRHO .g/cm3               : DRHO
THOR .ppm                 : THOR
NPHI .m3/m3               : NPHI
RHOB .g/cm3               : RHOB
PEF .b/e                  : PEF
GR .gAPI                  : GR
URAN .ppm                 : URAN
DTC .us/ft                : DTC
RDEP .ohm.m               : RDEP
SP .mV                    : SP
RMED .ohm.m               : RMED
~Parameter
#==================================================================
~Ascii
# ...
 2891.6376953 2.0000000000 0.3359279931 8.8359279633 8.5000000000 0.0095387232 4.6331548691 0.3011977971 2.5568659306 7.4744181633 47.502288818 1.5750470161 87.899986267 0.6704537868 77.173973083 1.0056929588
 2891.7900391 2.0000000000 0.3281268775 8.8281269073 8.5000000000 0.0131389201 4.5428190231 0.2986848056 2.5889539719 4.7233610153 45.156848907 2.1271100044 86.900268555 0.7090516686 76.051078796 0.9253435135
 2891.9426270 2.0000000000 0.3437510133 8.8437509537 8.5000000000 0.0116344197 4.4418811798 0.2982935011 2.5119779110 3.8808469772 43.124488831 2.0877261162 86.199737549 0.7575327158 76.556205750 0.9453321695
 2892.0949707 2.0000000000 0.3515625000 8.8515634537 8.5000000000 0.0005894763 3.0694210529 0.2650775909 2.3660058975 3.7755930424 38.621078491 2.0681200027 83.800231934 0.8204786777 78.427589417 1.3933953047
 2892.2473145 1.0000000000 0.3515892029 8.8515892029 8.5000000000 -0.004251148 2.1510860920 0.2179147005 2.2550969124 4.1956291199 30.495759964 1.8199570179 84.300178528 0.9011363983 79.674064636 2.2539176941
 2892.3996582 1.0000000000 0.3829078972 8.8829078674 8.5000000000 0.0048158630 1.9593739510 0.2209293991 2.2572131157 4.5652928352 25.517040253 1.6844739914 84.499877930 1.0082087517 79.296463013 3.0535058975
 2892.5522461 2.0000000000 0.4610491097 8.9610490799 8.5000000000 0.0067577302 4.7344479561 0.2759723067 2.2852001190 3.6551508904 26.678609848 1.5079519749 84.407478333 1.1529916525 78.058395386 3.3266294003
 2892.7045898 2.0000000000 0.5312500000 9.0312500000 8.5000000000 0.0081705181 5.6833281517 0.3144774139 2.3182489872 4.1933889389 30.915340424 1.7544909716 89.097846985 1.2904055119 79.817298889 3.4216461182
 2892.8569336 2.0000000000 0.5312500000 9.0312500000 8.5000000000 0.0434946604 5.7373709679 0.3021393120 2.3371019363 5.2061429024 35.558429718 1.7767620087 88.000961304 1.3955513239 84.678939819 3.3576562405
 2893.0092773 2.0000000000 0.7733144760 9.2733144760 8.5000000000 0.0582999997 5.7337708473 0.2924863100 2.3166520596 9.2010965347 37.311611176 1.7808259726 87.999977112 1.4825153351 89.802406311 3.4678668976
 2893.1616211 2.0000000000 0.8593636155 9.3593635559 8.5000000000 0.0558075607 5.4385910034 0.3368238211 2.2695820332 9.1796903610 41.811878204 1.6431330442 87.800025940 1.5694820881 92.929161072 2.9521315098
 2893.3142090 2.0000000000 0.8359107971 9.3359107971 8.5000000000 0.0624448210 6.7114038467 0.3810538948 2.2685101032 7.2770838737 44.688911438 1.8905849457 86.500358582 1.6682931185 95.807289124 2.2877895832
 2893.4665527 2.0000000000 0.7186660767 9.2186660767 8.5000000000 0.0877331868 6.8579840660 0.3982248008 2.3311979771 6.1519970894 50.781738281 1.9364578724 87.999038696 1.7628363371 97.931594849 1.9177905321
 2893.6188965 2.0000000000 0.5783072114 9.0783071518 8.5000000000 0.0795822665 7.1146130562 0.3709421158 2.3749198914 5.5731778145 51.593780518 2.0776619911 86.398452759 1.8272706270 100.93110657 1.8375352621
 2893.7712402 2.0000000000 0.7653111815 9.2653112411 8.5000000000 0.0744152963 7.0068287849 0.3303319216 2.4018149376 4.4996857643 51.621028900 1.9544169903 84.795722961 1.8750947714 103.30369568 2.0796186924
 2893.9238281 2.0000000000 0.5315970778 9.0315971375 8.5000000000 0.0711973906 6.6766691208 0.3009526134 2.4259579182 4.2651681900 48.650268555 1.8030430079 81.596755981 1.9074892998 104.54878998 2.5879580975
 2894.0761719 2.0000000000 0.7340354323 9.2340345383 8.5000000000 0.0951862186 6.4357151985 0.2832356095 2.4746780396 3.9997010231 45.150489807 1.7769540548 79.698959351 1.9613114595 104.29489899 2.9982829094
 2894.2285156 2.0000000000 0.5704364777 9.0704355240 8.5000000000 0.0855670273 6.1839680672 0.3170686066 2.4586780071 4.7962708473 42.377109528 1.6876809597 79.200378418 2.0645232201 102.92500305 3.0624227524
 2894.3808594 2.0000000000 0.5390748978 9.0390748978 8.5000000000 0.0623052008 6.6303439140 0.3533625007 2.4049749374 3.8636450768 44.342979431 1.9418660402 84.098083496 2.1582098007 102.30039978 3.0452826023
 2894.5334473 2.0000000000 0.2343817055 8.7343816757 8.5000000000 0.0507298484 6.5252017975 0.3936444223 2.3290669918 3.3320419788 48.531158447 1.9441920519 90.399879456 2.1853332520 102.42660522 3.2675707340
 2894.6857910 2.0000000000 0.3046788871 8.8046789169 8.5000000000 0.0478239395 6.5635042191 0.3914276958 2.3053851128 2.8946108818 51.186988831 2.3775320053 93.000183105 2.1188235283 102.92500305 3.8763792515
 2894.8381348 2.0000000000 0.2811317146 8.7811317444 8.5000000000 0.0286106691 6.5916390419 0.3668952882 2.3129599094 3.1235361099 49.719718933 2.3655469418 93.497146606 1.9574996233 102.92379761 4.5813412666
 2894.9904785 2.0000000000 0.1172637939 8.6172637939 8.5000000000 0.0431710593 6.1521058083 0.3488847017 2.4022049904 3.8052990437 51.064670563 2.2029240131 89.496093750 1.7426172495 102.41889191 4.2832551003
 2895.1428223 2.0000000000 0.1873407066 8.6873407364 8.5000000000 0.0478343703 5.4564309120 0.3067777157 2.4561290741 4.3674211502 53.056629181 1.9842659235 85.899116516 1.5443973541 100.16307831 3.5764935017
 2895.2954102 2.0000000000 0.0781250000 8.5781250000 8.5000000000 0.0297784600 2.8775091171 0.2605021000 2.4143240452 4.5267310143 49.009578705 1.6807110310 85.307998657 1.3772767782 96.269927979 3.0429737568
 2895.4477539 2.0000000000 0.0781421736 8.5781421661 8.5000000000 0.0101493197 1.6424969435 0.2128878087 2.3474299908 4.1896200180 37.136989594 1.3795180321 89.695579529 1.2499883175 90.295013428 2.6563212872
 2895.6000977 2.0000000000 0.0859327316 8.5859327316 8.5000000000 0.0058922628 1.6859040260 0.1990321875 2.3440139294 3.3755218983 25.632369995 1.3697359562 87.601356506 1.1659677029 83.418579102 2.4568614960
 2895.7524414 2.0000000000 0.0859375000 8.5859384537 8.5000000000 0.0121242702 3.5759880543 0.2287364006 2.3918290138 3.3828101158 24.562789917 1.5933630466 86.100410461 1.1034349203 76.674209595 2.2711842060
 2895.9050293 2.0000000000 0.1406192929 8.6406192780 8.5000000000 0.0298448894 4.9482097626 0.2715069950 2.4769759178 3.6386930943 29.094549179 1.8106180429 81.199623108 1.0427753925 75.061126709 2.0528309345
 2896.0573730 2.0000000000 0.0858678743 8.5858678818 8.5000000000 0.0326058492 5.4504270554 0.2942444980 2.4990279675 3.8572390079 37.345649719 2.1791739464 77.300376892 0.9842312932 78.435073853 2.0822458267
 2896.2097168 2.0000000000 -0.062545776 8.4374542236 8.5000000000 0.0329053290 4.7420310974 0.2886213958 2.5060238838 3.4666728973 41.408569336 1.9595400095 78.099243164 0.9153264761 83.305770874 2.1857843399
 2896.3620605 2.0000000000 -0.117281899 8.3827180862 8.5000000000 0.0417660400 4.5074329376 0.2554391026 2.5239520073 3.3189969063 44.184940338 1.8498419523 77.206016541 0.8342226148 85.671813965 2.2831420898
 2896.5146484 2.0000000000 -0.195337296 8.3046627045 8.5000000000 0.0317160785 3.9466991425 0.2363051921 2.5124769211 3.8486459255 42.051280975 1.4687910080 82.199226379 0.7471203208 84.526069641 2.2611215115
 2896.6669922 1.0000000000 -0.210891694 8.2891082764 8.5000000000 0.0242118202 3.1608750820 0.2092818022 2.4621450901 4.4776830673 34.923660278 1.2684019804 81.702316284 0.6573953032 79.515960693 2.1359908581
 2896.8193359 1.0000000000 -0.187520996 8.3124790192 8.5000000000 0.0171684399 2.5772418976 0.1894236952 2.3890180588 5.0541729927 27.803230286 1.0436609983 82.898933411 0.5707545280 69.915115356 1.9305151701
 2896.9716797 1.0000000000 -0.195308715 8.3046913147 8.5000000000 0.0140726604 2.3026070595 0.1783783883 2.3309440613 4.9102320671 20.160249710 0.9743429422 84.299270630 0.4970092475 58.413776398 1.7234904766
 2897.1240234 1.0000000000 -0.203123987 8.2968759537 8.5000000000 0.0117486101 2.5218260288 0.1831711978 2.3009250164 4.8710999489 20.765529633 1.0941849947 85.299850464 0.4364538193 47.666629791 1.5672097206
 2897.2766113 1.0000000000 -0.203123078 8.2968769073 8.5000000000 0.0115402397 3.3866350651 0.1835827082 2.3019740582 4.4843688011 24.156789780 1.5993399620 82.399818420 0.3875697851 41.414321899 1.4440250397
 2897.4289551 1.0000000000 -0.195317313 8.3046827316 8.5000000000 0.0107251797 3.2363939285 0.1871886998 2.3109550476 4.4568958282 26.654859543 1.4613440037 81.599830627 0.3510214388 38.297809601 1.3529882431
