# LAS format log file from PETREL
# Project units are specified as depth units
#==================================================================
~Version information
VERS.   2.0:
WRAP.   NO:
#==================================================================
~Well
STRT .m      2766.8217773 :
STOP .m      3149.9555664 :
STEP .m     0.00000000 :
NULL .        -999.250000 :
COMP.           : COMPANY
WELL.  16/10-2 Delta   : WELL
FLD.            : FIELD
LOC.            : LOCATION
SRVC.           : SERVICE COMPANY
DATE.  2018-09-11 14:48:06   : Log Export Date {yyyy-MM-dd HH:mm:ss}
PROV.           : PROVINCE
UWI.   16/10-2   : UNIQUE WELL ID
API.            : API NUMBER
#==================================================================
~Curve
DEPT .m                   : DEPTH
Lithology_geolink ._      : Lithology_geolink
DCAL .in                  : DCAL
CALI .in                  : CALI
BS .in                    : BS
DRHO .g/cm3               : DRHO
THOR .ppm                 : THOR
NPHI .m3/m3               : NPHI
RHOB .g/cm3               : RHOB
PEF .b/e                  : PEF
GR .gAPI                  : GR
URAN .ppm                 : URAN
DTC .us/ft                : DTC
RDEP .ohm.m               : RDEP
SP .mV                    : SP
RMED .ohm.m               : RMED
~Parameter
#==================================================================
~Ascii
# ...
 3064.0019531 2.0000000000 -0.210937500 8.2890634537 8.5000000000 0.0138603998 8.4991788864 0.2257452011 2.4582579136 3.9159710407 57.049747467 0.8744423985 76.796073914 1.0205299854 96.926406860 1.7371799946
 3064.1542969 2.0000000000 -0.210937500 8.2890634537 8.5000000000 0.0146003999 8.1607418060 0.2390937954 2.4561738968 3.7695009708 67.046134949 0.7404214740 79.596466064 1.0947419405 101.55190277 1.3319549561
 3064.3066406 2.0000000000 -0.210937500 8.2890634537 8.5000000000 0.0088818716 7.1720018387 0.2448457927 2.4286510944 3.7248630524 66.559417725 0.4710741937 80.999832153 1.1171590090 104.42620087 1.2187160254
 3064.4589844 1.0000000000 -0.210937500 8.2890634537 8.5000000000 0.0056442660 7.0168161392 0.2355769873 2.4022519588 3.9675788879 62.846908569 0.4495132864 82.993598938 1.0897769928 105.54949951 1.1865979433
 3064.6115723 1.0000000000 -0.210937500 8.2890634537 8.5000000000 0.0069194320 9.2984628677 0.2328827083 2.4051649570 4.5201101303 56.671871185 0.5865352750 82.998573303 1.0438419580 105.17169952 1.2395310402
 3064.7639160 1.0000000000 -0.210937500 8.2890634537 8.5000000000 0.0128827197 10.080309868 0.2508946061 2.4280600548 4.8444380760 59.866489410 0.7226762176 82.202133179 0.9873623848 103.30200195 1.3924169540
 3064.9162598 1.0000000000 -0.210937500 8.2890634537 8.5000000000 0.0139132300 8.6418895721 0.2515517175 2.4269111156 5.1638450623 64.614143372 0.1148620993 83.796348572 0.9204542041 101.55120087 1.4813849926
 3065.0686035 1.0000000000 -0.210937500 8.2890634537 8.5000000000 0.0109820599 5.1091990471 0.2438754141 2.3753719330 5.8044872284 65.372352600 -0.295026600 83.202102661 0.8637866974 99.550613403 1.3935819864
 3065.2211914 1.0000000000 -0.210937500 8.2890634537 8.5000000000 0.0088657532 4.4377431870 0.2299427986 2.3304779530 6.0390768051 54.672916412 -0.337642699 83.998794556 0.8251932263 95.424568176 1.3056620359
 3065.3735352 1.0000000000 -0.210937500 8.2890634537 8.5000000000 0.0085088983 4.3376531601 0.2291640043 2.3020699024 6.3047342300 45.669342041 -0.301880807 85.298049927 0.7880672216 87.921691895 1.2685749531
 3065.5258789 1.0000000000 -0.210937500 8.2890634537 8.5000000000 0.0099950479 4.3325138092 0.2394698858 2.2996029854 6.4141221046 42.537475586 -0.232469097 85.600105286 0.7450758219 80.171012878 1.3164190054
 3065.6782227 1.0000000000 -0.210937500 8.2890634537 8.5000000000 0.0093286652 4.6224660873 0.2506943047 2.2912590504 6.4880042076 44.059757233 -0.013284730 86.299438477 0.6947720051 75.173240662 1.3320230246
 3065.8305664 1.0000000000 -0.210937500 8.2890634537 8.5000000000 0.0109656705 4.6613731384 0.2623487115 2.2880969048 6.2496290207 43.809242249 0.0944891870 86.799003601 0.6513172984 73.673263550 1.3251669407
 3065.9831543 1.0000000000 -0.210937500 8.2890634537 8.5000000000 0.0104319602 4.5161318779 0.2622818053 2.2845449448 6.0078568459 41.165000916 0.1178392991 87.198234558 0.6195759177 72.546432495 1.3065810204
 3066.1354980 1.0000000000 -0.210937500 8.2890634537 8.5000000000 0.0067711058 4.4648289680 0.2554591000 2.2768099308 6.0312280655 43.525245667 0.1319895983 86.601524353 0.5923100114 70.676727295 1.2754199505
 3066.2878418 1.0000000000 -0.210937500 8.2890634537 8.5000000000 0.0045955521 4.4136300087 0.2494315952 2.2724430561 6.1015229225 42.782867432 0.1180922017 88.994812012 0.5639805198 69.425689697 1.2246379852
 3066.4401855 1.0000000000 -0.210937500 8.2890634537 8.5000000000 0.0064852131 4.2917699814 0.2519297898 2.2706758976 6.3124589920 42.282951355 0.0834733322 87.604751587 0.5341852903 69.424987793 1.2031290531
 3066.5927734 1.0000000000 -0.210937500 8.2890634537 8.5000000000 0.0046372451 3.4929330349 0.2495639920 2.2654209137 6.6874790192 37.413803101 -0.053259440 89.996208191 0.5039017797 68.924858093 1.1923789978
 3066.7451172 1.0000000000 -0.210937500 8.2890634537 8.5000000000 0.0063696369 3.3206570148 0.2499205917 2.2502570152 6.5664739609 35.907585144 -0.134844601 90.299583435 0.4789952934 68.174026489 1.1699210405
 3066.8974609 1.0000000000 -0.210937500 8.2890634537 8.5000000000 0.0083205691 3.0856759548 0.2468724102 2.2373850346 6.6910319328 33.941539764 -0.192820296 90.400108337 0.4633713067 66.421791077 1.1689360142
 3067.0498047 1.0000000000 -0.210937500 8.2890634537 8.5000000000 0.0116465800 3.1900300980 0.2551040947 2.2356960773 6.2814860344 34.905384064 -0.073220827 90.699157715 0.4550749958 62.920986176 1.1591559649
 3067.2023926 1.0000000000 -0.210937500 8.2890634537 8.5000000000 0.0118442103 3.3166480064 0.2606745958 2.2383859158 6.4647212029 36.656951904 0.0361679308 90.800498962 0.4526430964 59.799579620 1.1405489445
 3067.3547363 1.0000000000 -0.210937500 8.2890634537 8.5000000000 0.0121586304 4.3720560074 0.2667878866 2.2470469475 6.3903570175 38.784389496 0.6389024258 91.195945740 0.4565634131 59.554019928 1.0946459770
 3067.5070801 1.0000000000 -0.210937500 8.2890634537 8.5000000000 0.0089995386 4.5503549576 0.2630017996 2.2514529228 6.2579197884 42.023418427 0.7714645267 89.504096985 0.4667884111 61.548370361 1.0547200441
 3067.6594238 1.0000000000 -0.210937500 8.2890634537 8.5000000000 0.0105234096 4.2818651199 0.2588425875 2.2784559727 6.4257059097 44.775611877 0.6180034280 87.504096985 0.4848550856 64.298759460 1.0595680475
 3067.8117676 1.0000000000 -0.210937500 8.2890634537 8.5000000000 0.0089199590 4.1605381966 0.2536441088 2.2948219776 6.8905892372 43.909114838 0.4982500076 84.808860779 0.5107402205 67.049766541 1.1445250511
 3067.9643555 1.0000000000 -0.210937500 8.2890634537 8.5000000000 0.0064157401 3.9601659775 0.2370544076 2.3090639114 7.7187027931 40.910579681 0.3432036042 82.104393005 0.5410252810 69.675636292 1.2734789848
 3068.1166992 2.0000000000 -0.210937500 8.2890634537 8.5000000000 0.0040231012 4.0564208031 0.2256384045 2.3102750778 7.5580968857 39.251243591 0.3794342875 82.299606323 0.5752193928 71.925399780 1.4141590595
 3068.2690430 2.0000000000 -0.210937500 8.2890634537 8.5000000000 0.0064876280 3.8011310101 0.2149414122 2.3243188858 6.8080830574 37.129432678 0.0112247001 82.199645996 0.6128314734 72.549987793 1.5597250462
 3068.4213867 2.0000000000 -0.210937500 8.2890634537 8.5000000000 0.0015974520 4.3267469406 0.2151720971 2.3148939610 6.3121719360 38.121494293 0.8545702100 81.705085754 0.6514139175 72.549293518 1.7099540234
 3068.5739746 2.0000000000 -0.210937500 8.2890634537 8.5000000000 0.0019329221 4.8260250092 0.2084606886 2.3088989258 6.0778350830 37.911014557 1.3021910191 84.193168640 0.6855943203 72.050651550 1.7049330473
 3068.7263184 2.0000000000 -0.210937500 8.2890634537 8.5000000000 0.0043783900 5.7940049171 0.2093384862 2.3228940964 5.9127378464 40.408100128 1.8200789690 82.599586487 0.7129235864 72.429786682 1.6228820086
 3068.8786621 2.0000000000 -0.210937500 8.2890634537 8.5000000000 0.0148396287 5.8772759438 0.2241467983 2.3743979931 5.2934007645 43.149944305 1.8982880116 81.203193665 0.7285047174 74.673423767 1.5459519625
 3069.0310059 2.0000000000 -0.210937500 8.2890634537 8.5000000000 0.0218931306 5.8786969185 0.2456955910 2.4107079506 5.2148690224 50.878910065 2.2504251003 81.100334167 0.7309563160 78.923591614 1.4170349836
 3069.1835938 2.0000000000 -0.210937500 8.2890634537 8.5000000000 0.0238224901 4.9614081383 0.2451759875 2.3959701061 5.2226772308 58.924686432 1.7987250090 81.399589539 0.7309573293 85.300201416 1.2548789978
 3069.3359375 2.0000000000 -0.210937500 8.2890634537 8.5000000000 0.0123507101 4.0657181740 0.2431229949 2.3420679569 5.7304911613 60.340370178 0.9626653790 83.297691345 0.7373095751 90.425552368 1.1650760174
 3069.4882813 2.0000000000 -0.210937500 8.2890634537 8.5000000000 0.0109665096 4.0699992180 0.2333530933 2.3154649734 5.7852988243 57.594043732 0.9957176447 85.097099304 0.7495216131 91.797836304 1.2549929619
 3069.6406250 2.0000000000 -0.210937500 8.2890634537 8.5000000000 0.0068018748 3.9958498478 0.2404887080 2.3009049892 5.9690151215 52.316654205 0.9299501777 85.100349426 0.7622131705 89.047836304 1.3965840340
 3069.7929688 2.0000000000 -0.210937500 8.2890634537 8.5000000000 0.0052761268 3.9032421112 0.2388480008 2.2979040146 6.1993141174 48.569751740 0.8305385113 85.396919250 0.7675811052 87.175369263 1.4833689928
