# LAS format log file from PETREL
# Project units are specified as depth units
#==================================================================
~Version information
VERS.   2.0:
WRAP.   NO:
#==================================================================
~Well
STRT .m      439.11318970 :
STOP .m      3157.0148926 :
STEP .m     0.00000000 :
NULL .        -999.250000 :
COMP.           : COMPANY
WELL.  16/10-1 Alpha   : WELL
FLD.            : FIELD
LOC.            : LOCATION
SRVC.           : SERVICE COMPANY
DATE.  2018-09-11 14:48:05   : Log Export Date {yyyy-MM-dd HH:mm:ss}
PROV.           : PROVINCE
UWI.   16/10-1   : UNIQUE WELL ID
API.            : API NUMBER
#==================================================================
~Curve
DEPT .m                   : DEPTH
Lithology_geolink ._      : Lithology_geolink
DCAL .in                  : DCAL
CALI .in                  : CALI
BS .in                    : BS
DRHO .g/cm3               : DRHO
NPHI .m3/m3               : NPHI
RHOB .g/cm3               : RHOB
PEF .b/e                  : PEF
GR .gAPI                  : GR
DTC .us/ft                : DTC
RDEP .ohm.m               : RDEP
SP .mV                    : SP
RSHA .ohm.m               : RSHA
RXO .ohm.m                : RXO
RMED .ohm.m               : RMED
~Parameter
#==================================================================
~Ascii
# ...
 3149.3947754  -999.250000 3.2500002384 11.750000954 8.5000000000 0.0183000006 -0.015600000 2.0041999817 10.374790192 12.837599754  -999.250000 2000.0000000 12.520520210  -999.250000  -999.250000 612.68121338
 3149.5473633  -999.250000 3.4140996933 11.914100647 8.5000000000 0.0428999998 -0.015200000 2.0190000534 11.899310112 13.573699951  -999.250000 2000.0000000 12.271069527  -999.250000  -999.250000 781.53430176
 3149.6997070  -999.250000 3.5546998978 12.054699898 8.5000000000 0.0480000004 -0.016000001 2.0288999081 11.004650116 14.471799850  -999.250000 2000.0000000 11.863220215  -999.250000  -999.250000 1007.0560303
 3149.8520508  -999.250000 3.4375000000 11.937500000 8.5000000000 0.0368000008 -0.016200000 2.0337998867 9.7082328796  -999.250000  -999.250000 2000.0000000 11.508649826  -999.250000  -999.250000 711.12500000
 3150.0043945  -999.250000 3.2344000340 11.734398842 8.5000000000 0.0263999999 -0.016500000 2.0438001156 9.1708230972  -999.250000  -999.250000 2000.0000000 12.008649826  -999.250000  -999.250000 712.07537842
 3150.1569824  -999.250000 3.0469000340 11.546898842 8.5000000000 0.0171000008 -0.015699999 2.0427999496 9.2515773773  -999.250000  -999.250000 2000.0000000 12.429320335  -999.250000  -999.250000 995.38171387
 3150.3093262  -999.250000 2.9219000340 11.421898842 8.5000000000 0.0130000003 -0.015600000 2.0394001007 8.5206203461  -999.250000  -999.250000 2000.0000000 12.282690048  -999.250000  -999.250000 729.11572266
 3150.4616699  -999.250000 2.9375002384 11.437500954 8.5000000000 0.0116999997 -0.015600000 2.0390999317 7.5768861771  -999.250000  -999.250000 2000.0000000 11.520270348  -999.250000  -999.250000 866.44128418
 3150.6140137  -999.250000 2.9063000679 11.406299591 8.5000000000 0.0057000001 -0.015200000 2.0397999287 7.0311188698  -999.250000  -999.250000 2000.0000000 11.429719925  -999.250000  -999.250000 790.84387207
 3150.7663574  -999.250000 2.9375002384 11.437500954 8.5000000000 0.0033000000 -0.015200000 2.0474998951 6.9366741180  -999.250000  -999.250000 2000.0000000 11.679470062  -999.250000  -999.250000 884.14282227
 3150.9189453  -999.250000 3.0703003407 11.570300102 8.5000000000 0.0008000000 -0.015600000 2.0385000706 7.0822072029  -999.250000  -999.250000 2000.0000000 11.928919792  -999.250000  -999.250000 902.74737549
 3151.0712891  -999.250000 3.3124997616 11.812500000 8.5000000000 0.0100999996 -0.016100001 2.0188000202 7.9274721146  -999.250000  -999.250000 2000.0000000 12.257849693  -999.250000  -999.250000 1032.5909424
 3151.2236328  -999.250000 3.6561999321 12.156200409 8.5000000000 0.0256999992 -0.016100001 1.9873000383 10.225589752  -999.250000  -999.250000 2000.0000000 12.758649826  -999.250000  -999.250000 790.90380859
 3151.3759766  -999.250000 4.1328001022 12.632800102 8.5000000000 0.0465999991 -0.016200000 1.9550000429 13.842550278  -999.250000  -999.250000 1944.7969971 12.941340446  -999.250000  -999.250000 888.59191895
 3151.5285645  -999.250000 4.5858998299 13.085900307 8.5000000000 0.0463000014 -0.017600000 1.9205000401 16.707479477  -999.250000  -999.250000 339.34359741 12.282690048  -999.250000  -999.250000 892.50000000
 3151.6809082  -999.250000 5.0781002045 13.578101158 8.5000000000 0.0405000001 -0.018600000 1.9161000252 15.815349579  -999.250000  -999.250000 32.538299561 11.520669937  -999.250000  -999.250000 891.93377686
 3151.8332520  -999.250000 5.2343993187 13.734399796 8.5000000000 0.0322999991 -0.018600000 1.9377000332 14.601799965  -999.250000  -999.250000 32.818599701 11.668910027  -999.250000  -999.250000 772.58471680
 3151.9855957  -999.250000 4.9061999321 13.406200409 8.5000000000 0.0269000009 -0.018100001 1.9789999723 13.282460213  -999.250000  -999.250000 47.853099823 12.747360229  -999.250000  -999.250000 619.57867432
 3152.1381836  -999.250000 4.4531002045 12.953101158 8.5000000000 0.0219000001 -0.017100001 2.0032999516 12.929409981  -999.250000  -999.250000 47.496299744 13.678919792  -999.250000  -999.250000 877.38598633
 3152.2905273  -999.250000 4.2578001022 12.757800102 8.5000000000 0.0153000001 -0.017000001 2.0111999512 12.392939568  -999.250000  -999.250000 27.925699234 13.534290314  -999.250000  -999.250000 792.18182373
 3152.4428711  -999.250000 3.2890999317 11.789100647 8.5000000000 0.0122999996 -0.016100001 2.0074999332 14.063400269  -999.250000  -999.250000 16.470800400 12.612019539  -999.250000  -999.250000 1031.3559570
 3152.5952148  -999.250000 2.3750000000 10.875000000 8.5000000000 0.0109999999 -0.015100000 1.9976999760 15.913390160  -999.250000  -999.250000 13.534600258 11.941340446  -999.250000  -999.250000 889.50646973
 3152.7475586  -999.250000 1.8358999491 10.335900307 8.5000000000 0.0199999996 -0.013700000 1.9826999903 17.486030579  -999.250000  -999.250000 161.78529358 11.441340446  -999.250000  -999.250000 687.19097900
 3152.9001465  -999.250000 1.3983999491 9.8984003067 8.5000000000 0.0298999995 -0.012200000 1.9710999727 16.645879745  -999.250000  -999.250000 1848.8649902 11.179320335  -999.250000  -999.250000 564.99847412
 3153.0524902  -999.250000 1.0155999660 9.5156002045 8.5000000000 0.0442999974 -0.011200000 1.9737999439 16.977159500  -999.250000  -999.250000 2000.0000000 11.350000381  -999.250000  -999.250000 604.34277344
 3153.2048340  -999.250000 0.5234003067 9.0234003067 8.5000000000 0.0432000011 -0.009400000 1.9701000452 18.748050690  -999.250000  -999.250000 2000.0000000 11.270270348  -999.250000  -999.250000 645.59790039
 3153.3571777  -999.250000 0.2500000000 8.7500000000 8.5000000000 0.0516000018 -0.008300000 1.9673999548 20.620719910  -999.250000  -999.250000 2000.0000000 10.702630043  -999.250000  -999.250000 1020.3989868
 3153.5097656  -999.250000 -0.023400312 8.4765996933 8.5000000000 0.0500999987 -0.007300000 1.9404000044 21.955600739  -999.250000  -999.250000 2000.0000000 9.6921463013  -999.250000  -999.250000 1109.8380127
 3153.6621094  -999.250000 -0.210900307 8.2890996933 8.5000000000 0.0505000018 -0.006300000 1.9101999998 22.367460251  -999.250000  -999.250000 2000.0000000 9.4289245605  -999.250000  -999.250000 1625.7480469
 3153.8144531  -999.250000 -0.574200213 7.9258003235 8.5000000000 0.0480999984 -0.005400000 1.8813999891 24.400840759  -999.250000  -999.250000 2000.0000000 9.7586517334  -999.250000  -999.250000 1308.0899658
 3153.9667969  -999.250000 -0.843800128 7.6562004089 8.5000000000 0.0480000004 -0.004400000 1.8595000505 27.115230560  -999.250000  -999.250000 2000.0000000 9.7826890945  -999.250000  -999.250000 1089.6860352
 3154.1193848  -999.250000 -1.074200034 7.4257998466 8.5000000000 0.0368999988 -0.003400000 1.8393000364 27.867189407  -999.250000  -999.250000 2000.0000000 9.1793251038  -999.250000  -999.250000 1256.2640381
 3154.2717285  -999.250000 -1.648399949 6.8516001701 8.5000000000 0.0080000004 -0.001900000 1.8262000084 25.350360870  -999.250000  -999.250000 2000.0000000 9.5086526871  -999.250000  -999.250000 922.26989746
 3154.4240723  -999.250000 -2.457000017 6.0430006981 8.5000000000 -0.010000000 0.0004000000 1.8481999636 23.141899109  -999.250000  -999.250000 2000.0000000 9.7702713013  -999.250000  -999.250000 1073.5080566
 3154.5764160  -999.250000 -2.664099932 5.8358993530 8.5000000000 -0.020600000  -999.250000 1.8837001324 22.333820343  -999.250000  -999.250000 2000.0000000 9.4405431747  -999.250000  -999.250000 1585.4930420
 3154.7287598  -999.250000 -2.777299881 5.7227001190 8.5000000000 -0.017700000  -999.250000 1.9164999723 21.982000351  -999.250000  -999.250000 2000.0000000 9.0205259323  -999.250000  -999.250000 1296.4479980
 3154.8813477  -999.250000 -2.863300085 5.6367001534 8.5000000000 -0.021000000  -999.250000 1.9257999659 22.587640762  -999.250000  -999.250000 2000.0000000 8.7710723877  -999.250000  -999.250000 1057.0000000
 3155.0336914  -999.250000 -2.886699677 5.6132998466 8.5000000000 -0.026799999  -999.250000 1.9266999960 26.809669495  -999.250000  -999.250000 2000.0000000 8.4421463013  -999.250000  -999.250000 1059.9320068
 3155.1860352  -999.250000 -2.886699677 5.6132998466 8.5000000000 -0.030700000  -999.250000 1.9247000217 30.573020935  -999.250000  -999.250000 2000.0000000 8.2586526871  -999.250000  -999.250000 1297.1049805
