# LAS format log file from PETREL
# Project units are specified as depth units
#==================================================================
~Version information
VERS.   2.0:
WRAP.   NO:
#==================================================================
~Well
STRT .m      439.11318970 :
STOP .m      3157.0148926 :
STEP .m     0.00000000 :
NULL .        -999.250000 :
COMP.           : COMPANY
WELL.  16/10-1 Alpha   : WELL
FLD.            : FIELD
LOC.            : LOCATION
SRVC.           : SERVICE COMPANY
DATE.  2018-09-11 14:48:05   : Log Export Date {yyyy-MM-dd HH:mm:ss}
PROV.           : PROVINCE
UWI.   16/10-1   : UNIQUE WELL ID
API.            : API NUMBER
#==================================================================
~Curve
DEPT .m                   : DEPTH
Lithology_geolink ._      : Lithology_geolink
DCAL .in                  : DCAL
CALI .in                  : CALI
BS .in                    : BS
DRHO .g/cm3               : DRHO
NPHI .m3/m3               : NPHI
RHOB .g/cm3               : RHOB
PEF .b/e                  : PEF
GR .gAPI                  : GR
DTC .us/ft                : DTC
RDEP .ohm.m               : RDEP
SP .mV                    : SP
RSHA .ohm.m               : RSHA
RXO .ohm.m                : RXO
RMED .ohm.m               : RMED
~Parameter
#==================================================================
~Ascii
# ...
 641.19561768  -999.250000 0.5625000000 18.062500000 17.500000000  -999.250000  -999.250000  -999.250000  -999.250000 102.63430023 158.21690369 0.6654999852 78.020034790 0.7646999955 0.7081485987 0.6951000094
 641.34802246  -999.250000 0.4843997955 17.984399796 17.500000000  -999.250000  -999.250000  -999.250000  -999.250000 104.22489929 158.39439392 0.6801999807 78.009994507 0.6608999968 0.6498041749 0.6406999826
 641.50042725  -999.250000 0.3281002045 17.828100204 17.500000000  -999.250000  -999.250000  -999.250000  -999.250000 106.97080231 160.13461304 0.7142999768 78.349914551 0.6506999731 0.6667076349 0.6528000236
 641.65283203  -999.250000 0.2500000000 17.750000000 17.500000000  -999.250000  -999.250000  -999.250000  -999.250000 102.78260040 160.72999573 0.7480999827 78.110115051 0.6819999814 0.6898590326 0.7623000145
 641.80523682  -999.250000 0.1874999851 17.687500000 17.500000000  -999.250000  -999.250000  -999.250000  -999.250000 99.633102417 160.83630371 0.7732999921 77.840103149 0.7020000219 0.7471986413 0.9405000210
 641.95764160  -999.250000 0.1874999851 17.687500000 17.500000000  -999.250000  -999.250000  -999.250000  -999.250000 103.46240234 159.35231018 0.8083000183 78.350044250 0.7853999734 0.7935326695 1.0523999929
 642.10998535  -999.250000 0.2031002045 17.703100204 17.500000000  -999.250000  -999.250000  -999.250000  -999.250000 105.54576874 158.81060791 0.8596794605 78.429870605 0.7961956263 0.8089027405 1.0571980476
 642.26239014  -999.250000 0.1874999851 17.687500000 17.500000000  -999.250000  -999.250000  -999.250000  -999.250000 105.22522736 159.01931763 0.8968850970 78.679832458 0.8116937876 0.7645182014 0.9629377723
 642.41473389  -999.250000 0.2812995911 17.781299591 17.500000000  -999.250000  -999.250000  -999.250000  -999.250000 97.659866333 159.57276917 0.8906050920 78.889938354 0.7164763808 0.6719679236 0.8184158206
 642.56713867  -999.250000 0.3593997955 17.859399796 17.500000000  -999.250000  -999.250000  -999.250000  -999.250000 97.025802612 161.01585388 0.8223547339 79.134658813 0.6417598724 0.6440480351 0.7371650338
 642.71954346  -999.250000 0.5000000000 18.000000000 17.500000000  -999.250000  -999.250000  -999.250000  -999.250000 97.382209778 162.67376709 0.7381674051 79.295173645 0.6530908942 0.6684994102 0.7369001508
 642.87194824  -999.250000 0.4843997955 17.984399796 17.500000000  -999.250000  -999.250000  -999.250000  -999.250000 97.960968018 163.27523804 0.6663287878 78.812553406 0.6796893477 0.6686295867 0.7767840028
 643.02435303  -999.250000 0.2656002045 17.765600204 17.500000000  -999.250000  -999.250000  -999.250000  -999.250000 99.993385315 164.12835693 0.6196187139 78.719886780 0.6587083936 0.6740961075 0.7816980481
 643.17675781  -999.250000 0.2500000000 17.750000000 17.500000000  -999.250000  -999.250000  -999.250000  -999.250000 100.53548431 162.31503296 0.6070050597 79.174919128 0.6876883507 0.6580656767 0.7169259191
 643.32916260  -999.250000 0.3281002045 17.828100204 17.500000000  -999.250000  -999.250000  -999.250000  -999.250000 100.10797119 162.48851013 0.6155965328 79.759857178 0.6314225197 0.6331934333 0.6216381192
 643.48156738  -999.250000 0.3593997955 17.859399796 17.500000000  -999.250000  -999.250000  -999.250000  -999.250000 98.563117981 162.00018311 0.6166995764 80.239936829 0.6361981034 0.6514348984 0.5889131427
 643.63397217  -999.250000 0.3281002045 17.828100204 17.500000000  -999.250000  -999.250000  -999.250000  -999.250000 97.614181519 162.26098633 0.6124017239 80.337677002 0.6644886732 0.6612743139 0.6444777250
 643.78637695  -999.250000 0.3125000000 17.812500000 17.500000000  -999.250000  -999.250000  -999.250000  -999.250000 96.100799561 163.24960327 0.6123000383 79.852531433 0.6579025984 0.6489519477 0.7287662625
 643.93878174  -999.250000 0.2968997955 17.796899796 17.500000000  -999.250000  -999.250000  -999.250000  -999.250000 99.966552734 164.18893433 0.6290932894 79.485519409 0.6437056661 0.6718698144 0.7879762650
 644.09118652  -999.250000 0.2500000000 17.750000000 17.500000000  -999.250000  -999.250000  -999.250000  -999.250000 104.76857758 163.78826904 0.6846777201 78.895141602 0.6954792738 0.6952742934 0.7899992466
 644.24359131  -999.250000 0.2031002045 17.703100204 17.500000000  -999.250000  -999.250000  -999.250000  -999.250000 110.34126282 163.95494080 0.7588702440 78.625221252 0.6929010153 0.6930644512 0.7995961308
 644.39593506  -999.250000 0.2656002045 17.765600204 17.500000000  -999.250000  -999.250000  -999.250000  -999.250000 105.79824829 163.50025940 0.7975689769 78.073081970 0.6973963976 0.7227307558 0.8497597575
 644.54833984  -999.250000 0.2656002045 17.765600204 17.500000000  -999.250000  -999.250000  -999.250000  -999.250000 105.10714722 162.92695618 0.8122882247 77.489707947 0.7413647771 0.7315006256 0.9018582702
 644.70074463  -999.250000 0.2968997955 17.796899796 17.500000000  -999.250000  -999.250000  -999.250000  -999.250000 104.85340881 161.52052307 0.8311848640 77.727561951 0.7193176746 0.7175322175 0.9095938802
 644.85314941  -999.250000 0.3125000000 17.812500000 17.500000000  -999.250000  -999.250000  -999.250000  -999.250000 107.08050537 160.25061035 0.8798804879 77.560020447 0.7101036906 0.6674373150 0.8540222645
 645.00555420  -999.250000 0.2656002045 17.765600204 17.500000000  -999.250000  -999.250000  -999.250000  -999.250000 102.90316772 159.10284424 0.9462734461 77.794723511 0.6385286450 0.6730304360 0.8009212613
 645.15795898  -999.250000 0.2031002045 17.703100204 17.500000000  -999.250000  -999.250000  -999.250000  -999.250000 101.24866486 159.06129456 1.0036770105 78.475013733 0.7103711963 0.7249835730 0.8293886185
 645.31036377  -999.250000 0.1093998030 17.609399796 17.500000000  -999.250000  -999.250000  -999.250000  -999.250000 103.12015533 159.68955994 1.0478823185 78.475013733 0.7283927798 0.7165650725 0.9198637605
 645.46276855  -999.250000 0.0625000000 17.562500000 17.500000000  -999.250000  -999.250000  -999.250000  -999.250000 99.597610474 159.76914978 1.0943814516 78.794860840 0.7037099004 0.6944841743 1.0246580839
 645.61517334  -999.250000 0.0156001989 17.515600204 17.500000000  -999.250000  -999.250000  -999.250000  -999.250000 97.870193481 159.98181152 1.1678705215 79.514968872 0.6904053092 0.7066928148 1.0679826736
 645.76757813  -999.250000 0.0000000000 17.500000000 17.500000000  -999.250000  -999.250000  -999.250000  -999.250000 103.78363037 160.04956055 1.2318743467 79.759933472 0.7185887098 0.6995170116 1.0774961710
 645.91998291  -999.250000 0.0000000000 17.500000000 17.500000000  -999.250000  -999.250000  -999.250000  -999.250000 111.94842529 160.82269287 1.2991731167 79.940147400 0.6806151867 0.6795967221 1.0773000717
 646.07238770  -999.250000 0.1250000000 17.625000000 17.500000000  -999.250000  -999.250000  -999.250000  -999.250000 112.53936005 162.68765259 1.3411831856 79.520141602 0.6802001595 0.6724842191 1.0777997971
 646.22479248  -999.250000 0.1562996209 17.656299591 17.500000000  -999.250000  -999.250000  -999.250000  -999.250000 105.69464111 163.47090149 1.3526953459 79.350013733 0.6621072888 0.6165663004 1.0730018616
 646.37719727  -999.250000 0.2031002045 17.703100204 17.500000000  -999.250000  -999.250000  -999.250000  -999.250000 106.14951324 163.48031616 1.3428039551 78.870819092 0.5776338577 0.6027408838 1.0630040169
 646.52954102  -999.250000 0.2031002045 17.703100204 17.500000000  -999.250000  -999.250000  -999.250000  -999.250000 110.04708099 162.75669861 1.3339071274 78.149360657 0.6287589669 0.6737564206 1.0703940392
 646.68194580  -999.250000 -0.140600204 17.359399796 17.500000000  -999.250000  -999.250000  -999.250000  -999.250000 113.04729462 162.50140381 1.3203108311 79.147178650 0.7136319876 0.7209190726 1.0819907188
 646.83435059  -999.250000 -0.406200409 17.093799591 17.500000000  -999.250000  -999.250000  -999.250000  -999.250000 110.73725128 162.74130249 1.3018147945 80.072433472 0.7264897227 0.7168874741 1.0914924145
 646.98675537  -999.250000 -0.328100204 17.171899796 17.500000000  -999.250000  -999.250000  -999.250000  -999.250000 111.10765076 162.55348206 1.2862999439 80.452468872 0.7060081959 0.6702110767 1.0819000006
