# LAS format log file from PETREL
# Project units are specified as depth units
#==================================================================
~Version information
VERS.   2.0:
WRAP.   NO:
#==================================================================
~Well
STRT .m      439.11318970 :
STOP .m      3157.0148926 :
STEP .m     0.00000000 :
NULL .        -999.250000 :
COMP.           : COMPANY
WELL.  16/10-1 Alpha   : WELL
FLD.            : FIELD
LOC.            : LOCATION
SRVC.           : SERVICE COMPANY
DATE.  2018-09-11 14:48:05   : Log Export Date {yyyy-MM-dd HH:mm:ss}
PROV.           : PROVINCE
UWI.   16/10-1   : UNIQUE WELL ID
API.            : API NUMBER
#==================================================================
~Curve
DEPT .m                   : DEPTH
Lithology_geolink ._      : Lithology_geolink
DCAL .in                  : DCAL
CALI .in                  : CALI
BS .in                    : BS
DRHO .g/cm3               : DRHO
NPHI .m3/m3               : NPHI
RHOB .g/cm3               : RHOB
PEF .b/e                  : PEF
GR .gAPI                  : GR
DTC .us/ft                : DTC
RDEP .ohm.m               : RDEP
SP .mV                    : SP
RSHA .ohm.m               : RSHA
RXO .ohm.m                : RXO
RMED .ohm.m               : RMED
~Parameter
#==================================================================
~Ascii
# ...
 1354.4276123  -999.250000 -0.078100197 17.421899796 17.500000000  -999.250000  -999.250000  -999.250000  -999.250000 104.65750122 145.24389648 1.0437999964 77.134613037 1.0095000267 1.0506540537 1.0273000002
 1354.5800781  -999.250000 -0.015600199 17.484399796 17.500000000  -999.250000  -999.250000  -999.250000  -999.250000 103.71579742 144.50750732 1.0351999998 77.435241699 1.0863000154 1.0950168371 1.0254000425
 1354.7324219  -999.250000 0.0000000000 17.500000000 17.500000000  -999.250000  -999.250000  -999.250000  -999.250000 111.40969849 144.50590515 1.0321999788 77.429733276 1.1015000343 1.0993298292 1.0283999443
 1354.8848877  -999.250000 0.0468997993 17.546899796 17.500000000  -999.250000  -999.250000  -999.250000  -999.250000 113.45980072 145.72479248 1.0255000591 77.839187622 1.0971000195 1.1060857773 1.0398999453
 1355.0372314  -999.250000 -0.031200411 17.468799591 17.500000000  -999.250000  -999.250000  -999.250000  -999.250000 119.17500305 145.75000000 1.0253000259 78.190406799 1.1108000278 1.0664715767 1.0437999964
 1355.1896973  -999.250000 0.0000000000 17.500000000 17.500000000  -999.250000  -999.250000  -999.250000  -999.250000 115.63159943 145.70559692 1.0213999748 78.048820496 1.0275000334 1.0041562319 1.0444999933
 1355.3420410  -999.250000 0.0468997993 17.546899796 17.500000000  -999.250000  -999.250000  -999.250000  -999.250000 110.64839935 144.72300720 1.0154999495 78.355056763 0.9933999777 1.0394027233 1.0361000299
 1355.4945068  -999.250000 -0.015600199 17.484399796 17.500000000  -999.250000  -999.250000  -999.250000  -999.250000 106.22139740 143.35870361 1.0062999725 77.900199890 1.0825999975 1.1111193895 1.0273000002
 1355.6468506  -999.250000 -0.062500000 17.437500000 17.500000000  -999.250000  -999.250000  -999.250000  -999.250000 104.68070221 143.43040466 0.9901999831 77.594963074 1.1263999939 1.1089688540 1.0188000202
 1355.7991943  -999.250000 -0.093700409 17.406299591 17.500000000  -999.250000  -999.250000  -999.250000  -999.250000 100.72540283 142.89959717 0.9793000221 77.690292358 1.0841000080 1.0367692709 1.0125000477
 1355.9516602  -999.250000 -0.031200411 17.468799591 17.500000000  -999.250000  -999.250000  -999.250000  -999.250000 102.48220062 143.94090271 0.9722999930 77.549293518 1.0012999773 1.0058958530 1.0053000450
 1356.1040039  -999.250000 -0.031200411 17.468799591 17.500000000  -999.250000  -999.250000  -999.250000  -999.250000 103.97350311 144.41900635 0.9679999948 78.134826660 1.0202000141 1.0489735603 1.0027999878
 1356.2564697  -999.250000 0.0000000000 17.500000000 17.500000000  -999.250000  -999.250000  -999.250000  -999.250000 112.01429749 144.06140137 0.9714000225 78.594932556 1.0705000162 1.0701210499 0.9988999963
 1356.4088135  -999.250000 -0.062500000 17.437500000 17.500000000  -999.250000  -999.250000  -999.250000  -999.250000 112.61990356 144.27029419 0.9724000096 79.009857178 1.0614000559 1.0329583883 0.9926000237
 1356.5612793  -999.250000 -0.109399803 17.390600204 17.500000000  -999.250000  -999.250000  -999.250000  -999.250000 111.85949707 144.76980591 0.9703999758 79.310203552 1.0089999437 1.0007243156 0.9811000228
 1356.7136230  -999.250000 -0.093700409 17.406299591 17.500000000  -999.250000  -999.250000  -999.250000  -999.250000 105.67269897 145.46209717 0.9645000100 79.264808655 0.9945999980 0.9783090353 0.9708999991
 1356.8660889  -999.250000 -0.078100197 17.421899796 17.500000000  -999.250000  -999.250000  -999.250000  -999.250000 99.837303162 145.78509521 0.9546999931 79.189750671 0.9656999707 0.9689479470 0.9692000151
 1357.0184326  -999.250000 -0.062500000 17.437500000 17.500000000  -999.250000  -999.250000  -999.250000  -999.250000 98.831901550 146.43629456 0.9455999732 78.690040588 0.9754999876 0.9888847470 0.9792000055
 1357.1708984  -999.250000 -0.093700409 17.406299591 17.500000000  -999.250000  -999.250000  -999.250000  -999.250000 107.02459717 146.29150391 0.9341999888 78.229728699 1.0025000572 1.0298606157 0.9919999838
 1357.3232422  -999.250000 -0.062500000 17.437500000 17.500000000  -999.250000  -999.250000  -999.250000  -999.250000 116.05149841 146.70399475 0.9315000176 77.615737915 1.0543999672 1.0800992250 1.0015000105
 1357.4757080  -999.250000 -0.078100197 17.421899796 17.500000000  -999.250000  -999.250000  -999.250000  -999.250000 120.81169891 146.29389954 0.9264000058 77.010002136 1.0986000299 1.0811562538 1.0030000210
 1357.6280518  -999.250000 -0.078100197 17.421899796 17.500000000  -999.250000  -999.250000  -999.250000  -999.250000 115.54010010 146.97839355 0.9128000140 77.349983215 1.0635000467 1.0437749624 1.0048999786
 1357.7803955  -999.250000 -0.062500000 17.437500000 17.500000000  -999.250000  -999.250000  -999.250000  -999.250000 114.46140289 146.75390625 0.8865000010 77.310249329 1.0276999474 1.0339374542 1.0088000298
 1357.9328613  -999.250000 -0.125000000 17.375000000 17.500000000  -999.250000  -999.250000  -999.250000  -999.250000 116.46479797 146.99800110 0.8917000294 77.503730774 1.0400999784 1.0528268814 1.0078999996
 1358.0852051  -999.250000 -0.125000000 17.375000000 17.500000000  -999.250000  -999.250000  -999.250000  -999.250000 114.05039978 147.02699280 0.9054999948 77.980216980 1.0633000135 1.0474451780 1.0180000067
 1358.2376709  -999.250000 -0.093700409 17.406299591 17.500000000  -999.250000  -999.250000  -999.250000  -999.250000 111.04499817 148.23280334 0.9064000249 77.725044250 1.0333000422 1.0185697079 1.0053999424
 1358.3900146  -999.250000 -0.062500000 17.437500000 17.500000000  -999.250000  -999.250000  -999.250000  -999.250000 107.93890381 148.93109131 0.9246000051 77.764877319 1.0019999743 0.9467229843 0.9800000191
 1358.5424805  -999.250000 -0.109399803 17.390600204 17.500000000  -999.250000  -999.250000  -999.250000  -999.250000 112.07250214 148.20799255 0.9401000142 77.730606079 0.9060000181 0.9447042942 0.9751999974
 1358.6948242  -999.250000 -0.015600199 17.484399796 17.500000000  -999.250000  -999.250000  -999.250000  -999.250000 113.74210358 146.84550476 0.9484999776 77.594673157 0.9850000143 1.0109632015 0.9962999821
 1358.8472900  -999.250000 -0.140600204 17.359399796 17.500000000  -999.250000  -999.250000  -999.250000  -999.250000 115.01499939 146.71470642 0.9399999976 77.690132141 1.0164999962 0.9422804713 1.0210000277
 1358.9996338  -999.250000 -0.203100204 17.296899796 17.500000000  -999.250000  -999.250000  -999.250000  -999.250000 114.48950195 146.25000000 0.9318000078 77.430107117 0.8805999756 0.8847590089 1.0282000303
 1359.1520996  -999.250000 -0.171899796 17.328100204 17.500000000  -999.250000  -999.250000  -999.250000  -999.250000 108.84609985 145.76980591 0.9301000237 77.799499512 0.9090999961 0.9666690826 1.0410000086
 1359.3044434  -999.250000 -0.203100204 17.296899796 17.500000000  -999.250000  -999.250000  -999.250000  -999.250000 103.33860016 145.41850281 0.9197999835 78.225204468 1.0125000477 1.0165916681 1.0334000587
 1359.4569092  -999.250000 -0.171899796 17.328100204 17.500000000  -999.250000  -999.250000  -999.250000  -999.250000 101.01159668 144.31159973 0.9261000156 78.465133667 1.0163999796 1.0409295559 1.0271999836
 1359.6092529  -999.250000 -0.140600204 17.359399796 17.500000000  -999.250000  -999.250000  -999.250000  -999.250000 108.55290222 143.72970581 0.9269000292 79.055290222 1.0583000183 1.0376285315 1.0290000439
 1359.7615967  -999.250000 -0.140600204 17.359399796 17.500000000  -999.250000  -999.250000  -999.250000  -999.250000 116.17009735 143.03939819 0.9235000014 79.504936218 1.0176999569 1.0226730108 1.0205999613
 1359.9140625  -999.250000 -0.093700409 17.406299591 17.500000000  -999.250000  -999.250000  -999.250000  -999.250000 115.40329742 142.80610657 0.9272000194 80.299880981 1.0321999788 1.0432145596 1.0313999653
 1360.0664063  -999.250000 -0.015600199 17.484399796 17.500000000  -999.250000  -999.250000  -999.250000  -999.250000 111.61049652 143.23260498 0.9417999983 81.004493713 1.0487999916 1.0337884426 1.0250999928
 1360.2188721  -999.250000 0.1562996209 17.656299591 17.500000000  -999.250000  -999.250000  -999.250000  -999.250000 102.91470337 143.42179871 0.9503999949 81.559883118 1.0228999853 1.0512050390 1.0253000259
