# LAS format log file from PETREL
# Project units are specified as depth units
#==================================================================
~Version information
VERS.   2.0:
WRAP.   NO:
#==================================================================
~Well
STRT .m      415.13760376 :
STOP .m      2850.0324707 :
STEP .m     0.00000000 :
NULL .        -999.250000 :
COMP.           : COMPANY
WELL.  16/10-3 Tyr Central   : WELL
FLD.            : FIELD
LOC.            : LOCATION
SRVC.           : SERVICE COMPANY
DATE.  2018-09-11 14:48:06   : Log Export Date {yyyy-MM-dd HH:mm:ss}
PROV.           : PROVINCE
UWI.   16/10-3   : UNIQUE WELL ID
API.            : API NUMBER
#==================================================================
~Curve
DEPT .m                   : DEPTH
Lithology_geolink ._      : Lithology_geolink
DCAL .in                  : DCAL
CALI .in                  : CALI
BS .in                    : BS
DRHO .g/cm3               : DRHO
THOR .ppm                 : THOR
NPHI .m3/m3               : NPHI
RHOB .g/cm3               : RHOB
PEF .b/e                  : PEF
GR .gAPI                  : GR
URAN .ppm                 : URAN
DTC .us/ft                : DTC
DTS .us/ft                : DTS
RDEP .ohm.m               : RDEP
SP .mV                    : SP
RSHA .ohm.m               : RSHA
RMED .ohm.m               : RMED
~Parameter
#==================================================================
~Ascii
# ...
 1407.2615967  -999.250000 0.7691708803 13.019170761 12.250000954 0.0705920830  -999.250000  -999.250000 2.1472918987 5.1201629639 133.87109375  -999.250000 132.32319641  -999.250000 1.3031539917 87.314132690 1.0111099482 1.0187188387
 1407.4139404  -999.250000 0.5308055878 12.780809402 12.250000954 0.0311699416  -999.250000  -999.250000 2.1412940025 6.3546729088 132.23809814  -999.250000 132.14160156  -999.250000 1.3029580116 87.391860962 1.0186200142 1.0159076452
 1407.5664063  -999.250000 0.8362370133 13.086239815 12.250000954 0.0804334134  -999.250000  -999.250000 2.1659159660 8.1176652908 126.98220062  -999.250000 132.06199646  -999.250000 1.3135390282 87.241218567 1.0209170580 1.0202313662
 1407.7187500  -999.250000 0.8816108704 13.131608009 12.250000954 0.0255511161  -999.250000  -999.250000 2.1028211117 8.9102067947 119.88490295  -999.250000 131.32170105  -999.250000 1.3034609556 87.255241394 1.0277040005 1.0256204605
 1407.8712158  -999.250000 0.8274220824 13.077420235 12.250000954 0.0819141716  -999.250000  -999.250000 2.1162900925 6.2036290169 113.13880157  -999.250000 127.83438873  -999.250000 1.3135390282 87.234573364 1.0232080221 1.0244692564
 1408.0235596  -999.250000 0.5702170730 12.820219040 12.250000954 0.0827145949  -999.250000  -999.250000 2.1629760265 7.5620918274 118.43979645  -999.250000 123.32039642  -999.250000 1.3312360048 87.361763000 1.0354490280 1.0315973759
 1408.1760254  -999.250000 0.7439259291 12.993929863 12.250000954 0.0428956673  -999.250000  -999.250000 2.1314640045 7.0725140572 118.21579742  -999.250000 121.45240021  -999.250000 1.3137890100 87.157859802 1.0292919874 1.0312136412
 1408.3283691  -999.250000 0.5125579834 12.762559891 12.250000954 0.0731862485  -999.250000  -999.250000 2.1367039680 6.3464250565 120.26619720  -999.250000 122.76170349  -999.250000 1.2794589996 87.396247864 1.0136710405 1.0178884268
 1408.4808350  -999.250000 0.4751729965 12.725170135 12.250000954 0.0450647026  -999.250000  -999.250000 2.1408319473 5.1061072350 115.93319702  -999.250000 126.30560303  -999.250000 1.2837480307 87.325607300 1.0005409718 1.0040352345
 1408.6331787  -999.250000 0.5544471741 12.804450035 12.250000954 0.0595371053  -999.250000  -999.250000 2.1620700359 6.3358550072 124.80870056  -999.250000 130.02639771  -999.250000 1.2705889940 87.173767090 1.0009579659 1.0009512901
 1408.7856445  -999.250000 0.7706851363 13.020689964 12.250000954 0.0431737117  -999.250000  -999.250000 2.1447970867 7.7878470421 113.71640015  -999.250000 130.55999756  -999.250000 1.2585010529 87.451858521 0.9938470721 0.9960257411
 1408.9379883  -999.250000 0.6640329361 12.914030075 12.250000954 0.1072037444  -999.250000  -999.250000 2.1411249638 6.9498248100 116.65689850  -999.250000 128.92070007  -999.250000 1.2493729591 87.449493408 0.9860169888 0.9881979823
 1409.0903320  -999.250000 1.6879040003 13.937899590 12.250000954 0.0340209082  -999.250000  -999.250000 2.1151340008 4.9881591797 124.41480255  -999.250000 128.60209656  -999.250000 1.2470840216 87.227340698 0.9761692882 0.9789730906
 1409.2427979  -999.250000 1.9668371677 14.216839790 12.250000954 0.0671722665  -999.250000  -999.250000 2.1322090626 4.5112829208 120.88390350  -999.250000 129.88119507  -999.250000 1.2278269529 87.291549683 0.9647858739 0.9679829478
 1409.3951416  -999.250000 0.5419921875 12.791990280 12.250000954 0.0692873821  -999.250000  -999.250000 2.1895189285 3.9057240486 115.45359802  -999.250000 132.29939270  -999.250000 1.2337050438 87.250968933 0.9769120812 0.9732692242
 1409.5476074  -999.250000 0.5096644759 12.759659767 12.250000954 0.0096180970  -999.250000  -999.250000 2.1536691189 5.2034258842 124.65920258  -999.250000 134.70300293  -999.250000 1.2435810566 87.199966431 0.9812701941 0.9801509976
 1409.6999512  -999.250000 0.6565989852 12.906599998 12.250000954 0.0531979911  -999.250000  -999.250000 2.1615788937 7.8635568619 118.96060181  -999.250000 135.42840576  -999.250000 1.2238769531 87.217857361 0.9566491842 0.9638692737
 1409.8524170  -999.250000 0.5365151763 12.786520004 12.250000954 0.0574683286  -999.250000  -999.250000 2.1572089195 4.9868998528 115.03140259  -999.250000 134.90669250  -999.250000 1.2718269825 87.515151978 0.9921575189 0.9815661907
 1410.0047607  -999.250000 0.5788918138 12.828889847 12.250000954 0.0285905693  -999.250000  -999.250000 2.1273069382 4.4504480362 118.14170074  -999.250000 132.76559448  -999.250000 1.2960220575 87.423210144 1.0236639977 1.0149999857
 1410.1572266  -999.250000 0.5877075195 12.837710381 12.250000954 0.0094059724  -999.250000  -999.250000 2.1394140720 3.4203870296 123.33519745  -999.250000 128.34370422  -999.250000 1.2950839996 87.273178101 1.0096640587 1.0141240358
 1410.3095703  -999.250000 0.5027589798 12.752759933 12.250000954 0.0409786999  -999.250000  -999.250000 2.1505351067 3.8476870060 114.96170044  -999.250000 124.17730713  -999.250000 1.2911690474 87.286270142 1.0013370514 1.0034282207
 1410.4620361  -999.250000 0.4961262047 12.746129036 12.250000954 0.0548197702  -999.250000  -999.250000 2.1605811119 3.6272621155 116.37740326  -999.250000 122.38349915  -999.250000 1.2372970581 87.220840454 0.9662585855 0.9763292074
 1410.6143799  -999.250000 0.4892959893 12.739299774 12.250000954 0.0404270887  -999.250000  -999.250000 2.1629149914 3.8229029179 114.57089996  -999.250000 123.26760101  -999.250000 1.2148809433 87.593971252 0.9622576833 0.9629654288
 1410.7668457  -999.250000 0.4985800087 12.748580933 12.250000954 0.0499857701  -999.250000  -999.250000 2.1764130592 3.5300099850 120.06929779  -999.250000 126.14910126  -999.250000 1.1929149628 87.557060242 0.9544122815 0.9566577077
 1410.9191895  -999.250000 0.5143346786 12.764329910 12.250000954 0.0298498403  -999.250000  -999.250000 2.1741249561 4.0674390793 114.27729797  -999.250000 129.28430176  -999.250000 1.1824140549 87.358039856 0.9537367225 0.9538280964
 1411.0716553  -999.250000 0.4900923073 12.740090370 12.250000954 0.0555355288  -999.250000  -999.250000 2.1854960918 3.3689599037 114.02030182  -999.250000 131.39729309  -999.250000 1.1992390156 87.474586487 0.9482529759 0.9498223662
 1411.2239990  -999.250000 0.4832496941 12.733249664 12.250000954 0.0446846709  -999.250000  -999.250000 2.1744999886 3.4726939201 116.65889740  -999.250000 133.12980652  -999.250000 1.2019170523 87.647781372 0.9418836236 0.9436496496
 1411.3763428  -999.250000 0.4944953620 12.744500160 12.250000954 0.0243886299  -999.250000  -999.250000 2.1490941048 3.2444770336 123.12989807  -999.250000 135.09989929  -999.250000 1.2087049484 87.519126892 0.9432368875 0.9427551627
 1411.5288086  -999.250000 0.4863758087 12.736379623 12.250000954 0.0481452607  -999.250000  -999.250000 2.1547079086 3.4753229618 113.07430267  -999.250000 136.77980042  -999.250000 1.1773589849 87.629386902 0.9320787787 0.9353469610
 1411.6811523  -999.250000 0.4850415587 12.735038757 12.250000954 0.0320739187  -999.250000  -999.250000 2.1415901184 3.9951119423 117.11180115  -999.250000 137.66760254  -999.250000 1.1702519655 87.603813171 0.9217246175 0.9246012568
 1411.8336182  -999.250000 0.5290774703 12.779081345 12.250000954 0.0543688014  -999.250000  -999.250000 2.1544148922 4.4340538979 108.36139679  -999.250000 137.44970703  -999.250000 1.1604160070 87.372642517 0.9193592072 0.9199405313
 1411.9859619  -999.250000 0.5568609238 12.806860924 12.250000954 0.0221595392  -999.250000  -999.250000 2.1415910721 5.1913738251 117.38990021  -999.250000 136.65809631  -999.250000 1.1599999666 87.380859375 0.9110667706 0.9134564400
 1412.1384277  -999.250000 0.6432762146 12.893280029 12.250000954 0.0259284098  -999.250000  -999.250000 2.1429159641 4.7057747841 119.19869995  -999.250000 135.79620361  -999.250000 1.1676640511 87.310920715 0.9221959114 0.9188569188
 1412.2907715  -999.250000 0.4190550148 12.669050217 12.250000954 0.0258346200  -999.250000  -999.250000 2.1477890015 3.5268230438 120.80280304  -999.250000 135.20359802  -999.250000 1.1747030020 87.523559570 0.9256430268 0.9248064160
 1412.4432373  -999.250000 0.4032515585 12.653249741 12.250000954 0.0337428004  -999.250000  -999.250000 2.1508736610 3.8986320496 120.69170380  -999.250000 135.23849487  -999.250000 1.1903250217 87.543136597 0.9275128245 0.9270235896
