# LAS format log file from PETREL
# Project units are specified as depth units
#==================================================================
~Version information
VERS.   2.0:
WRAP.   NO:
#==================================================================
~Well
STRT .m      2766.8217773 :
STOP .m      3149.9555664 :
STEP .m     0.00000000 :
NULL .        -999.250000 :
COMP.           : COMPANY
WELL.  16/10-2 Delta   : WELL
FLD.            : FIELD
LOC.            : LOCATION
SRVC.           : SERVICE COMPANY
DATE.  2018-09-11 14:48:06   : Log Export Date {yyyy-MM-dd HH:mm:ss}
PROV.           : PROVINCE
UWI.   16/10-2   : UNIQUE WELL ID
API.            : API NUMBER
#==================================================================
~Curve
DEPT .m                   : DEPTH
Lithology_geolink ._      : Lithology_geolink
DCAL .in                  : DCAL
CALI .in                  : CALI
BS .in                    : BS
DRHO .g/cm3               : DRHO
THOR .ppm                 : THOR
NPHI .m3/m3               : NPHI
RHOB .g/cm3               : RHOB
PEF .b/e                  : PEF
GR .gAPI                  : GR
URAN .ppm                 : URAN
DTC .us/ft                : DTC
RDEP .ohm.m               : RDEP
SP .mV                    : SP
RMED .ohm.m               : RMED
~Parameter
#==================================================================
~Ascii
# ...
 2844.0888672 6.0000000000 1.1250000000 9.6250000000 8.5000000000 0.0240305401 11.289690018 0.3522891998 2.3675570488 4.8711972237 168.25050354 15.963509560 114.40019989 1.5410100222 117.92500305 2.1328299046
 2844.2412109 6.0000000000 1.1250000000 9.6250000000 8.5000000000 0.0244027507 12.195619583 0.3637331128 2.3710930347 4.7265729904 170.12489319 16.230180740 113.70010376 1.5576159954 117.67500305 2.0917999744
 2844.3935547 6.0000000000 1.1250000000 9.6250000000 8.5000000000 0.0241145305 12.187919617 0.3816772103 2.3796041012 4.6679491997 171.12710571 16.226299286 113.89990234 1.5712929964 116.92469788 2.0332069397
 2844.5461426 6.0000000000 1.1250000000 9.6250000000 8.5000000000 0.0192245394 12.477430344 0.3938015997 2.3714869022 4.6016230583 178.12510681 16.325859070 113.70019531 1.5849709511 116.05069733 2.0469648838
 2844.6984863 6.0000000000 1.1250000000 9.6250000000 8.5000000000 0.0155435801 11.838029861 0.3871307075 2.3661808968 4.6910948753 178.25090027 15.914291382 113.90180969 1.6006000042 117.17620087 2.1818039417
 2844.8508301 6.0000000000 1.1250000000 9.6250000000 8.5000000000 0.0111649903 11.688949585 0.3947294950 2.3576231003 4.3913269043 179.11779785 15.827570915 115.60009766 1.6142890453 118.30100250 2.3399670124
 2845.0031738 6.0000000000 1.1250000000 9.6250000000 8.5000000000 0.0116813704 11.220479965 0.4038259983 2.3365409374 4.8908119202 173.99510193 15.533208847 115.70320129 1.6367809772 119.04910278 2.4276130199
 2845.1555176 6.0000000000 1.1250840425 9.6250839233 8.5000000000 0.0069411648 10.192099571 0.4025610089 2.3072109222 4.9966030121 171.24200439 15.320589066 117.50299835 1.6719310284 118.54840088 2.3592920303
 2845.3081055 6.0000000000 1.1640360355 9.6640357971 8.5000000000 0.0041156290 10.858799934 0.3932619989 2.2739319801 5.2342100143 167.50259399 16.140319824 118.89900208 1.6982239485 117.80049896 2.3203389645
 2845.4604492 6.0000000000 1.1250120401 9.6250123978 8.5000000000 0.0062320540 10.821439743 0.3900880814 2.2873849869 4.7306308746 165.12579346 16.149150848 119.69979858 1.7148380280 118.17489624 2.3320269585
 2845.6127930 6.0000000000 1.1250000000 9.6250000000 8.5000000000 0.0099181654 10.546859741 0.4140979052 2.2985281944 4.6406340599 169.12539673 16.064460754 119.39990234 1.7304689884 118.17500305 2.4160180092
 2845.7651367 6.0000000000 1.1250000000 9.6250000000 8.5000000000 0.0101721399 10.723710060 0.4345193207 2.3173439503 4.8399019241 176.87510681 16.189710617 117.79959106 1.7451260090 118.55010223 2.4589540958
 2845.9177246 6.0000000000 1.1250000000 9.6250000000 8.5000000000 0.0102028800 10.512789726 0.4328121245 2.3167319298 4.9802417755 177.12139893 16.178239822 116.89980316 1.7666310072 118.80030060 2.3847200871
 2846.0700684 6.0000000000 1.1250000000 9.6250000000 8.5000000000 0.0116323102 10.477640152 0.4079735279 2.3294579983 4.6913199425 172.49349976 16.165559769 116.59889984 1.8047180176 119.17530060 2.3262870312
 2846.2224121 6.0000000000 1.1250000000 9.6250000000 8.5000000000 0.0097143389 10.302849770 0.3905620873 2.3407258987 4.6167831421 166.88200378 16.118589401 115.59970093 1.8310719728 119.42520142 2.4262359142
 2846.3747559 6.0000000000 1.1250000000 9.6250000000 8.5000000000 0.0112538999 10.684670448 0.3867697120 2.3574419022 4.3517251015 171.51339722 16.260110855 115.39849854 1.8427829742 119.55069733 2.7252840996
 2846.5273438 6.0000000000 1.1250000000 9.6250000000 8.5000000000 0.0077615539 11.017350197 0.3888391852 2.3626029491 4.4374189377 178.61830139 16.386869431 114.60079956 1.8476519585 119.92459869 3.0816950798
 2846.6796875 6.0000000000 1.1250000000 9.6250000000 8.5000000000 0.0086539006 10.939060211 0.3939176798 2.3608369827 4.3672280312 183.74710083 16.303350449 113.60050201 1.8554639816 120.79949951 3.2186720371
 2846.8320313 6.0000000000 1.1250000000 9.6250000000 8.5000000000 0.0080773821 11.041049957 0.4073128998 2.3509500027 4.5390272141 184.49980164 16.392059326 115.09970093 1.8583979607 121.29989624 3.0644850731
 2846.9843750 6.0000000000 1.1250000000 9.6250000000 8.5000000000 0.0103795798 11.807559967 0.4092510939 2.3439090252 4.9805111885 182.87480164 16.623550415 115.30000305 1.8613280058 120.92489624 2.8066179752
 2847.1367188 6.0000000000 1.1250000000 9.6250000000 8.5000000000 0.0105399396 11.776889801 0.4023118913 2.3454189301 5.2382440567 181.75090027 16.604059219 115.50070190 1.8623009920 120.29949951 2.6698451042
 2847.2893066 6.0000000000 1.1250000000 9.6250000000 8.5000000000 0.0109784398 12.051899910 0.3967414796 2.3399410248 5.1675028801 183.37319946 16.618869781 116.89968872 1.8554619551 119.42510223 2.5253379345
 2847.4416504 6.0000000000 1.1250000000 9.6250000000 8.5000000000 0.0118145496 12.408789635 0.3977809846 2.3357009888 4.6522641182 181.37750244 16.803350449 116.50080872 1.8476560116 119.54949951 2.4668040276
 2847.5939941 7.0000000000 1.1250380278 9.6250381470 8.5000000000 0.0101867402 12.650050163 0.4012348056 2.3273630142 4.5897917747 183.38279724 16.817369461 117.09949493 1.8476370573 119.17359924 2.4729449749
 2847.7463379 7.0000000000 1.1484689713 9.6484689713 8.5000000000 0.0095722964 13.044309616 0.3950880170 2.3303709030 4.5587110519 188.14680481 16.874479294 116.80020142 1.8359019756 118.29869843 2.6487579346
 2847.8989258 7.0000000000 1.1640499830 9.6640501022 8.5000000000 0.0089636100 13.208180428 0.4039660990 2.3419589996 4.6171388626 198.99099731 16.844949722 116.89990997 1.8183740377 117.67549896 2.8084619045
 2848.0512695 7.0000000000 1.1640629768 9.6640634537 8.5000000000 0.0105112903 12.867830276 0.3919855952 2.3513369560 4.5976648331 192.50300598 16.803670883 115.10079956 1.7978609800 117.05030060 2.8495910168
 2848.2036133 7.0000000000 1.2187449932 9.7187452316 8.5000000000 0.0081304004 13.072669983 0.3975752890 2.3736460209 4.6210918427 188.62530518 16.967910767 113.70010376 1.7607450485 116.30010223 2.6621260643
 2848.3559570 7.0000000000 1.2734379768 9.7734384537 8.5000000000 0.0115282303 13.248279572 0.3859471977 2.3787040710 5.1056251526 195.37759399 17.036090851 112.10010529 1.6855200529 115.17469788 2.5390369892
 2848.5085449 6.0000000000 1.2734477520 9.7734479904 8.5000000000 0.0139842601 13.524959564 0.3953216970 2.3837540150 5.6607131958 204.50329590 17.417339325 112.30039978 1.5936880112 114.29920197 2.4491109848
 2848.6608887 6.0000000000 1.2894048691 9.7894048691 8.5000000000 0.0211264193 14.758569717 0.4081362784 2.3666639328 6.5157399178 209.49349976 18.967660904 113.00129700 1.5018520355 113.04879761 2.2828309536
 2848.8132324 6.0000000000 1.6256949902 10.125699997 8.5000000000 0.0300489198 14.979299545 0.4251101017 2.3475060463 6.6293950081 203.12899780 18.937519073 114.29901123 1.4061379433 111.92289734 1.9186090231
 2848.9655762 6.0000000000 2.1251239777 10.625120163 8.5000000000 0.0420288295 14.455769539 0.4179875255 2.3307609558 6.9814171791 206.00369263 18.557189941 113.60119629 1.3280119896 110.42259979 1.6765739918
 2849.1181641 6.0000000000 2.1947329044 10.694729805 8.5000000000 0.0507696383 13.856100082 0.4079272151 2.3157858849 7.5216941833 208.11039734 18.039680481 114.29940796 1.2655040026 109.04709625 1.5721809864
 2849.2705078 6.0000000000 1.9220678806 10.422070503 8.5000000000 0.0705616698 13.125200272 0.3861819208 2.3237481117 8.5383434296 201.25489807 17.644910812 114.00019836 1.2099989653 107.67600250 1.5322550535
 2849.4228516 6.0000000000 1.8047280312 10.304730415 8.5000000000 0.0704183728 12.690429688 0.4009798765 2.2998108864 9.0701322556 196.50160217 17.279899597 112.90039063 1.1748160124 107.67500305 1.4814620018
 2849.5751953 6.0000000000 1.8828090429 10.382809639 8.5000000000 0.0691267177 12.269849777 0.4104893208 2.2843699455 8.7655811310 191.12480164 16.900909424 115.69999695 1.1484370232 107.42500305 1.4531270266
 2849.7275391 6.0000000000 1.7499470711 10.249951363 8.5000000000 0.0635614023 11.140250206 0.4185913801 2.2763879299 7.3315281868 186.24690247 16.325859070 115.40000153 1.1376969814 107.92510223 1.5185710192
 2849.8801270 6.0000000000 1.6171511412 10.117150307 8.5000000000 0.0569445118 10.718520164 0.4199150205 2.2919089794 6.0738878250 178.49569702 15.986169815 115.49940491 1.1416189671 108.17559814 1.5595539808
