# LAS format log file from PETREL
# Project units are specified as depth units
#==================================================================
~Version information
VERS.   2.0:
WRAP.   NO:
#==================================================================
~Well
STRT .m      2766.8217773 :
STOP .m      3149.9555664 :
STEP .m     0.00000000 :
NULL .        -999.250000 :
COMP.           : COMPANY
WELL.  16/10-2 Delta   : WELL
FLD.            : FIELD
LOC.            : LOCATION
SRVC.           : SERVICE COMPANY
DATE.  2018-09-11 14:48:06   : Log Export Date {yyyy-MM-dd HH:mm:ss}
PROV.           : PROVINCE
UWI.   16/10-2   : UNIQUE WELL ID
API.            : API NUMBER
#==================================================================
~Curve
DEPT .m                   : DEPTH
Lithology_geolink ._      : Lithology_geolink
DCAL .in                  : DCAL
CALI .in                  : CALI
BS .in                    : BS
DRHO .g/cm3               : DRHO
THOR .ppm                 : THOR
NPHI .m3/m3               : NPHI
RHOB .g/cm3               : RHOB
PEF .b/e                  : PEF
GR .gAPI                  : GR
URAN .ppm                 : URAN
DTC .us/ft                : DTC
RDEP .ohm.m               : RDEP
SP .mV                    : SP
RMED .ohm.m               : RMED
~Parameter
#==================================================================
~Ascii
# ...
 2968.9042969 2.0000000000 1.4218747616 9.9218750000 8.5000000000 0.0136889098 5.1329832077 0.2404258847 2.3784999847 4.0272178650 51.842098236 1.0347839594 88.299369812 0.7319424152 87.423042297 1.0742100477
 2969.0568848 2.0000000000 1.4217611551 9.9217605591 8.5000000000 0.0183529798 5.2247438431 0.2428227067 2.3764550686 3.8423221111 49.406250000 1.1444150209 87.398750305 0.7451257706 84.549728394 1.0614399910
 2969.2092285 2.0000000000 1.3124229908 9.8124227524 8.5000000000 0.0293807201 5.3420372009 0.2342160940 2.3833210468 4.3459620476 49.405010223 1.2513159513 86.198158264 0.7534220815 84.300872803 0.9818223119
 2969.3615723 2.0000000000 1.2577711344 9.7577705383 8.5000000000 0.0280401204 5.3081140518 0.2333027124 2.3801159859 5.9085779190 48.529911041 1.2720659971 84.898216248 0.7563589215 84.926986694 0.9033672810
 2969.5139160 2.0000000000 1.2341400385 9.7341403961 8.5000000000 0.0289364904 4.9893522263 0.2355180979 2.3820350170 7.2085719109 47.777290344 1.1500040293 83.897010803 0.7627274990 86.051597595 0.9300125241
 2969.6665039 2.0000000000 1.1250740290 9.6250743866 8.5000000000 0.0269952491 4.4431729317 0.2329777926 2.3927729130 6.1101241112 45.938758850 0.5389018059 82.500961304 0.7778217196 86.799476624 1.0809520483
 2969.8188477 2.0000000000 1.1640499830 9.6640501022 8.5000000000 0.0181400906 4.1148447990 0.2099599987 2.4093410969 4.7582349777 42.719760895 0.3601773977 80.900512695 0.7997977138 87.674713135 1.2636150122
 2969.9711914 16.000000000 1.2500009537 9.7500009537 8.5000000000 0.0147942910 4.1771807671 0.1895198971 2.4530620575 3.9257841110 41.093639374 0.4745034873 78.499946594 0.8149415255 87.174980164 1.3710969687
 2970.1235352 16.000000000 1.2734349966 9.7734346390 8.5000000000 0.0200429708 3.9176156521 0.1895696968 2.4906919003 3.9787559509 39.063240051 0.3737961054 77.100387573 0.8159167171 87.050361633 1.4364960194
 2970.2758789 16.000000000 1.2656248808 9.7656250000 8.5000000000 0.0147734797 4.1707811356 0.2163652927 2.4706990719 4.5430150032 40.811901093 0.5204737186 78.002075195 0.8129928708 87.926483154 1.3729510307
 2970.4284668 16.000000000 1.2656149864 9.7656154633 8.5000000000 0.0103363199 4.2733988762 0.2250340134 2.4242498875 4.6014528275 40.065078735 0.5754039288 80.603134155 0.8188673854 89.800567627 1.2527840137
 2970.5808105 16.000000000 1.2576680183 9.7576675415 8.5000000000 0.0077648512 4.3410181999 0.2207961977 2.3884658813 4.5066900253 42.279720306 0.6422029734 83.297393799 0.8359699845 90.298843384 1.1278829575
 2970.7331543 2.0000000000 1.1639879942 9.6639881134 8.5000000000 0.0085239988 4.3718090057 0.2037471980 2.3943541050 3.7753870487 41.283859253 0.6945708990 81.601142883 0.8574466705 89.549041748 1.0977269411
 2970.8854980 2.0000000000 1.1250360012 9.6250362396 8.5000000000 0.0080528483 4.5247640610 0.2064672112 2.4160850048 3.7734389305 42.654968262 0.7818092704 82.199440002 0.8705930710 89.050453186 1.1347310543
 2971.0380859 2.0000000000 1.0313019753 9.5313024521 8.5000000000 0.0100026997 4.3704099655 0.2144776881 2.4414689541 3.4884419441 42.562549591 0.6973286271 79.601455688 0.8740214705 89.924491882 1.1337900162
 2971.1904297 2.0000000000 1.0000059605 9.5000057220 8.5000000000 0.0122286500 4.6724791527 0.2269928008 2.4377400875 3.3086290359 43.437328339 0.9268131256 78.900138855 0.8813462257 91.799621582 1.1171909571
 2971.3427734 2.0000000000 1.0000029802 9.5000028610 8.5000000000 0.0098950928 4.7105669975 0.2203285098 2.4236280918 3.0136899948 44.312721252 0.9281936884 79.400100708 0.8989307284 93.300071716 1.0810439587
 2971.4951172 2.0000000000 1.0156160593 9.5156164169 8.5000000000 0.0054938989 4.3773488998 0.2132051140 2.4097919464 3.1192409992 45.562961578 0.6689757109 80.000160217 0.9277517796 93.800056458 1.0175600052
 2971.6477051 2.0000000000 1.0000070333 9.5000066757 8.5000000000 0.0094777271 4.3173670769 0.2065619081 2.4333670139 3.3026540279 46.407699585 0.5903276205 80.299713135 0.9604743123 93.925216675 0.9848780036
 2971.8000488 2.0000000000 1.0078020096 9.5078020096 8.5000000000 0.0114927702 4.5739030838 0.2055464983 2.4596059322 3.2148189545 48.002719879 0.6993504763 80.000259399 0.9883084893 94.175628662 1.0010629892
 2971.9523926 2.0000000000 0.9999743104 9.4999742508 8.5000000000 0.0123182600 4.5949168205 0.2090463042 2.4732160568 3.1954090595 50.126388550 0.7005156875 80.198837280 1.0097980499 94.675399780 1.0685800314
 2972.1047363 2.0000000000 0.9843596220 9.4843597412 8.5000000000 0.0160542596 4.5848450661 0.2125639021 2.4703121185 3.2546970844 50.965419769 0.6886550188 79.499382019 1.0293469429 94.924743652 1.2024749517
 2972.2570801 2.0000000000 0.9765691757 9.4765691757 8.5000000000 0.0253769904 4.6066331863 0.2137624025 2.4618721008 3.6461648941 49.313850403 0.7603945136 79.200256348 1.0546669960 94.800086975 1.3641259670
 2972.4096680 4.0000000000 0.9062815309 9.4062814713 8.5000000000 0.0371742882 4.7804880142 0.2075325996 2.4745750427 3.7401928902 47.407100677 0.8844817877 80.099601746 1.0810430050 93.800430298 1.3339979649
 2972.5620117 4.0000000000 0.8359431624 9.3359432220 8.5000000000 0.0526743308 4.3075809479 0.2038557082 2.4932439327 3.6914100647 49.749820709 0.6828653216 78.600120544 1.1025370359 93.050048828 1.2968779802
 2972.7143555 4.0000000000 0.8281249404 9.3281250000 8.5000000000 0.0630852729 5.2407770157 0.2060478926 2.4992361069 3.6152749062 50.906700134 1.0347429514 80.000183105 1.1132810116 91.549400330 1.3261829615
 2972.8666992 4.0000000000 0.8281249404 9.3281250000 8.5000000000 0.0615565889 5.4566159248 0.2197462022 2.4832339287 3.7558760643 52.437400818 1.1425709724 80.599266052 1.1142569780 89.549491882 1.3632520437
 2973.0192871 2.0000000000 0.8281574249 9.3281574249 8.5000000000 0.0586122386 5.8600969315 0.2305363119 2.4685790539 3.7814760208 52.287849426 1.3208910227 79.501007080 1.1132880449 88.800117493 1.3182959557
 2973.1716309 2.0000000000 0.8593310714 9.3593311310 8.5000000000 0.0524185710 6.1085720062 0.2265233099 2.4726829529 4.0006341934 58.691390991 1.4133100510 80.502243042 1.1201210022 88.926223755 1.2567930222
 2973.3239746 2.0000000000 0.8282489181 9.3282489777 8.5000000000 0.0576970205 5.9569311142 0.2255898118 2.4854519367 4.4539132118 61.475879669 1.3526550531 82.093109131 1.1230520010 89.801086426 1.2266470194
 2973.4763184 2.0000000000 0.8980206847 9.3980207443 8.5000000000 0.0440453999 5.9466929436 0.2274990976 2.4771099091 4.8978629112 65.503196716 1.3344630003 78.199378967 1.1260139942 90.424453735 1.2745909691
 2973.6289063 2.0000000000 0.7032603621 9.2032604218 8.5000000000 0.0358156003 5.6905980110 0.2395325154 2.4529840946 4.6290941238 66.998947144 1.2340450287 77.900199890 1.1435420513 90.175163269 1.3573640585
 2973.7812500 2.0000000000 0.6796950698 9.1796951294 8.5000000000 0.0370314606 4.8740410805 0.2351589054 2.4607200623 4.3047938347 64.688262939 0.9080858827 78.999641418 1.1767469645 89.800109863 1.2812750340
 2973.9335938 2.0000000000 0.5781230927 9.0781230927 8.5000000000 0.0390009992 4.5040998459 0.2220130861 2.4810590744 4.1484489441 59.093379974 0.7261099815 74.400131226 1.2119150162 90.049972534 1.2792990208
 2974.0859375 2.0000000000 0.5312500000 9.0312500000 8.5000000000 0.0252200402 4.7518978119 0.2149823010 2.5090470314 4.4375000000 49.937229156 0.8056684732 77.299133301 1.2421829700 89.675086975 1.3292429447
 2974.2382813 4.0000000000 0.5313044190 9.0313043594 8.5000000000 0.0427864417 4.5935821533 0.2078700066 2.5487411022 4.4378409386 49.283420563 0.7682271004 75.199058533 1.2314080000 89.925376892 1.6740339994
 2974.3908691 4.0000000000 0.6015090942 9.1015090942 8.5000000000 0.0584720597 4.8462882042 0.2070877105 2.5625519753 4.8746538162 52.063358307 0.8499968052 74.005050659 1.1844949722 90.426422119 1.9376349449
 2974.5432129 2.0000000000 0.5544385910 9.0544385910 8.5000000000 0.0537824109 6.3819241524 0.2181111872 2.5262229443 4.5738101006 52.815959930 1.2531689405 78.402732849 1.1209870577 91.675369263 2.0541861057
 2974.6955566 2.0000000000 0.3906106949 8.8906106949 8.5000000000 0.0532889403 6.2646322250 0.2362051010 2.4733130932 4.3040809631 55.094158173 1.2025530338 80.205276489 1.0526210070 91.924751282 1.7236629725
