# LAS format log file from PETREL
# Project units are specified as depth units
#==================================================================
~Version information
VERS.   2.0:
WRAP.   NO:
#==================================================================
~Well
STRT .m      415.13760376 :
STOP .m      2850.0324707 :
STEP .m     0.00000000 :
NULL .        -999.250000 :
COMP.           : COMPANY
WELL.  16/10-3 Tyr Central   : WELL
FLD.            : FIELD
LOC.            : LOCATION
SRVC.           : SERVICE COMPANY
DATE.  2018-09-11 14:48:06   : Log Export Date {yyyy-MM-dd HH:mm:ss}
PROV.           : PROVINCE
UWI.   16/10-3   : UNIQUE WELL ID
API.            : API NUMBER
#==================================================================
~Curve
DEPT .m                   : DEPTH
Lithology_geolink ._      : Lithology_geolink
DCAL .in                  : DCAL
CALI .in                  : CALI
BS .in                    : BS
DRHO .g/cm3               : DRHO
THOR .ppm                 : THOR
NPHI .m3/m3               : NPHI
RHOB .g/cm3               : RHOB
PEF .b/e                  : PEF
GR .gAPI                  : GR
URAN .ppm                 : URAN
DTC .us/ft                : DTC
DTS .us/ft                : DTS
RDEP .ohm.m               : RDEP
SP .mV                    : SP
RSHA .ohm.m               : RSHA
RMED .ohm.m               : RMED
~Parameter
#==================================================================
~Ascii
# ...
 1887.3216553 19.000000000 0.5914431214 12.841440201 12.250000954 0.0008434100  -999.250000  -999.250000 2.1860520840 3.4979810715 73.276550293  -999.250000 124.87999725  -999.250000 0.8589457273 88.761276245 0.7229601145 0.7308952808
 1887.4739990 19.000000000 0.6733789444 12.923378944 12.250000954 -0.011324640  -999.250000  -999.250000 2.1726241112 2.8815948963 69.973083496  -999.250000 124.40309143  -999.250000 0.8386839032 88.920722961 0.7054203749 0.7101807594
 1887.6264648 19.000000000 0.6846704483 12.934670448 12.250000954 0.0342175998  -999.250000  -999.250000 2.2093899250 3.6780939102 77.590843201  -999.250000 124.46929932  -999.250000 0.8195412159 88.792167664 0.6945629716 0.6974947453
 1887.7788086 19.000000000 0.6715831757 12.921580315 12.250000954 0.0120103899  -999.250000  -999.250000 2.2138750553 3.0202069283 80.902061462  -999.250000 124.80409241  -999.250000 0.7859655023 88.874237061 0.6783770919 0.6829563975
 1887.9312744 19.000000000 0.6508684754 12.900870323 12.250000954 0.0095684249  -999.250000  -999.250000 2.1929099560 2.8769199848 82.100517273  -999.250000 125.10179901  -999.250000 0.7662736177 89.075309753 0.6592620015 0.6646489501
 1888.0836182 19.000000000 0.6519165039 12.901920319 12.250000954 0.0140442504  -999.250000  -999.250000 2.1776258945 2.5953969955 83.572402954  -999.250000 124.69290161  -999.250000 0.7538685203 88.798393250 0.6496623755 0.6522486806
 1888.2360840 19.000000000 0.6673374176 12.917340279 12.250000954 0.0210158695  -999.250000  -999.250000 2.1894619465 2.6405398846 87.982528687  -999.250000 123.76629639  -999.250000 0.7744287848 88.847717285 0.6649677753 0.6604477763
 1888.3884277 19.000000000 0.6449851990 12.894989967 12.250000954 0.0248463992  -999.250000  -999.250000 2.2130150795 3.4997510910 85.387657166  -999.250000 123.78100586  -999.250000 0.8097441792 88.914779663 0.6878563166 0.6813961267
 1888.5408936 19.000000000 0.6622123718 12.912210464 12.250000954 0.0018472850  -999.250000  -999.250000 2.2187929153 2.7877678871 91.706207275  -999.250000 124.88289642  -999.250000 0.8251975775 88.891510010 0.7071526051 0.7018510699
 1888.6932373 6.0000000000 0.6706705093 12.920668602 12.250000954 0.0089015150  -999.250000  -999.250000 2.2276299000 2.0676939487 97.453071594  -999.250000 126.01170349  -999.250000 0.8607732058 88.953056335 0.7260786891 0.7208423018
 1888.8457031 6.0000000000 0.6681252122 12.918130875 12.250000954 0.0318274610  -999.250000  -999.250000 2.2414190769 2.1220159531 98.828269958  -999.250000 126.80561066  -999.250000 0.8511191010 89.041908264 0.7177770138 0.7204424143
 1888.9980469 6.0000000000 0.6488227844 12.898818970 12.250000954 -0.006444795  -999.250000  -999.250000 2.2046060562 3.0215969086 103.12339783  -999.250000 126.86849976  -999.250000 0.8070210814 88.706527710 0.6896352768 0.6977627873
 1889.1505127 6.0000000000 0.6422501206 12.892251015 12.250000954 0.0288671106  -999.250000  -999.250000 2.2097089291 2.7614839077 102.97699738  -999.250000 126.78769684  -999.250000 0.7901321054 88.827407837 0.6780099869 0.6810848713
 1889.3028564 6.0000000000 0.6793919802 12.929389954 12.250000954 0.0119309695  -999.250000  -999.250000 2.1889069080 2.9719140530 110.40170288  -999.250000 127.59609985  -999.250000 0.7565761805 88.748741150 0.6482583880 0.6567998528
 1889.4552002 6.0000000000 0.6522492766 12.902250290 12.250000954 0.0025530220  -999.250000  -999.250000 2.1534988880 2.8640429974 106.21279907  -999.250000 128.72230530  -999.250000 0.7459450960 88.627769470 0.6406784058 0.6425153613
 1889.6076660 6.0000000000 0.6605873108 12.910590172 12.250000954 0.0153058004  -999.250000  -999.250000 2.1529593468 2.6638209820 111.63410187  -999.250000 129.34890747  -999.250000 0.7450665832 88.796249390 0.6315190196 0.6340783834
 1889.7600098 7.0000000000 0.6715411544 12.921541214 12.250000954 0.0083699692  -999.250000  -999.250000 2.1530001163 2.4926469326 119.71489716  -999.250000 129.50680542  -999.250000 0.7369819283 88.628143311 0.6323329806 0.6319833398
 1889.9124756 6.0000000000 0.6547450423 12.904748917 12.250000954 0.0012301310  -999.250000  -999.250000 2.1510829926 2.4492020607 106.66989899  -999.250000 129.45370483  -999.250000 0.7196642756 88.391761780 0.6222515702 0.6251947284
 1890.0648193 6.0000000000 0.6453762054 12.895380020 12.250000954 0.0159083307  -999.250000  -999.250000 2.1634569168 2.6114099026 111.27919769  -999.250000 129.55310059  -999.250000 0.6934183836 88.444816589 0.6074725986 0.6116756201
 1890.2172852 6.0000000000 0.6660881639 12.916089058 12.250000954 0.0157101508  -999.250000  -999.250000 2.1726269722 3.4144101143 109.14920044  -999.250000 129.73809814  -999.250000 0.6806961894 88.103019714 0.5980631113 0.6006463766
 1890.3696289 6.0000000000 0.6459035873 12.895899773 12.250000954 0.0049825641  -999.250000  -999.250000 2.1787540913 3.0285809040 108.43759918  -999.250000 129.58180237  -999.250000 0.6734551787 88.310379028 0.5871710181 0.5902256370
 1890.5220947 7.0000000000 0.6632118821 12.913211823 12.250000954 0.0165087599  -999.250000  -999.250000 2.1933779716 3.2009010315 122.91909790  -999.250000 130.29150391  -999.250000 0.6750360727 88.089279175 0.5645123720 0.5709979534
 1890.6744385 7.0000000000 0.6707114577 12.920709610 12.250000954 0.0092299208  -999.250000  -999.250000 2.1968770027 2.8429648876 108.00640106  -999.250000 132.84820557  -999.250000 0.6468964219 88.142433167 0.5410925746 0.5476320386
 1890.8269043 6.0000000000 0.6317024827 12.881699562 12.250000954 0.0108895889  -999.250000  -999.250000 2.1989169121 3.1105380058 117.85769653  -999.250000 135.95739746  -999.250000 0.6071876884 88.075958252 0.5157170296 0.5228344798
 1890.9792480 6.0000000000 0.6817759871 12.931778908 12.250000954 0.0056491480  -999.250000  -999.250000 2.1721529961 3.7929270267 110.28530121  -999.250000 138.43670654  -999.250000 0.5731825829 87.863456726 0.4890297055 0.4965576828
 1891.1317139 6.0000000000 0.6523724198 12.902369499 12.250000954 -0.000494266  -999.250000  -999.250000 2.1451230049 2.7488551140 112.24539948  -999.250000 139.37040710  -999.250000 0.5612390041 88.058547974 0.4783293009 0.4811290801
 1891.2840576 6.0000000000 0.6788044572 12.928799629 12.250000954 0.0203168597  -999.250000  -999.250000 2.1583809853 2.9643790722 111.39409637  -999.250000 137.99650574  -999.250000 0.5530866981 87.931198120 0.4756492078 0.4763365984
 1891.4364014 6.0000000000 0.6426238418 12.892621040 12.250000954 0.0222826414  -999.250000  -999.250000 2.1820011139 2.9643220901 104.22940063  -999.250000 135.96859741  -999.250000 0.5667911768 87.839859009 0.4830667973 0.4808999896
 1891.5888672 6.0000000000 0.6793469191 12.929349899 12.250000954 0.0074365200  -999.250000  -999.250000 2.1887519360 3.0774869919 116.95729828  -999.250000 135.20590210  -999.250000 0.5661395788 87.716133118 0.4818198085 0.4823124111
 1891.7412109 7.0000000000 0.6618347168 12.911829948 12.250000954 0.0138766496  -999.250000  -999.250000 2.1832499504 3.1035408974 125.38999939  -999.250000 134.94940186  -999.250000 0.5444247127 87.965843201 0.4749411941 0.4769076705
 1891.8936768 7.0000000000 0.6638774872 12.913881302 12.250000954 0.0033943690  -999.250000  -999.250000 2.1551771164 3.6887478828 126.99490356  -999.250000 134.09159851  -999.250000 0.5180581212 88.057411194 0.4574787021 0.4625005722
 1892.0460205 7.0000000000 0.6783971190 12.928399086 12.250000954 -0.007101483  -999.250000  -999.250000 2.1242458820 3.2473759651 142.12150574  -999.250000 133.30419922  -999.250000 0.5161566138 87.994132996 0.4496716857 0.4517717957
 1892.1984863 7.0000000000 0.6732435822 12.923238754 12.250000954 0.0250237603  -999.250000  -999.250000 2.1393098831 2.9299900532 130.99909973  -999.250000 133.55850220  -999.250000 0.5286952257 87.836029053 0.4543147981 0.4528667033
 1892.3508301 7.0000000000 0.6710795760 12.921079636 12.250000954 0.0053237001  -999.250000  -999.250000 2.1361610889 5.2157921791 120.39669800  -999.250000 134.77239990  -999.250000 0.5182219148 88.042472839 0.4434534907 0.4466858804
 1892.5032959 6.0000000000 0.6642838120 12.914279938 12.250000954 0.0133420601  -999.250000  -999.250000 2.1110570431 4.5255889893 118.63159943  -999.250000 136.17770386  -999.250000 0.5101599097 87.987167358 0.4420183003 0.4423202574
