# LAS format log file from PETREL
# Project units are specified as depth units
#==================================================================
~Version information
VERS.   2.0:
WRAP.   NO:
#==================================================================
~Well
STRT .m      415.13760376 :
STOP .m      2850.0324707 :
STEP .m     0.00000000 :
NULL .        -999.250000 :
COMP.           : COMPANY
WELL.  16/10-3 Tyr Central   : WELL
FLD.            : FIELD
LOC.            : LOCATION
SRVC.           : SERVICE COMPANY
DATE.  2018-09-11 14:48:06   : Log Export Date {yyyy-MM-dd HH:mm:ss}
PROV.           : PROVINCE
UWI.   16/10-3   : UNIQUE WELL ID
API.            : API NUMBER
#==================================================================
~Curve
DEPT .m                   : DEPTH
Lithology_geolink ._      : Lithology_geolink
DCAL .in                  : DCAL
CALI .in                  : CALI
BS .in                    : BS
DRHO .g/cm3               : DRHO
THOR .ppm                 : THOR
NPHI .m3/m3               : NPHI
RHOB .g/cm3               : RHOB
PEF .b/e                  : PEF
GR .gAPI                  : GR
URAN .ppm                 : URAN
DTC .us/ft                : DTC
DTS .us/ft                : DTS
RDEP .ohm.m               : RDEP
SP .mV                    : SP
RSHA .ohm.m               : RSHA
RMED .ohm.m               : RMED
~Parameter
#==================================================================
~Ascii
# ...
 580.49157715  -999.250000 0.5011463165 18.001150131 17.500000000  -999.250000  -999.250000  -999.250000  -999.250000  -999.250000 125.41600037  -999.250000 166.52148438  -999.250000 1.3533829451 497.93188477 0.8849158287 0.8907601237
 580.64398193  -999.250000 0.6455898285 18.145589828 17.500000000  -999.250000  -999.250000  -999.250000  -999.250000  -999.250000 126.16329956  -999.250000 166.93408203  -999.250000 1.3386379480 494.88400269 0.8793969750 0.8807378411
 580.79638672  -999.250000 0.7620831728 18.262079239 17.500000000  -999.250000  -999.250000  -999.250000  -999.250000  -999.250000 121.36669922  -999.250000 168.15049744  -999.250000 1.3312989473 495.79971313 0.8729851842 0.8747825027
 580.94879150  -999.250000 0.7861443162 18.286140442 17.500000000  -999.250000  -999.250000  -999.250000  -999.250000  -999.250000 123.71929932  -999.250000 169.75509644  -999.250000 1.3233410120 498.39410400 0.9073045850 0.8973020911
 581.10119629  -999.250000 0.7803001404 18.280300140 17.500000000  -999.250000  -999.250000  -999.250000  -999.250000  -999.250000 133.83210754  -999.250000 170.98950195  -999.250000 1.2492040396 495.71890259 0.8891738057 0.8948999047
 581.25360107  -999.250000 1.3083420992 18.808340073 17.500000000  -999.250000  -999.250000  -999.250000  -999.250000  -999.250000 120.69960022  -999.250000 171.55549622  -999.250000 1.2096049786 497.11450195 0.9029436707 0.8986980915
 581.40600586  -999.250000 1.3463569880 18.846359253 17.500000000  -999.250000  -999.250000  -999.250000  -999.250000  -999.250000 117.52010345  -999.250000 171.75302124  -999.250000 1.2720509768 498.56671143 0.8782253861 0.8855901957
 581.55841064  -999.250000 1.3996388912 18.899639130 17.500000000  -999.250000  -999.250000  -999.250000  -999.250000  -999.250000 120.20169830  -999.250000 171.87680054  -999.250000 1.3103899956 498.35559082 0.8603240252 0.8652067184
 581.71081543  -999.250000 0.8746662140 18.374670029 17.500000000  -999.250000  -999.250000  -999.250000  -999.250000  -999.250000 126.14759827  -999.250000 171.99206543  -999.250000 1.2938100100 496.68798828 0.8768842220 0.8719010353
 581.86322021  -999.250000 1.0921690464 18.592170715 17.500000000  -999.250000  -999.250000  -999.250000  -999.250000  -999.250000 128.89169312  -999.250000 172.13139343  -999.250000 1.2738529444 496.55249023 0.8771398067 0.8772922158
 582.01562500  -999.250000 1.3174500465 18.817449570 17.500000000  -999.250000  -999.250000  -999.250000  -999.250000  -999.250000 129.44149780  -999.250000 172.29997253  -999.250000 1.3017070293 498.65948486 0.8913727999 0.8872262836
 582.16802979  -999.250000 1.2255209684 18.725519180 17.500000000  -999.250000  -999.250000  -999.250000  -999.250000  -999.250000 132.17900085  -999.250000 172.48791504  -999.250000 1.2502969503 498.48770142 0.8582211733 0.8679999709
 582.32043457  -999.250000 0.7959498763 18.295949936 17.500000000  -999.250000  -999.250000  -999.250000  -999.250000  -999.250000 134.78019714  -999.250000 172.67561340  -999.250000 1.2403399944 497.20980835 0.8697096109 0.8659482002
 582.47283936  -999.250000 1.0574860573 18.557489395 17.500000000  -999.250000  -999.250000  -999.250000  -999.250000  -999.250000 134.34019470  -999.250000 172.80702209  -999.250000 1.1997640133 495.83538818 0.8678870797 0.8685999513
 582.62518311  -999.250000 1.1628530025 18.662849426 17.500000000  -999.250000  -999.250000  -999.250000  -999.250000  -999.250000 131.48989868  -999.250000 172.81399536  -999.250000 1.1740579605 497.88790894 0.8199682236 0.8338871598
 582.77758789  -999.250000 0.3916454017 17.891649246 17.500000000  -999.250000  -999.250000  -999.250000  -999.250000  -999.250000 137.70910645  -999.250000 172.68020630  -999.250000 1.1318060160 495.52868652 0.8269826770 0.8243563771
 582.92999268  -999.250000 0.3531723022 17.853170395 17.500000000  -999.250000  -999.250000  -999.250000  -999.250000  -999.250000 144.30349731  -999.250000 172.44239807  -999.250000 1.1558309793 495.63690186 0.8334366083 0.8316816092
 583.08239746  -999.250000 0.3175849915 17.817579269 17.500000000  -999.250000  -999.250000  -999.250000  -999.250000  -999.250000 139.20570374  -999.250000 171.94230652  -999.250000 1.1493419409 497.06420898 0.8358039856 0.8351951838
 583.23480225  -999.250000 0.3820419014 17.882040024 17.500000000  -999.250000  -999.250000  -999.250000  -999.250000  -999.250000 142.68150330  -999.250000 170.94999695  -999.250000 1.1585700512 495.64160156 0.8686084747 0.8591428399
 583.38720703  -999.250000 0.3974438012 17.897439957 17.500000000  -999.250000  -999.250000  -999.250000  -999.250000  -999.250000 143.33689880  -999.250000 169.28010559  -999.250000 1.1570860147 494.85510254 0.8519430161 0.8571873307
 583.53961182  -999.250000 0.4056567848 17.905660629 17.500000000  -999.250000  -999.250000  -999.250000  -999.250000  -999.250000 139.14700317  -999.250000 167.80232239  -999.250000 1.1474269629 496.85101318 0.8512414098 0.8511679769
 583.69201660  -999.250000 0.4012146592 17.901210785 17.500000000  -999.250000  -999.250000  -999.250000  -999.250000  -999.250000 132.82600403  -999.250000 167.52890015  -999.250000 1.1489139795 497.09249878 0.8484436274 0.8492290974
 583.84442139  -999.250000 0.3885593414 17.888559341 17.500000000  -999.250000  -999.250000  -999.250000  -999.250000  -999.250000 124.44329834  -999.250000 168.72401428  -999.250000 1.1681330204 495.32128906 0.8524671197 0.8512902856
 583.99682617  -999.250000 0.4262942672 17.926290512 17.500000000  -999.250000  -999.250000  -999.250000  -999.250000  -999.250000 125.45919800  -999.250000 170.55920410  -999.250000 1.2216030359 496.93750000 0.8743069172 0.8680592775
 584.14923096  -999.250000 0.4490622878 17.949060440 17.500000000  -999.250000  -999.250000  -999.250000  -999.250000  -999.250000 129.34649658  -999.250000 172.12789917  -999.250000 1.2374000549 495.21170044 0.8962330222 0.8901835680
 584.30163574  -999.250000 0.4806346893 17.980630875 17.500000000  -999.250000  -999.250000  -999.250000  -999.250000  -999.250000 126.74130249  -999.250000 173.35910034  -999.250000 1.2418290377 496.11590576 0.9089620113 0.9055626392
 584.45404053  -999.250000 0.3575516045 17.857549667 17.500000000  -999.250000  -999.250000  -999.250000  -999.250000  -999.250000 123.48439789  -999.250000 174.07910156  -999.250000 1.1489839554 496.35379028 0.8573238254 0.8725070953
 584.60644531  -999.250000 0.1548061073 17.654809952 17.500000000  -999.250000  -999.250000  -999.250000  -999.250000  -999.250000 126.18879700  -999.250000 173.96749878  -999.250000 1.1650940180 496.94680786 0.8408014774 0.8449677825
 584.75878906  -999.250000 0.0416641161 17.541660309 17.500000000  -999.250000  -999.250000  -999.250000  -999.250000  -999.250000 129.73109436  -999.250000 173.29649353  -999.250000 1.1727000475 495.46890259 0.8611587882 0.8550835848
 584.91119385  -999.250000 0.0618972853 17.561899185 17.500000000  -999.250000  -999.250000  -999.250000  -999.250000  -999.250000 131.53379822  -999.250000 172.65299988  -999.250000 1.2170120478 498.18481445 0.8305311203 0.8397406936
 585.06359863  -999.250000 0.0706596375 17.570659637 17.500000000  -999.250000  -999.250000  -999.250000  -999.250000  -999.250000 129.29449463  -999.250000 172.30992126  -999.250000 1.2209149599 494.25491333 0.8621984720 0.8526467085
 585.21600342  -999.250000 0.0575942956 17.557590485 17.500000000  -999.250000  -999.250000  -999.250000  -999.250000  -999.250000 128.44900513  -999.250000 172.18699646  -999.250000 1.2037589550 496.35931396 0.8472145796 0.8520106077
 585.36840820  -999.250000 0.0426368751 17.542640686 17.500000000  -999.250000  -999.250000  -999.250000  -999.250000  -999.250000 127.67150116  -999.250000 172.14291382  -999.250000 1.1589189768 497.83538818 0.8577631712 0.8545194268
 585.52081299  -999.250000 -0.001085281 17.498910904 17.500000000  -999.250000  -999.250000  -999.250000  -999.250000  -999.250000 125.63800049  -999.250000 171.87849426  -999.250000 1.2363510132 495.59408569 0.8381419778 0.8440280557
 585.67321777  -999.250000 0.0324249305 17.532419205 17.500000000  -999.250000  -999.250000  -999.250000  -999.250000  -999.250000 123.31809998  -999.250000 171.31089783  -999.250000 1.2409570217 495.26800537 0.8922116756 0.8763099313
